%time,field.linear.x,field.linear.y,field.linear.z,field.angular.x,field.angular.y,field.angular.z
1718278678149003478,-0.0351792306884567,0.0731977395256305,-0.038739130906554,-0.881306258305466,0.1420915863379822,0.5457928744607831
1718278678149012599,-0.1355947287074644,0.1294089724138249,-0.0428676160649135,-0.9912570024321582,0.1387929252321579,0.9838291152185376
1718278678150310871,-0.212476574270237,0.1500538902718136,-0.1880576877404624,-1.2864066401487075,0.1395804564692025,1.1197212523098743
1718278678151528670,-0.1836962169956,0.1630490980951037,-0.0409656360877522,-1.054601592680096,0.2607549415261448,1.0890043177573538
1718278678152945207,-0.181464483688189,0.1670746447532658,-0.048996863882555,-1.1130849964070342,0.3399702763722882,1.0328468824504555
1718278678154268655,-0.2537064920605303,0.1823229785682646,-0.0609608116872101,-1.157385066908191,0.2692850587879121,1.347253588035104
1718278678154291599,-0.2658408304496981,0.1915982468121448,-0.1089101118236075,-1.249167498514559,0.3115809348619567,1.527753712706855
1718278678155436578,-0.277016904525712,0.1568379266896745,-0.0053329759300781,-1.0512205519294615,0.3617979981780885,1.710844459418659
1718278678156780891,-0.2965566341436731,0.1673631655196659,0.0126630389849284,-1.0273966572606228,0.3720750585902673,1.860191156753768
1718278678158033640,-0.2525706313953289,0.1953445968093922,0.0465639799208644,-1.0548983411483432,0.3679957668015319,1.7883149532723588
1718278678158045316,-0.2223192853392279,0.2398345418414484,0.0107216445067191,-1.3016404258570056,0.3849213099937059,1.8129844613614396
1718278678159277295,-0.2297453687538082,0.3168733060240353,-0.0759646189240827,-1.601697332619621,0.3735082797678686,1.8119604940907013
1718278678160550831,-0.1920489337285672,0.4152696987311361,-0.1361983832240821,-1.817637280793384,0.3556521981048997,1.703454097646394
1718278678164669232,-0.1774485392932498,0.391895901919843,-0.0253530408195694,-1.602039317323547,0.38077602608393,1.6875224209200632
1718278678167338524,-0.0965790608379391,0.320093311101641,0.0460406775673935,-1.3433332688623734,0.4899326377783366,1.5072288263809963
1718278678167353261,-0.0897603082350843,0.3690584757797369,-0.0226644464366593,-1.5304742605762582,0.6177174135663761,1.5609401050703289
1718278678167367213,-0.0873390880822779,0.4184806273969722,-0.0064709568696019,-1.6440388045697771,0.524386516362106,1.5266446081678255
1718278678167379770,-0.1371210654495608,0.4049597194979523,0.0186768221712968,-1.5682569328704066,0.4438960107734609,1.4591402906490352
1718278678167402020,-0.1511001876432423,0.4073068543695695,0.0097007085301771,-1.5523868244105647,0.5478102456852456,1.5698280534606823
1718278678168681261,-0.1874695998479636,0.3983237097073888,-0.0199185766003198,-1.6800179348162936,0.642603455504309,1.620301903450568
1718278678168691079,-0.0946085000118779,0.4003361567010938,-0.0694549584924366,-1.9134395471464287,0.7095450179798937,1.4810476512189057
1718278678169747258,-0.0346527540910073,0.4841555527305106,-0.0341101323053506,-1.989935399764376,0.7552794518419326,1.388074446498237
1718278678170877547,0.0055688527062072,0.5019902481906044,-0.0175416451378386,-2.0316793430868,0.7447193306578221,1.4306422058586
1718278678172133386,0.081756246570838,0.5030837777576325,-0.0002529461398776,-2.003861259868132,0.8516820758943874,1.3347859726242126
1718278678172158978,0.0108921538432105,0.5736569233015522,-0.1020885260029274,-2.3296074506537034,0.6740451025800711,1.3008814054023048
1718278678173329447,-0.0249766731990174,0.5429923070153329,0.0181531574848688,-2.122256536208801,0.6821316767799719,1.40497322541495
1718278678174576415,-0.0108947012000213,0.5873913215668581,0.0446621044575072,-2.122329876815044,0.8671572780346329,1.4775195611493557
1718278678175784460,-0.0257202579162759,0.546312440401194,0.0992251449899516,-1.9038545381647287,0.6414220003730579,1.3017052557691589
1718278678177057569,-0.0508151515857688,0.5334582879295551,0.1599954528606587,-1.7900070716825194,0.6706596430225402,1.372154710975019
1718278678177065710,-0.0080443858031227,0.6086827921450599,-0.0205462624595383,-2.249845385522225,0.6491862111870649,1.1630499552487843
1718278678178197122,-0.0181328967887098,0.6164373586040568,0.0631678856375881,-2.0551904531815457,0.6257888808176533,1.268630516261099
1718278678179416475,-0.1105472742127628,0.6440920948681804,0.0480861443736094,-2.114119139723777,0.6069827418648522,1.539924824563493
1718278678180695092,-0.1493602104637212,0.6784112587910536,0.0952921507678174,-2.07072005158478,0.4588091186009154,1.594301580798762
1718278678181971964,-0.0750129387389902,0.6820614570370811,0.0308846975073802,-2.113580102309852,0.4742421590801907,1.2414185598592813
1718278678181979510,-0.0236405124924754,0.6549965993847882,0.1565230834427217,-1.8229210137321592,0.4565255591434046,1.1484892452146194
1718278678183147854,-0.0326292914876701,0.6144559300966461,0.2300277359087656,-1.592284491806697,0.4515939961887855,1.17943283643594
1718278678184365892,-0.1358904997866392,0.652732485592518,0.2454162640172881,-1.6401724861059004,0.4514679986596909,1.3517693921564315
1718278678185597597,0.0060801419444677,0.6988843580000581,0.2207685604663196,-1.7272082640376372,0.6124762931480625,1.2777243077271718
1718278678186845338,-0.0143313080738369,0.6172394801650845,0.3450454671999314,-1.3338033907290243,0.5687294069332698,1.140270012850933
1718278678188087675,0.0663642760044778,0.5845896966472262,0.3097472506312064,-1.2870296580844205,0.6704324764752009,0.982631877520976
1718278678188098528,0.1176345489287889,0.6096498495921228,0.3119314598508194,-1.29424372965748,0.6031447330421922,0.8959737259982339
1718278678189297148,0.1774849523148924,0.58177335255018,0.2597488197024094,-1.3086856405200409,0.8223352562088044,0.8604323702737743
1718278678190506589,0.192447191075289,0.5843390360211067,0.1997740390974275,-1.331334272182623,0.7134890048415261,0.8200243223319288
1718278678191738650,0.1560440290510957,0.5636941409989327,0.2135044761870201,-1.2222449531539703,0.4898847421940407,0.6384861975462023
1718278678193027413,0.1278187635442093,0.5368080435761647,0.2130339490268753,-1.2252757955187887,0.4738457818434197,0.6086128283570393
1718278678193056266,0.1000296195313958,0.4712139514930601,0.2161989351676428,-1.0944723232826037,0.4589852138169258,0.6458707221062028
1718278678194232322,0.105779439496738,0.51446691531969,0.2113541218375536,-1.1757104544335346,0.5409048702772118,0.6578428695719895
1718278678195484642,0.1280819000758201,0.4716328076662777,0.1481488630384264,-1.2147835900546635,0.620999033265755,0.5093395384234144
1718278678196757576,0.0658714313397386,0.4215318508171125,0.1330496664028448,-1.2332927258832238,0.5074560116388043,0.4764189609645075
1718278678197999452,0.0465580345931184,0.4165949340605107,0.0210308676128059,-1.463502053039297,0.4320405323307635,0.5123870307740575
1718278678198030805,0.0719446396554946,0.2947119887116421,0.1482762536235491,-0.9518697616680596,0.4926859369342626,0.5804054245463713
1718278678199182136,-0.0351333766431572,0.2671501864331859,0.183686379152553,-0.7996060582690838,0.2890728420572995,0.6953723833357398
1718278678200419270,-0.0010630274572062,0.2705739658656618,0.1451657454121895,-0.9042283819590896,0.3982434081762903,0.6575497301906817
1718278678201639054,0.0806908674589132,0.2467653999603298,0.0992732109269786,-0.9028136939466508,0.341107511599366,0.4768902472847391
1718278678202889705,0.0510412467912796,0.2507366382336037,-0.0234392353162221,-1.0998745089403843,0.2955107605769018,0.4872475977189999
1718278678202910712,0.0886144199014246,0.1673702211763948,-0.0569582266281216,-0.9675744354495136,0.2851676484278339,0.5161589859130701
1718278678204091310,0.0358334476664816,0.1148760896602446,0.0824485453705448,-0.6478298154766577,0.2780805243716908,0.7130869153219456
1718278678205324315,-0.0061410802926791,0.1371609741863557,-0.0536403814751774,-0.9045207857333925,0.3995666281744582,0.8555828140032735
1718278678206559514,-0.0172167782533843,0.0780412485265479,-0.0262655138177025,-0.7462833586141552,0.4738663864986687,0.8965843285294562
1718278678207756300,-0.021241108009801,0.027956416069731,-0.0418175699264728,-0.6712683122485902,0.2784379220901526,0.8573663017147927
1718278678209805450,-0.0405517001241558,0.0628124627244837,-0.0662100604571838,-0.7336237981629096,0.3913329397429171,1.070711222703034
1718278678209823105,0.0719454101928182,0.0604901479104288,-0.0191170380921246,-0.664995414184807,0.4529412777257012,0.8734957494633337
1718278678211087930,-0.0104064537124293,0.0659440688114506,-0.1156600836521153,-0.7873882635011473,0.3949141783097771,0.986626827826593
1718278678211102518,-0.0272461737679803,0.0621085015864418,-0.1551120218271506,-0.8137769586830768,0.4895135817890551,0.9945468767659328
1718278678212190470,-0.0192443764823607,0.0059242143992408,-0.1586038106088396,-0.733882100355573,0.4162594415914659,0.9816553916978528
1718278678213487798,0.0056543526199605,-0.0224840836197411,-0.1550957330376084,-0.6717647639530852,0.316883871057097,1.01583915076257
1718278678214747136,-0.0585214616510967,-0.0750088904822649,-0.1814683822980111,-0.5756351312293075,0.2072833157578862,0.9863221361874968
1718278678215985716,-0.0301933861948295,-0.0650277309659066,-0.1307820860050184,-0.5644327306677718,0.3367848065300657,1.1235963323143243
1718278678215995914,0.0294075275073579,-0.1265928424751713,-0.1457220816527538,-0.4125423871743662,0.5680012787152695,1.0215243805634189
1718278678217517985,0.0606433688337781,-0.0721872545144465,-0.2807497167828219,-0.7971752845196529,0.577498954996517,0.943233312602409
1718278678218744503,0.0105997142808873,-0.1051170487022808,-0.1766251580065226,-0.4959282247814732,0.5455610571429254,0.9963518540575328
1718278678219993845,0.00572163181802,-0.1198832403374469,-0.2882070531631352,-0.6332504862931996,0.665981311238016,1.0098645307726346
1718278678220003358,0.0614705531540808,-0.1081858918829129,-0.2400356538354503,-0.5979150782247934,0.7315328934184349,0.9383546160451568
1718278678221156287,-0.0410878739675861,-0.1622546377753488,-0.1943235605667549,-0.3969541580063032,0.8265201965650503,1.3664359284909593
1718278678222408530,-0.0194821700866438,-0.1797039642507175,-0.1609433479074934,-0.3326762329897945,0.756355098055726,1.165973842469847
1718278678223687231,0.0320358328332025,-0.218925046617931,-0.3239657278311824,-0.4431842166394722,0.7146674324289208,0.9988566298004822
1718278678224899224,0.0397875893210968,-0.1887287102423824,-0.2497688044542526,-0.3296846726754924,0.610737061393821,0.7147514039509139
1718278678226180872,0.0772882283854494,-0.2333743368560624,-0.2650785963274,-0.1793244856182358,0.7230427000615872,0.6230919475870433
1718278678226204941,-0.0110425329546156,-0.1728988648503464,-0.2597329620092157,-0.2980078514125802,0.7670532230722908,0.9583942850384162
1718278678227326758,-0.0111445417079037,-0.2012831674965891,-0.273523665425774,-0.2907039872806723,0.7860743251385162,0.9629278760398364
1718278678254461409,-0.0494109865574781,-0.2278202614618349,-0.2490978416501575,-0.1183484459659069,0.8454712640586767,1.073956034115385
1718278678254468874,-0.084165560553171,-0.1680755485781848,-0.3026229511005622,-0.2692574457740331,0.8521485679989188,1.0554655458985782
1718278678254482427,-0.0161690740541383,-0.1941939783732909,-0.2952450411367001,-0.2480996510463814,0.8380214336072742,0.904521260799468
1718278678254496245,-0.0107628571958088,-0.1193098253768878,-0.2553426462203317,-0.3364697429390572,0.8257428098442734,1.0607850213563714
1718278678254508489,0.0181023562456491,-0.1231480327615941,-0.2651563492943937,-0.263715721613431,0.7773812373086142,0.8882339514945382
1718278678254516986,0.0211388787630748,-0.1046951834433211,-0.1688402719546888,-0.1685814302358349,0.9300051620757804,0.9815222906462628
1718278678254528709,0.0718850504360536,-0.0863969110365799,-0.1904745911165513,-0.2163892745894762,0.905243918566812,0.9237271425485007
1718278678254537175,0.1544364295430122,-0.0998885940394986,-0.3005573644411612,-0.37539879216138,0.8331018876673015,0.6447442573860962
1718278678254550555,0.0861280889595683,-0.1124535743316499,-0.2885688535017762,-0.3313505545192618,0.7895938189747346,0.7730090780111607
1718278678254559425,0.0335858507577117,-0.1011050598015071,-0.2089138157481075,-0.2121493224629896,0.7117304435695514,0.7742392123667899
1718278678254568577,0.0798515192287821,-0.1018006160743434,-0.2494490709743475,-0.2514653176142982,0.8075162602235024,0.7519460530434804
1718278678254577323,-0.0083453957824963,-0.1964625308739553,-0.1129651452100653,0.2000535276524117,0.7518506331063795,0.845741744217955
1718278678254586941,-0.0625446446210724,-0.2792231191394438,-0.0070198352401227,0.4885652595980407,0.7126847337403647,0.8453246012303897
1718278678254613201,-0.1002658272904777,-0.2597727134504221,-0.0083711268175015,0.4966352823671914,0.5541519831555785,0.8619422593296631
1718278678254625506,-0.1175375949588811,-0.2588304778702992,-0.0227652858602688,0.4277413751139139,0.3966991583100689,0.9929484325821666
1718278678254636561,-0.0840018105019592,-0.2149024139916003,-0.1372414879056333,0.1285290940264441,0.469913634491452,0.951920343200114
1718278678254648615,-0.0126446959092026,-0.1742278579433286,-0.2692024067769832,-0.15227856116582,0.4938265765062853,0.7214038121027642
1718278678254661921,-0.011116097886581,-0.1865121004640175,-0.189886862707097,-0.0442706201996136,0.5265464064254655,0.8079952651953998
1718278678254691052,-0.0114324731648109,-0.1066387305980283,-0.2416743947805114,-0.3154227826594825,0.3640491726745696,0.6880803254599115
1718278678254711873,0.0032674493532696,-0.097254592662852,-0.2953369111118111,-0.3603145020233442,0.2877286863350774,0.5136288981551167
1718278678254719137,0.0105670000893222,-0.1320588711675231,-0.3347040810133065,-0.3829403721704437,0.3519188308713026,0.6794191700339582
1718278678254735580,0.027151349896989,-0.1440245223422299,-0.2518583759810636,-0.1610702396353476,0.4012970819647025,0.530981485362212
1718278678254779580,-0.0279299993406809,-0.120316094767596,-0.2326069416583659,-0.1154748559518458,0.088926287671725,0.487439848022536
1718278678256647391,-0.002131952814434,-0.1379662626103496,-0.1089624960188638,0.1175789210183809,0.1976750163690432,0.6572514166607297
1718278678256691367,-0.0307964909860455,-0.1178525772478763,-0.1837174712954522,-0.0491515368694643,0.275671094469262,0.6478877812108361
1718278678256706073,-0.1134408791418974,-0.183403862794529,-0.0190481971319461,0.306481253142213,0.3379698872492935,0.7804671864491777
1718278678256717302,-0.1128296122398544,-0.1869785309619096,-0.0072571390385527,0.3363632459729549,0.2065205075898813,0.6711334400400812
1718278678256725581,-0.059666475931119,-0.1561297516544013,-0.1197298403818466,0.1169590139958706,0.122641976740385,0.4381047635594078
1718278678256741251,0.0842635579362952,-0.1243828662320076,-0.1086813740868379,-0.0120729239112155,0.4304194110945833,0.3394194472722178
1718278678258462712,0.1127949302709035,-0.0985700742706894,-0.1006676294406252,-0.0074341070200028,0.450126211802113,0.1792198103236719
1718278678258472140,0.0081938322402026,-0.107371082698679,0.0045424647685857,0.2450805487393675,0.2614926941992532,0.2285435205672924
1718278678259657601,0.0116662684753831,-0.064194220330322,-0.0123102479912666,0.0686572194170544,0.3039451112385681,0.5077118988562812
1718278678260855324,0.0025672113792216,-0.0521871996087725,-0.0827792793703675,-0.0931004055430142,0.205928910000355,0.3192407483545855
1718278678260870543,-0.0413303636467585,-0.0161584504552515,-0.1776297486276185,-0.350402137799769,0.1247608850163837,0.5330839964795732
1718278678262388608,-0.1915468327244679,-0.0303360712811981,-0.0767825137392438,-0.1899364601491202,0.0605249148551658,0.8086211117858664
1718278678267011685,-0.1072244981329173,-0.0367503045078628,-0.0382051582626491,-0.1246517404717817,-0.054613609381473,0.4996550444607432
1718278678268565277,-0.0273700323656722,0.0933336193365862,-0.1727921893200331,-0.7311829504669956,0.0705570801112166,0.4998353063360822
1718278678268589444,-0.0954783629353167,0.0747312242725924,-0.1794554160841343,-0.6791261716547174,0.042997259077244,0.6413700048851974
1718278678268602571,-0.0403508034838489,0.055796376625389,-0.2257578508481523,-0.7462452113753716,0.1679202104749611,0.5258468805181931
1718278678268609811,-0.1037133360596486,0.0642659802998645,-0.1996095262760379,-0.6799745010435654,0.0801185702418103,0.4991799240495661
1718278678268638112,-0.0667661243315709,0.0123381602909614,-0.2148682383987821,-0.6025738999325068,0.0204149936507984,0.4354317232833189
1718278678269972463,-0.0974872188146644,0.0302046048383316,-0.1260839753431602,-0.502013419847541,0.063331204643162,0.4797968741814822
1718278678269980138,-0.0509403384251665,0.0470223401256038,-0.08326890435417,-0.4093499688973414,0.0346517520548308,0.5254612729487539
1718278678270965582,-0.0190007841674182,0.0160068457245483,-0.0593100252243343,-0.3249662327090618,0.1201569589283558,0.478896997388088
1718278678272179344,-0.0292743503075083,0.0261498001261072,-0.007668764129207,-0.1750901112598431,0.2323828443009624,0.483579348537635
1718278678273381433,-0.0906146684285635,0.0813159633431918,-0.0584170609507254,-0.3868973551345492,0.2376692399126644,0.3506524080077156
1718278678274740466,-0.1004592197515146,0.1171778644210131,-0.0484086076993331,-0.4236100293990532,0.1038934707416658,0.2123529947959916
1718278678275829376,-0.1301506564758748,0.1330508481354428,-0.0341790848562863,-0.3796395928520805,0.0530320036517702,-0.0116779368806201
1718278678275852183,-0.1060635412912152,0.1424845578873457,-0.0676977954732825,-0.4125199076047549,0.1338110722608309,-0.0284019133615949
1718278678277044900,-0.0581338598523101,0.1922124731317631,-0.0369377726708107,-0.4821219454606902,0.2013551029036435,-0.1864641813118845
1718278678278244955,-0.0074089911959002,0.1901758562967443,0.0153819147505131,-0.3854356771760184,0.2050085224611786,-0.2947652677526048
1718278678279641932,-0.0697959387234178,0.1643947859132662,0.04063657428334,-0.2435726644126717,0.2474754273368233,-0.2858454472594621
1718278678280966491,-0.0615103440334342,0.1466551809857973,0.0828627600342303,-0.1297848363215977,0.2544330342338326,-0.258532315550003
1718278678280974943,-0.1792819483226757,0.1005799840286213,0.1513739641309013,0.0674862145655908,0.2454781372520557,-0.0091868757332794
1718278678282187019,-0.0596081244660751,0.1412825004916727,0.1872911428073,-0.0295189879720535,0.3648963828340198,-0.2953669671944535
1718278678283594034,-0.0914775721768438,0.1550754891377206,0.1960995126936438,-0.0185003748626789,0.3201711064633529,-0.2291388263990999
1718278678284936599,-0.0718171748562422,0.1898570318716227,0.2425738711239655,0.0066356304246658,0.3991645771203321,-0.2866800463346758
1718278678284949264,-0.1385266406553572,0.2201440423668639,0.2586722449885116,0.0059370217587616,0.3252998472555073,-0.0948603294875617
1718278678286231877,-0.0083112039076242,0.2218810541683972,0.1922814148055772,-0.1182741402996272,0.4096304585223569,-0.388144331642799
1718278678287332922,0.0479219576510917,0.1925334645592812,0.1922977997771922,-0.1092746161761563,0.7039456599617698,-0.2698428818723465
1718278678288682029,0.0434098912887099,0.204550658331655,0.1907245238066764,-0.140071330664839,0.640467890118654,-0.1413635114733646
1718278678289695444,0.0096347182142914,0.1024918201938316,0.3340545938863462,0.268047769024072,0.6561736589062046,0.1472955316392251
1718278678290936506,-0.0631857845667698,0.1341537194484553,0.2170462913593712,0.0241845711659321,0.6038977349674173,0.2107410862658791
1718278678292161030,-0.1638686677229744,0.1341620097868544,0.203010954087393,0.0131882162893004,0.4834542722060917,0.3342344145137245
1718278678292168009,-0.1882424465266665,0.1054097820845307,0.1627666033294161,0.0639677652348512,0.3929339896518807,0.2882558347530627
1718278678293518620,-0.161350760698655,0.0793885280858039,0.2626219669894748,0.2340815766619574,0.3391629419651453,0.1396217728774866
1718278678294648878,-0.1724224407230418,0.050142578753985,0.1890112846307064,0.2164279332938304,0.2489928182332665,0.155703714882353
1718278678295858753,-0.1002880207618008,0.1179971948719563,0.1705455830567731,0.0230256226101579,0.3226049782981362,0.0882543682679773
1718278678295928878,-0.1493673017499457,0.1368070557986583,0.1413107955125317,-0.0415841917680969,0.2536383975682132,0.1937601788984645
1718278678297101252,-0.125762767496815,0.0548356392577046,0.1710967893213907,0.1598923570983525,0.2386222158678552,0.1056050639758364
1718278678298354632,-0.1370550529164234,0.0002826114452292,0.208384821510119,0.3772264119936469,0.09782383440897,0.1233850940073858
1718278678311883135,-0.0658773649094028,-0.0686103243038969,0.2069950314832099,0.5278649829323637,0.0894112476600584,0.063890477124352
1718278678313597036,-0.1492911586444569,-0.0554221921013719,0.1285043525904346,0.3525313837316667,0.0775883265667971,0.2251485472823344
1718278678313614972,-0.1069740270667316,-0.0387294859117007,0.1006833106370952,0.2795826395841231,0.2100047839821505,0.2261705058126103
1718278678313626246,-0.1169421248948243,-0.0897716559351056,0.1534717299260383,0.4764996129224466,0.1565616575908213,0.3217868574357031
1718278678313869977,-0.1572435636201853,-0.0677575298674298,0.1246854001173188,0.3837185069993901,-0.0008766832707196,0.2845052767433377
1718278678313888827,-0.1169652461875737,-0.0788707820667879,0.0911755673134765,0.3334744259415236,0.0168439963383146,0.1963598435474282
1718278678313907181,-0.0666105477477264,-0.1313113814192949,0.0934464496665045,0.399760109404138,0.0237541583225289,0.0128993960959688
1718278678313929769,-0.0351476297337128,-0.1405805121243878,0.0992459912202508,0.4771154433240887,0.0521486877916778,-0.0891669255486816
1718278678313953372,-0.0084599352801957,-0.1705360137721401,0.1196922047364619,0.5728985254599579,0.0121623216774455,-0.3038986596343007
1718278678313966521,0.0764079857868585,-0.1737556010313234,0.0955898477391785,0.556740673596934,0.0109690593923231,-0.4136027665787627
1718278678313983615,0.0822305980033605,-0.2097475386208392,0.0413982007192758,0.5101877073612843,0.16419557508906,-0.2447247552830862
1718278678314006063,0.0608067929984836,-0.2118615469624721,0.0027988748826406,0.3746560433918849,0.1284618280322814,-0.2689876692853342
1718278678314150975,0.0701136220968849,-0.2454358672560806,0.0090713226264149,0.4022206233856631,0.1037385672874746,-0.478169486755488
1718278678314233458,0.0503886896260276,-0.3020558783410927,0.003278337973141,0.5109277366532127,0.0667376021319241,-0.3736150419048434
1718278678314255105,0.035787822686745,-0.2907189368245601,-0.0232701432490476,0.362824003245595,0.0367913039464388,-0.3500804601412671
1718278678315673909,0.1155850020470629,-0.3271352744530826,-0.0274997924302507,0.4825156831526758,0.0409283206901541,-0.2805424233870361
1718278678316760586,0.1062156785528947,-0.2941204085648554,-0.1785994597028098,0.1626479743843742,-0.0012111618416536,-0.1848488118999905
1718278678316771105,0.0398520967011261,-0.3090483473268686,-0.1710647105799659,0.1700618393117663,-0.152675142450286,-0.0679354296695493
1718278678317793281,-0.0198180016135783,-0.3201404148047856,-0.1646434885543221,0.2051703705521888,-0.260318915134797,-0.2380640842090981
1718278678320068081,-0.0681447882958493,-0.2888274092577904,-0.1633443509516633,0.1936285699127389,-0.321726473742518,-0.262040412159064
1718278678320076886,-0.1101660054550129,-0.2790341324692632,-0.122691478717561,0.2693575110209834,-0.3682615361458195,-0.1324754062654188
1718278678321330697,-0.0114255650278748,-0.2311706092682612,-0.1771462816672641,0.1239679662332691,-0.3987415532358329,-0.164375880015623
1718278678321351416,-0.0201187630983604,-0.1989227184543234,-0.1916335122028988,0.0528350812234837,-0.3910556929390139,-0.2515406920059944
1718278678322432391,-0.0558134489162358,-0.1671878535909206,-0.1767813526204268,-0.0473652455085235,-0.4417549544520188,-0.3316696051646688
1718278678323634289,-0.0352325492278788,-0.2005853537290305,-0.1856912123816049,0.0669009348987594,-0.5544725630647694,-0.5350388848086974
1718278678324842620,-0.0068393915223341,-0.2288340706722872,-0.175935928194031,0.1667185555016793,-0.494680124633171,-0.5480766706113559
1718278678326055106,-0.053280105710492,-0.20083938517944,-0.2045387101422274,0.0274554527269012,-0.5819026578245944,-0.452722517434687
1718278678326066416,-0.0380741941324164,-0.1770756893249628,-0.1574321286275565,0.1326571166641453,-0.6413264657260579,-0.5565921670146385
1718278678327235499,-0.0186066581490522,-0.1535875974105884,-0.0935857319996804,0.2781389797725053,-0.5412774225759943,-0.5592841125035398
1718278678328407659,-0.0068826280115382,-0.2180010283152048,0.0156665738988845,0.666891471091884,-0.5699879238369104,-0.623003683764146
1718278678329654611,0.0352901392801433,-0.2004599878815279,-0.0117258028948654,0.6022800905662966,-0.5017012433942629,-0.8008133693164211
1718278678331257497,-0.02940391755286,-0.165171326837364,0.0039014459190179,0.5033544772867902,-0.5781214363695043,-0.7311393129079786
1718278678331319796,-0.0099679918871234,-0.0724481537876189,0.0053769966965351,0.2324027888991228,-0.6382940314809344,-0.8118221936515375
1718278678332430291,-0.1047874444345224,-0.1002904986081811,0.0515719467766964,0.4321180443740824,-0.6812595775163023,-0.5725728550681669
1718278678333818527,-0.1628090273345982,-0.1679297191431579,0.060156313975847,0.5805831789079541,-0.6978291928888684,-0.4641293492666664
1718278678335252973,-0.1180009097331744,-0.1903195514331693,0.091239326868441,0.6860323390674646,-0.7403498310432225,-0.6532245756715036
1718278678335262423,-0.1348402366229324,-0.1172273831805411,0.0835118903421512,0.4524663126206003,-0.6178631680369014,-0.3892947267428812
1718278678336196519,-0.0509613579574038,-0.0864522364614938,0.0682344826903015,0.3687789009953824,-0.4301571522765209,-0.367467699471817
1718278678337425994,-0.0173344574392263,-0.074026708064036,0.0727896698548815,0.3527080220964679,-0.4268063790378917,-0.4688973182077672
1718278678338665066,-0.0271361733947328,-0.1534609857263199,0.1538197482451577,0.6439329461051682,-0.393985640152577,-0.5039896414736245
1718278678339827149,-0.0490988355055364,-0.1817199470513802,0.2934532470825126,0.9770569811597658,-0.3603877302999563,-0.3899494646543817
1718278678341285932,-0.0747069930361206,-0.1663736814320265,0.3081308754268634,0.9981636872822052,-0.3496052278207167,-0.250129026781444
1718278678341309205,-0.0879758047104719,-0.0882976203662833,0.2611449418753651,0.7901732623155349,-0.3477353380884987,-0.183189915976689
1718278678342268309,-0.0997371182766072,-0.1124729871836364,0.1934584795047202,0.7065182748001287,-0.3440035264872149,-0.0812524722746377
1718278678343483370,-0.1319320544298502,-0.0967487906863271,0.2441872648460713,0.7317506728059727,-0.3324426810823098,0.0407680258928396
1718278678344783922,-0.1309804851857931,-0.0725432761543081,0.1885180124494381,0.5720992681332808,-0.297933073498927,0.0705233957809024
1718278678346042725,-0.1531772685803296,-0.06733749783705,0.2282707448396035,0.6508179150670014,-0.2480107668050861,0.1639069792069197
1718278678346059497,-0.0593605495176034,-0.058961393313886,0.1165568685458166,0.3659987807521546,-0.3637261722024135,-0.046836008748545
1718278678347199097,-0.1503912009934582,-0.1088014540773322,0.0787497646380985,0.3826409839542929,-0.4439752074655382,0.1464379556363648
1718278678348413702,-0.1242127217864614,-0.1311228321896555,0.1616113783419023,0.580678430152745,-0.3525007957141907,0.1665072029725444
1718278678349651077,-0.1444303226313378,-0.1620499469773856,0.1778994683488642,0.6441492008113892,-0.2721109702686536,0.0105482938515104
1718278678350863396,-0.0166076774698162,-0.1425885557716509,0.1256247812013258,0.4912321064646044,-0.1795596099628628,-0.1096206899275769
1718278678352199734,-0.0004342557224947,-0.1372253088372837,0.0339778639037375,0.2899629301393267,-0.1274236831789569,-0.0566904048518809
1718278678352212601,-0.0136588899460085,-0.1042017870496735,0.0927498187583498,0.2939005545391528,-0.1466981573054321,-0.0874876654992608
1718278678353329922,-0.0250849394283436,-0.1085458536031041,-0.0200577780799167,0.1737870191916962,-0.1555095625865516,-0.1179787902734648
1718278678355254753,0.0550229607033078,-0.1256658169370137,-0.0086799636483871,0.1088272640595861,0.0962078790331605,-0.0600902320195171
1718278678356605735,0.0439009014094855,-0.1649995010359712,-0.1071915212572567,-0.0308526650865388,0.2359416962411786,0.0194860320633657
1718278678356622030,0.1304572737837979,-0.140003848321827,-0.0906763436572699,-0.1637290552493058,0.2539892887927563,-0.0250416438849117
1718278678357718046,0.0862148892683827,-0.197783119978342,-0.0311522365683952,-0.0245320421593654,0.1788044420455282,-0.1447332740091601
1718278678359036678,0.0137799954535612,-0.1704647359708485,-0.1561984584881946,-0.2699383036204636,0.1131056094408736,0.0464315257773693
1718278678359045487,0.0666743883462412,-0.1207716737525993,-0.2850179235979732,-0.6229493108147108,0.0188623035771034,-0.3352427338290931
1718278678360157349,0.0404356956875523,-0.0556419378428034,-0.216909261002557,-0.693599093252213,-0.0399978659929385,-0.3586655539360133
1718278678361365159,0.1239264109672592,0.0112082398115439,-0.3198531391757676,-1.0249282189502773,-0.062944853465994,-0.5221001276132637
1718278678362552973,0.0920156002033186,0.0573808969114382,-0.3437415472441481,-1.2393589568648438,-0.1250538979384227,-0.4768601666089964
1718278678363732618,0.0137405831627673,0.0269802378810991,-0.3101956409072212,-1.107715008675559,-0.1255988697861784,-0.2533578458191388
1718278678365054140,0.0284102005841281,0.0399939179418864,-0.3416367862236578,-1.2077434254624448,-0.1544624830437045,-0.3862173896041746
1718278678365066376,-0.0552697430317006,0.0821604304557235,-0.2293407193439861,-1.1478198984170904,-0.1803432411578575,-0.3083749991058551
1718278678370367842,-0.0890071529905803,0.0892692722793685,-0.2010280105033489,-1.1159847976279684,-0.2396094346264854,-0.1598318395738094
1718278678372142489,-0.0983149457821774,0.0940104448076326,-0.1431115755906835,-0.9679269632935812,-0.2437509036215011,-0.0671027319299331
1718278678372162473,-0.1909936718834725,0.0793496587322193,-0.1045403560968546,-0.7989133719030791,-0.2640815897000315,0.3824976930336843
1718278678372175702,-0.119440559008297,0.0378226930384217,-0.0016058704762061,-0.6118077130851287,-0.2487830097915184,0.210333903962556
1718278678372187878,-0.0481760303646395,0.0843226519353547,-0.1293640708077914,-0.8905898034080071,-0.2296571732336046,0.3196056330984648
1718278678372199511,-0.0675888264172326,0.1072766704263252,-0.1213254928417616,-0.9300607624506538,-0.2523567508907124,0.431648033403099
1718278678373528427,0.0186191893874515,0.0825729426160435,-0.0994529276985449,-0.8167648769513884,-0.1205955460673712,0.2641453812643181
1718278678373539196,-0.0515532624089161,0.0630071945622363,-0.0358972364272485,-0.6996796597265753,-0.2844240888034589,0.1260684784281388
1718278678376676920,-0.0559556210316506,0.0394362219003727,-0.0503802448223732,-0.6894481230846621,-0.3935055416733514,0.0646654934162156
1718278678376692692,-0.0508467628625674,0.0330711546167734,0.0504350500051793,-0.4198284091606049,-0.3379894879120161,0.2972620968405122
1718278678376705694,-0.0837337666525291,0.0123305030195919,0.072763486012886,-0.3217144837765271,-0.3955538581151481,0.4132240015940492
1718278678378016486,-0.0887531596973859,-0.0265569102680304,-0.0037191618233701,-0.4038663622118809,-0.5395704922312574,0.4432526251695595
1718278678378035925,-0.0396215510264288,-0.001095547203693,-0.010964568796525,-0.4967678609984721,-0.5321119713067074,0.4228330878672766
1718278678379267567,-0.1807861282661855,-0.0286255188557251,0.0917525315325842,-0.2098920788784145,-0.6793140086692161,0.6060786208181183
1718278678380458734,-0.1082546888486158,0.078001781700678,-0.0279484759886375,-0.6030263521594752,-0.6543268437766137,0.5930574399634982
1718278678381596441,-0.1199122880547621,0.0944379621180486,0.0639797348080707,-0.4565374342126702,-0.469204840414209,0.7014698198891647
1718278678382818878,-0.1373932954435034,0.0727190371183255,0.0620432176648401,-0.4273602107376069,-0.4251615873020162,0.5807765794089731
1718278678382846820,-0.1603425123635815,0.1543820621687568,0.0803545074459678,-0.4977192492607899,-0.4557055440260411,0.6784889434904026
1718278678384059286,-0.2397331345805572,0.0828345078655516,0.2581174726278408,0.0150354084353108,-0.607962464821921,0.7063956137138852
1718278678385311477,-0.2022285020112228,0.0748293354887549,0.3019398293806646,0.0848196201986218,-0.4675557170138335,0.6196611572728467
1718278678386539721,-0.1899103672590482,0.0747321466400925,0.3385433145279796,0.1772386792598443,-0.5811301313508931,0.7648805212902531
1718278678387775353,-0.1853111089308448,0.0284244778530284,0.480820222825768,0.4682959378791432,-0.689420858610705,0.7258728366579208
1718278678387784117,-0.1075592793187766,-0.0023664947576681,0.4951690571512162,0.5999143422125264,-0.6028111597098303,0.7492955435775719
1718278678388968116,-0.1467250462306105,-0.032354104777091,0.4797983400383932,0.6376377300017068,-0.5791268867767483,0.7369283094121206
1718278678390200215,-0.0792735826381828,-0.0747923022868544,0.6129152717643456,0.9663481204143308,-0.5507560530533067,0.6917408049436543
1718278678391393322,-0.0893998374110498,0.0137527450552115,0.4388175330899397,0.5393783019239453,-0.3911886815324797,0.6951164177016876
1718278678392572871,-0.1327544727758304,-0.0504950409607062,0.5741330160073019,0.8974057842253049,-0.3965920658014207,0.7239133513947559
1718278678393811288,-0.2363365626910058,-0.0442514579392186,0.5533977190277184,0.8779476035616517,-0.4192808367547155,0.9274188934132644
1718278678395025216,-0.254878630589855,-0.0164931131030307,0.4769709035855045,0.7409220540861317,-0.4083430476981197,0.9702312266466536
1718278678395039933,-0.2832146934688364,-0.0005322108038157,0.3619600268951308,0.4667557227576623,-0.473320996613868,0.9885964951763192
1718278678396258622,-0.187590387965447,0.0262705411123054,0.4552587739222339,0.5793139087671682,-0.3114899406491969,0.9322287770114216
1718278678397479815,-0.1665732981887597,-0.033175353197097,0.4959854380771439,0.7443979498870015,-0.1657379572815813,0.7758058513883259
1718278678398754529,-0.1115384485111156,-0.0073767364292327,0.3562782491314736,0.4312000552519541,-0.2046366649187774,0.6541758079372526
1718278678399992474,-0.128133085205081,-0.0030236671516494,0.2069093493845449,0.2104770938048762,-0.2258374002664638,0.5034478640081799
1718278678400009930,-0.248995595936615,-0.0606426848955235,0.2466464730709677,0.3496068699633291,-0.3983047253758904,0.4014825564600572
1718278678401215984,-0.1720008819979106,-0.088966023262449,0.2400910983397335,0.4343907627558924,-0.3358883988087108,0.0130910220224769
1718278678402435054,-0.1400588498300028,-0.0612628883569421,0.1277487557905525,0.2643430698617524,-0.3452973961045113,0.0071217975749904
1718278678403645261,-0.082727560709513,-0.0773898784855637,0.172499968717383,0.3488515440879224,-0.1891806780706112,0.0467420518891983
1718278678404894532,-0.177450326587261,-0.1129923028339602,0.1021280292089879,0.3534729663074374,-0.3127077325201894,0.2701067181215403
1718278678404906789,-0.1574484478188957,-0.1278004038679403,0.117842430821566,0.3951697990755498,-0.2911271396164657,0.2315003655845334
1718278678406136520,-0.0850589597404499,-0.1473995937797937,0.1397735854306219,0.4430893827778231,-0.276785652500653,-0.0990634464484278
1718278678407341977,-0.0855725997880399,-0.1212188941341397,0.0312184065897591,0.2116136400028276,-0.2485320927790312,-0.2212066167696936
1718278678408547874,-0.1363816361275386,-0.159768597736491,-0.0333843323741109,0.1593036606776108,-0.0701217729847821,-0.0886708586781482
1718278678409760225,-0.1744316982516494,-0.1461981468630797,-0.0001830511939556,0.2301644895885514,0.0126604717592425,-0.0683703597104898
1718278678410992512,-0.0708222772835808,-0.0733130701096171,-0.1728775122042412,-0.1390761697605205,0.0323744409791573,-0.3764044538270035
1718278678411014980,-0.0365949049382979,-0.0814425451327122,-0.2125036378990532,-0.2195833404518028,-0.045745096721097,-0.5048181878379514
1718278678412204692,0.0137257958941018,-0.1161591371023685,-0.2604153445853279,-0.1931667021827871,0.1845659905531055,-0.3525574611254621
1718278678415050564,-0.0150692209663059,-0.142998551145895,-0.1990381309295863,-0.0190715369369936,0.3388512815573157,-0.3458044660638152
1718278678416324782,0.0302432579724654,-0.141821085571602,-0.2617617873062074,-0.0961823663196421,0.4070027839533139,-0.459291567410613
1718278678416334099,-0.0493978820553586,-0.1532864338481187,-0.2119513499863606,-0.0246051207077774,0.4816858983740486,-0.287246207002001
1718278678417488908,-0.0320944687427226,-0.1752058819135862,-0.2193054884019735,0.029681578689166,0.5620092598827497,-0.1017913474760791
1718278678418696718,0.0057306849800489,-0.1939038915825,-0.2397022265734076,0.0692207428638764,0.6132506346942533,-0.3240963955810902
1718278678421137048,-0.092680786324414,-0.2285142782030905,-0.2308889130007717,0.1534198884048083,0.5085076874315559,-0.0340732639180839
1718278678421148869,-0.0303905215675826,-0.2171868985095001,-0.1981035999261169,0.2174140873485358,0.5274295234974511,-0.2116100918401126
1718278678422333681,0.037152615610257,-0.2453779977804169,-0.1594015423911674,0.3070973200768547,0.6430905723280008,-0.0944631660543931
1718278678422342890,-0.0444847496926389,-0.2804741894433747,-0.1319648387241083,0.4516991133252837,0.5215971410215241,-0.0802113261688303
1718278678423551351,0.0203337083526394,-0.2533096165590127,-0.2125691184337883,0.2854005298566223,0.4410403394007414,-0.2596539117087603
1718278678424783555,0.0893592520397736,-0.3105159501852542,-0.2007827954164458,0.4570940295182012,0.5205572464796702,-0.2850838478510312
1718278678425969704,-0.0284664872130327,-0.2959821928567455,-0.1343244321925244,0.5506257389659786,0.2624490023091197,-0.1133138389417383
1718278678425981495,-0.062205724672112,-0.2893824708377655,-0.1820024498631396,0.497101825705098,0.2561522342182799,-0.0563789812694402
1718278678427262511,-0.0468469527392904,-0.289674251420987,-0.1236788066203599,0.5148578608695288,0.3590378380239836,-0.0107271513356767
1718278678428426435,0.0507897470141214,-0.3129831058639379,-0.1401740034981913,0.6548096127530942,0.3157813925809196,-0.2046868785461828
1718278678429633830,0.0005264712933879,-0.2884407835658185,-0.0668858480350923,0.7339560888721611,0.2705656477456629,-0.0944621723992233
1718278678430832711,0.0067717854512443,-0.2801689087238926,-0.0710352360288853,0.757563288904763,0.1318792288858174,-0.1475508620056168
1718278678432084145,0.0142603145485345,-0.235033394379484,-0.0970552442818644,0.6652158116897656,0.1281282789399959,-0.242053693520553
1718278678432110414,-0.0409014361587693,-0.237351816414317,-0.1358070571815757,0.5674520977802916,-0.0254998146236754,-0.2274936599526105
1718278678433399404,0.0516002551677522,-0.2207408225008523,-0.0822731432948835,0.6200774425031923,0.0067954003929344,-0.2980439701129025
1718278678434606123,0.1162085562926974,-0.2179707527738338,-0.0224020652895901,0.6943650714119114,0.1122140755659287,-0.5550581288534573
1718278678435856477,0.0559894364272232,-0.2646872255227235,0.0584300910867615,0.8879147495582962,0.0070604546001508,-0.5824186314838836
1718278678437138317,-0.0217116930041721,-0.3132860447745015,0.0383364715836963,0.9016875468670816,-0.0857723489939607,-0.4543047736640533
1718278678437153184,0.0610834652865398,-0.2366609400180334,-0.0042600423196971,0.6844232089260415,-0.016349439125394,-0.5925576541933018
1718278678438270858,0.0605575322299492,-0.2001279139469713,-0.0004330695811091,0.587115882462399,-0.0399944167807865,-0.5733535795251005
1718278678439512935,0.0984054587289602,-0.1780466263243547,-0.0218830752057435,0.4480883028212275,-0.0021526055827736,-0.6426402916396052
1718278678440705809,0.0896275353879428,-0.1790124771959152,-0.1282039527016979,0.3040706254983557,-0.1731208887207623,-0.6957385706533245
1718278678441918985,0.0340093649573047,-0.2219018909773928,-0.1041158563787121,0.4110826602160692,-0.2463303930439801,-0.7090584725100195
1718278678441934354,0.1339104696328507,-0.2179775197724479,-0.08750308394502,0.4082641364979085,-0.1942701520060465,-0.7422194628911488
1718278678443200128,0.1150476929014875,-0.1650363353010832,-0.1792367374987743,0.1322632895679082,-0.1248276538333248,-0.4459265702490801
1718278678444350141,0.0624347772866612,-0.1656294855963098,-0.2945958968050319,-0.1428993002152314,-0.2495352692845092,-0.5473471030689632
1718278678445660326,0.1301689341646997,-0.1417622542846665,-0.2043820880794314,-0.082012033332473,-0.337665176798293,-0.5354208809650601
1718278678446898795,0.1585138389704841,-0.1246045749622974,-0.2222407848868816,-0.1524999301236511,-0.4235025716517015,-0.7777940502448073
1718278678446912404,0.163704900949525,-0.0828764354927407,-0.2095312564562482,-0.2597977555542489,-0.4738611752832856,-0.5347405288474996
1718278678448104852,0.1407679357957517,0.003445955843349,-0.1843184423162386,-0.3871141393188388,-0.4886823588858544,-0.3390568894476034
1718278678449619945,0.1029759216094914,0.020962894137457,-0.1279475232952178,-0.3066740454934167,-0.4537513861485341,-0.3302215314288741
1718278678450915843,0.0545137129995307,-0.0158640354584328,-0.1162799908881859,-0.1905509838191607,-0.5696084834756779,-0.3733310303581243
1718278678450927214,0.0592757784212049,-0.00740562336082,-0.1443138476069012,-0.3105999618587521,-0.5601878076331324,-0.324847324983518
1718278678452117812,0.1201819127259988,0.0530226530846619,-0.0937045411138927,-0.3106223717173036,-0.5571743747963674,-0.3754572552138351
1718278678453286967,0.0680730534250347,0.0579679468862619,-0.0052345464430579,-0.2122851759052006,-0.6466426642615631,-0.1825302776936812
1718278678454496711,0.0878257332321548,0.081069918457493,0.0727069477747653,-0.09496085773238,-0.6499269316500276,-0.1819127264417066
1718278678455743196,0.0498924037417021,0.0764169852537834,0.102446385367996,-0.0563078760918277,-0.6545275725694338,-0.0765765555693776
1718278678457208736,-0.0437475770993808,0.1198409091868313,0.1123794837885573,-0.1358365929750278,-0.7951482584034921,-0.2118003874474196
1718278678457217193,0.0226837865843438,0.2107708272037488,0.0047716045650085,-0.4699690125066065,-0.775520201487998,-0.2170164061573636
1718278678458172175,0.045044855119352,0.2042706296681439,0.0543643770103372,-0.372323762213756,-0.6420627431208269,-0.1317215983979334
1718278678459413583,0.0153018636959325,0.1760583629123207,0.1174763784812992,-0.2141797501359329,-0.6608199171815713,-0.0859528931990552
1718278678460613981,0.0705658135086033,0.2614217795174827,0.0295213535393332,-0.5522469273373791,-0.5455170141104718,-0.0868146883655899
1718278678461838760,0.0535032927497185,0.2063481825881176,0.088678203371772,-0.3031312885825175,-0.5355788745163758,-0.1061451135549877
1718278678463131197,0.005886929067495,0.2384105876836331,0.0738572821131139,-0.3670295708514267,-0.4514553328440739,0.0336663894364496
1718278678463140624,0.008219855739871,0.2833891502650152,0.03423335882809,-0.5581089176946934,-0.4062875588798894,0.0804114100955807
1718278678464272967,-0.0358140065713676,0.2311232884378274,0.1164799709589154,-0.325466334565885,-0.3905648343705915,0.0954840350926986
1718278678465493605,0.0099414935176624,0.2412158389422144,0.0684345141121607,-0.4611986767780776,-0.2514879802068317,0.0804827005938158
1718278678466663061,-0.0093405841081092,0.2945288514156856,0.0436270093546593,-0.6043813672745588,-0.2786793675147956,0.1315293294660572
1718278678467911517,-0.0563308770650076,0.2964040990778989,0.0784347396834174,-0.5855026086628434,-0.2844958862583823,0.38024384530591
1718278678472024539,-0.1246602813987367,0.3546045517739179,0.0493038828571582,-0.7058515379759485,-0.2844718364902869,0.4408406517035526
1718278678472039067,-0.0700972957854576,0.3041551123670997,0.060972016465714,-0.6086602650554241,-0.3236633697333468,0.3380778240547347
1718278678473543294,0.0001612224867713,0.2353656974990385,0.1542715926159635,-0.278899066223274,-0.0820589284623557,0.4774690061576149
1718278678473552497,-0.0292448161878612,0.3034828753692717,0.0917446902878487,-0.5377035088173034,-0.0229683482996762,0.3240925331245474
1718278678473563552,-0.1277189150454665,0.2044895213870808,0.286422200272632,-0.0802814440906867,-0.1263896479701644,0.5661007432727967
1718278678473577170,-0.1309089244507924,0.1846459084633248,0.239641168783678,-0.1444789557644681,0.0359846753283871,0.7423097275079937
1718278678474335052,-0.0550304165805936,0.1539102152340922,0.2710347688463396,0.0420601291114557,0.0994341993776038,0.4631518119810178
1718278678476053556,-0.0935071423360952,0.0443292848313972,0.3532328580624798,0.3246583909895665,0.1925579081090684,0.6145010860182714
1718278678477315224,-0.0755361123823553,0.1297313159655332,0.3021600477931234,0.0603697813026206,0.1723327093434108,0.6246522759234298
1718278678477325571,-0.0590445884804356,0.1651811604155015,0.2651640505968835,-0.0399448561143453,0.0283997580319065,0.6560960710866525
1718278678478524145,-0.11373118526896,0.1810760817557447,0.2731271540851428,-0.1014915779528435,0.0899454628087518,0.5679535989092596
1718278678479708799,-0.0784274516714971,0.1282896646910851,0.2223978966255738,0.0020080306316002,0.1757494644462979,0.5158348117013264
1718278678480937459,-0.1134241101361279,0.1228245636584462,0.2717036615623838,0.1344601863631439,0.1887450726659176,0.494494792928296
1718278678480946068,-0.1675598737305335,0.0680730595760467,0.2918511986573106,0.2866795509998934,0.0880039649204612,0.4205347459464931
1718278678482121286,-0.1083840142482708,0.0706577240426259,0.2107201982121496,0.190006247964783,0.1023350595117907,0.3052581703741289
1718278678483336918,-0.0191121547135439,0.0248341576004756,0.2327398630678553,0.2711929583239675,0.1600924218628779,0.1514763025910413
1718278678484435727,-0.0324732269500746,-0.005307063624958,0.2607522269650245,0.3786984211011804,0.2068824783812987,0.3394357447204195
1718278678485700671,-0.0153911566536439,-0.0637293173384752,0.2933836514868658,0.5392768849377346,0.1099507339549114,0.1286813337193333
1718278678487047970,-0.0219624659847799,-0.0614598932537383,0.2436479445210035,0.3576268145944179,0.0403637702056047,0.0645252733606611
1718278678487056657,-0.029012103904716,-0.0831323848898142,0.2094830457001146,0.340287129377204,0.1025365864914628,0.025393484427423
1718278678488279825,0.0239271413081693,-0.0459007714559718,0.0906549056666297,0.1218354674642556,-0.0015769890036267,-0.320359126458202
1718278678489506011,-0.0147352725697701,-0.075329978969428,0.0941877866608541,0.193860508260598,-0.0541754571298661,-0.5994185752937888
1718278678490594489,0.1073941865076559,-0.0624377907150841,0.0624448036132177,0.1751355039039012,0.0313620163752849,-0.8514439249688435
1718278678491875857,-0.0037696533286496,-0.001036769820951,-0.0364733339008875,-0.1770854719254369,-0.0585825561391107,-0.5546254111950919
1718278678491883953,0.0692716921798996,-0.0506766263301531,-0.0386807894160764,0.0260808787936925,-0.0852604938720383,-0.584555710617071
1718278678493093081,0.0663634919288304,-0.06510401518661,-0.1458790092558931,-0.1399133024885855,0.0024861121273881,-0.4911292530891009
1718278678494340323,0.1215236704598704,-0.0669425098676431,-0.177710829585109,-0.1798810580208321,0.0755336076601503,-0.5735134170149803
1718278678495514059,0.1501566342058863,-0.0835272182620887,-0.1823148197465866,-0.1720872442929923,-0.0480885909403796,-0.8304256197133268
1718278678496799200,0.1187566416027947,0.0200394006427077,-0.2902834215021238,-0.6113344205088806,-0.1372083935701427,-0.7252328223825074
1718278678496807277,0.1123222763586581,-0.092767668930289,-0.1349085670950684,-0.1282217729121841,-0.1362599705532758,-0.6603740373782087
1718278678498023117,0.0492348009038184,-0.1501409709276067,-0.0934776955958336,0.0870029070480353,-0.1414095070389327,-0.40663729936726
1718278678499196006,0.0656746997389472,-0.1574462031637338,-0.2029099604520011,-0.0277720165307945,-0.1810554224293187,-0.3435195012869006
1718278678500402100,0.0614945464516723,-0.2301065870847828,-0.1137783283739677,0.2939989569627299,-0.2214390584465205,-0.5106065397799386
1718278678501646940,0.0628774775370692,-0.2050074361502957,-0.1495689204607967,0.1724156809284828,-0.1435528626688124,-0.227351563464414
1718278678502873405,0.098988276523404,-0.1626324887484414,-0.2582050218973413,-0.0423954961212454,-0.205407987771917,-0.2791192855043661
1718278678516703657,0.0697756984464073,-0.2842588001724113,-0.1316085471405109,0.3665482046920254,-0.1846442745157982,-0.2505658449950275
1718278678516731504,0.0568202457309328,-0.2866328318054614,-0.1866362650458474,0.3508804600372256,-0.3517713916220191,-0.2305172103840061
1718278678518845799,0.066055483753322,-0.3355529250789711,-0.1716626290893385,0.5246020919783063,-0.4213016198707254,-0.4203211578243935
1718278678518864977,0.1074653316640665,-0.348457942756455,-0.188346832268709,0.4886598390545548,-0.5201270604609621,-0.5398769827877855
1718278678518883500,0.1404993949402061,-0.2926942458319916,-0.2324085861505971,0.337394329925331,-0.5392517739254767,-0.7124753052938377
1718278678518890486,0.0397068359095887,-0.3604713289782228,-0.1983976589462592,0.530206770098358,-0.5681539985686549,-0.6055515598101054
1718278678518905315,-0.0120735208207177,-0.3119772122026533,-0.2182522633727073,0.3433762377639273,-0.5632945751527151,-0.5322904187746581
1718278678518922383,-0.0151936977656379,-0.3188821476718874,-0.2127920403851917,0.4369260586685397,-0.5188902982701531,-0.2686312742821456
1718278678518931350,0.0416195890071442,-0.3677449339965234,-0.2541661243572412,0.4633956140590876,-0.4450843949560917,-0.275545716653543
1718278678518962966,0.0876630866091059,-0.417653336588802,-0.1615849181608233,0.6951801018340525,-0.3992989235142477,-0.3415551583656861
1718278678518973015,0.1290153034840413,-0.4298136785172378,-0.2250596657779934,0.636538309723732,-0.3874963892693349,-0.4832710080335149
1718278678518984873,0.0957434169336518,-0.4345456414355393,-0.2201970867353119,0.6836925861870121,-0.3728725473446228,-0.4405152854852326
1718278678519001545,0.1606520677059198,-0.4203421491904793,-0.1959230290928122,0.7370748689753325,-0.3430894701565199,-0.7376840346370399
1718278678519010049,0.0679536410933069,-0.4216247321614641,-0.1683595823296859,0.8490315816231866,-0.4651938905179988,-0.6287323364666931
1718278678519025027,0.0597143970045554,-0.4269830400779744,-0.1263893612595058,0.9431846718546671,-0.431004852068111,-0.6090238699728319
1718278678519037579,0.0724371342385436,-0.3857033582919819,-0.0766032915573382,0.8809357624256866,-0.4296032999527945,-0.5419916758355963
1718278678520172612,0.0383924618205015,-0.2811880272497875,-0.0599821196593047,0.6155309909729728,-0.362030858876822,-0.23291427835721
1718278678522340452,0.0205115370168918,-0.2344344435179837,-0.0044682728581462,0.5801869306064258,-0.4274614237162084,-0.1224193294521954
1718278678522348376,-0.0140950705490156,-0.2448578866747071,0.0471021031965117,0.6290912744255991,-0.5126200869502509,-0.0421666659780731
1718278678522383484,-0.00167763979286,-0.2607662394541349,0.0450932745038662,0.6000742191229668,-0.5217140572773883,0.0633134439787883
1718278678523698851,-0.0767265123866853,-0.2017405760525662,0.0451802817073401,0.5315258861171157,-0.5523718903834367,0.2786767249963591
1718278678524848426,-0.0432819910232309,-0.1487958104071624,-0.0045746333503883,0.3584208368960654,-0.5834754043820498,0.2230684976826766
1718278678524862367,-0.0608252149724659,-0.0827547911445422,-0.0076836960191414,0.2005530938874279,-0.5818989141300004,0.3108477536719293
1718278678526064100,-0.0829419812080667,-0.0549606487420084,-0.0147813825863041,0.1190355145513083,-0.7211229333753,0.2451441354989235
1718278678527311105,-0.1143459000149135,-0.0421204519374701,-0.0426268202988958,0.054323307603422,-0.7864380306841725,0.3572108842446139
1718278678528538215,-0.0376340555730569,-0.0873886213997413,0.0488043660554867,0.2956325124054003,-0.6851485226211892,0.3051742643933047
1718278678529747674,-0.138915034736164,-0.0640030358345465,-0.0525489074015266,0.0561848167000668,-0.7612688914923398,0.4936166491490502
1718278678529757904,-0.0621130997000634,-0.0184035854344343,-0.0485847439752224,-0.0968864241068394,-0.6350641804554237,0.4600520243032884
1718278678530966947,-0.0586504382160604,-0.0382731988237854,-0.0102043308590947,-0.0394844621062166,-0.5537773849876586,0.5156287893490583
1718278678532212533,-0.1072865032538504,-0.0199831458357957,-0.0593193060397922,-0.149978356472662,-0.6336218050155294,0.5679036310618875
1718278678533412918,-0.0330101956376758,0.0351054048963406,-0.0119697555911541,-0.2437846022789618,-0.5339247025333483,0.4847936785015619
1718278678535200224,-0.0504176511563652,0.0560901732830561,-0.0773147499965313,-0.459762017305689,-0.4610436883989762,0.5807162870673419
1718278678536625036,-0.020456623094733,0.0988181088716374,-0.1559728013287543,-0.6481591510252973,-0.3838718228217193,0.6743399871150078
1718278678536639379,0.0624417050439351,0.098178948561594,-0.0670823239734248,-0.4933700974862806,-0.3279725268550447,0.3362410742803297
1718278678537890000,0.0329176626295286,0.14508033736873,-0.1504119668849675,-0.7115982473452861,-0.3188505203292353,0.4641734112712377
1718278678537898721,-0.0818701239273913,0.1684867124298494,-0.2181221000247166,-0.8908888132054223,-0.327989053543381,0.6496308464031957
1718278678539013922,-0.1486001238240241,0.0973311208753067,-0.0744678668200008,-0.5188360245191815,-0.294698952067829,0.8856232348319093
1718278678540224897,-0.1581109861796647,0.1095607888520873,0.0049703192469556,-0.3819526816238693,-0.2970358931733058,0.7729120925539603
1718278678541887251,-0.0401475013629292,0.1817429755806723,0.0496541560788153,-0.4417718863383283,-0.1825568299235297,0.6546474580123017
1718278678541905362,0.086599401524372,0.2333490614710979,-0.058881204199283,-0.7912917260090735,-0.074657770521738,0.4439157771689584
1718278678543116937,0.0833120331042979,0.2788485513978794,-0.1168148537261057,-0.991834620361918,-0.0146246459361226,0.5864874123404327
1718278678544365826,0.0232385625480248,0.2712137351932239,0.0596782365561439,-0.6638571483307172,-0.1338007815164473,0.5527497865076269
1718278678545582767,-0.0177079254939535,0.2867260048008945,0.0908877436379288,-0.7164278039483353,-0.0829838279014683,0.6909796560544994
1718278678546836187,-0.0097397669326029,0.3080023066419829,0.125196930084605,-0.6242431008127395,-0.0028538047759098,0.7032629302154716
1718278678546849222,-0.1017417500686364,0.3025979365171133,0.1215413252403756,-0.6033642896597468,0.0246568706088908,0.8368307590249493
1718278678547979697,-0.0876746139021444,0.2791696367878465,0.1628317747709357,-0.4821114485052704,0.0529266620133752,0.87559251385698
1718278678549192660,-0.0773142201495659,0.3307588250476387,0.0744385765210155,-0.6344760926914141,-0.0899686290655004,0.7204994387864717
1718278678550416300,-0.0865646125077599,0.3142726464810148,0.180641894831026,-0.4451841948123599,0.0828891010005058,0.6951881571848542
1718278678551593652,-0.1037112687818281,0.3043398641787661,0.1375357207271293,-0.50976513178094,-0.091102543735293,0.7446028603650069
1718278678552873716,-0.1435829403157267,0.3181305116162991,0.1603816653740049,-0.4990676616128625,-0.2081222923923513,0.7366146697921758
1718278678552888738,-0.129237439693672,0.2936813490645522,0.1894933479101562,-0.3605580385399687,-0.1037846232244635,0.9526357492158364
1718278678554027152,-0.0895251853096264,0.2489065818835074,0.2319689726578171,-0.1793416400115097,-0.0302691525029371,1.0251251710434195
1718278678555299260,-0.1497354743817867,0.1900355332812575,0.233929184398275,-0.081138847510628,-0.1190674853952606,0.9343517146314256
1718278678556612979,-0.0897848584555289,0.1951840927295143,0.2722749427354871,-0.0566031734451189,-0.0357909623636524,0.758402280435627
1718278678557954944,-0.1886768413517288,0.2464588758695995,0.2635376868988699,-0.1328316749108461,-0.2836054279916202,0.8457667461129148
1718278678557964147,-0.1990095181461562,0.2572832357412578,0.421206519046097,0.0554505571575254,-0.4069988181219381,0.7683780481809389
1718278678559474712,-0.1567517863203607,0.200425366190653,0.4318600847617194,0.2531597904173819,-0.3458063110737894,0.647053632439584
1718278678560379498,-0.1653111942278783,0.1967940458356268,0.3110619025942709,0.1447557503129312,-0.4517524007258533,0.4703029235697739
1718278678561638036,-0.1907033737726776,0.109063316468907,0.3199190575993932,0.3515650635555618,-0.5038882066925932,0.4546865572046813
1718278678562955560,-0.1729571948521693,0.1025944310202559,0.3383114945274704,0.4139365447532381,-0.553645130162512,0.478325029802195
1718278678562972945,-0.1605686346153148,0.0759958432198996,0.3546681982466012,0.4863942733137553,-0.4184606511559157,0.49872415069733
1718278678564194678,-0.1179085752556678,0.1031643158178305,0.3078473039287994,0.3296108226902132,-0.4544161483414249,0.6104179470050167
1718278678565443642,-0.0475311434136934,0.1031523433203193,0.3232034990085384,0.4069671005416349,-0.4938989262209314,0.2966912138522528
1718278678566630724,-0.0445408835778282,0.03578666210403,0.3345515507824952,0.5624390883579755,-0.488382851064541,0.3942680009430568
1718278678567986802,3.4657840361440595e-05,-0.0424055834808745,0.3809033982786544,0.8741490269855967,-0.5133440486439447,0.146381623042647
1718278678568006033,0.0248358761866787,-0.0811495697453722,0.3752176858086339,0.9165224812777932,-0.4367856776048187,0.2277152785538155
1718278678569118699,0.0199772953370037,-0.0819037562668511,0.3693209368502673,0.8883670114282521,-0.4786557641548333,0.0345446760256827
1718278678570340163,-0.0044420233890993,-0.15647834128365,0.4196651206347637,1.1079387873238609,-0.4928924056722544,0.1433567026235145
1718278678574242629,0.063942682132861,-0.1078614033843739,0.278382948070497,0.8508587967046186,-0.4970652499216181,-0.0500419309204975
1718278678574252169,0.0024409730551628,-0.1810794562862999,0.3798922968561913,1.202065452957627,-0.5132306669429194,0.0208945890337087
1718278678575614025,-0.0590470067458451,-0.1905421032619631,0.3190709065232254,1.0690963714828898,-0.5363653649842851,0.0312809553697736
1718278678575630659,-0.1365126967250917,-0.2715879371886495,0.2637304696487055,1.200189377301497,-0.4869141256595638,0.081381385978203
1718278678575641387,-0.1525975450785089,-0.2791556980593394,0.2291990372418322,1.0738162791145334,-0.5018098227417613,0.0545094613306187
1718278678576773440,-0.1959464841647043,-0.2727159337086798,0.2075592462518394,0.969925652663168,-0.4922906019885934,0.1648840781364027
1718278678578024053,-0.1638792805566241,-0.2576684803198956,0.0760426715427867,0.7588566109418712,-0.5063335682546147,0.0135724718871355
1718278678578037968,-0.1540579642624005,-0.3652011749682053,0.0793786947171357,0.9577844057690434,-0.6010516836703057,-0.1127026957597684
1718278678579232286,-0.190286524650236,-0.3860955670684608,-0.0289198909193811,0.7580564449792774,-0.7147696875634408,-0.1035199317194143
1718278678580454413,-0.1813105653781701,-0.376215014209845,-0.0073624996127016,0.7849943802427886,-0.7745536640454488,-0.1474422724223113
1718278678581639694,-0.2238319183597293,-0.3543650998985525,-0.1568861755325421,0.4826244782900945,-0.7995810524267007,-0.0198694556717246
1718278678582878084,-0.1203640915907101,-0.3076467505108291,-0.2845451921554797,0.2035978763837328,-0.6712546360544099,-0.0646709637513538
1718278678582890142,-0.0969465620918193,-0.3124042207269958,-0.2845833634256166,0.2088121881385088,-0.7069881323129023,-0.1228743211093391
1718278678584091146,-0.0570707657409657,-0.3511985882820689,-0.2269727987428881,0.3820332262219572,-0.5910821014375268,-0.2780647559488297
1718278678585330033,-0.0329974674987455,-0.3609732356900454,-0.1933002721706402,0.4947468470856883,-0.639612378609621,-0.4099158291558953
1718278678586548484,-0.0833700419608359,-0.3814603880183239,-0.2224959282682991,0.4635145421399052,-0.6586238232923148,-0.26530359249996
1718278678587789279,-0.1013204849218251,-0.3191891694421763,-0.3203376851293646,0.1776876420146276,-0.6534272868963658,-0.4578781893242321
