%time,field.linear.x,field.linear.y,field.linear.z,field.angular.x,field.angular.y,field.angular.z
1718278678149017229,0.0034337662551828,-0.0154474065586762,0.0003339497019335,-0.106305690027794,0.2028224429058915,-0.1925070445923081
1718278678149025606,0.0028298290986813,-0.0149711294677319,0.0002879650911929,-0.1086986955123427,0.2026157284884851,-0.1891756806209735
1718278678150326740,0.0019963748863406,-0.0144579678144724,-0.0002899987686979,-0.1120199302529388,0.2024487944713595,-0.1856088225531043
1718278678151549430,0.0013373380434923,-0.0139377893311773,-0.0002858468478251,-0.1142633847454162,0.2027602325719761,-0.1824276382569526
1718278678152953358,0.0007386196487329,-0.0134431704285079,-0.0003167046414351,-0.1165892653779665,0.2033554599211499,-0.1796825921591862
1718278678154291031,-7.873296179641205e-05,-0.0129296417730358,-0.0003935891852098,-0.1189415718190444,0.2036611775998023,-0.1759754462374999
1718278678154304920,-0.000878032209195,-0.0124192456937882,-0.0006449778928111,-0.1214966208832589,0.2041163168663577,-0.1718702967218466
1718278678155446334,-0.0016594479611324,-0.0120718964629509,-0.0005015469417342,-0.1231799032056344,0.2047404770726498,-0.1673802651516908
1718278678156788086,-0.0024557856433937,-0.0117078314027389,-0.0003078255355696,-0.1247056570102492,0.2053737273268702,-0.1626536497241305
1718278678158050941,-0.0030358813974609,-0.0112632218781167,-1.1434913853070744e-05,-0.1262797928290347,0.2059592293913434,-0.1585083059043229
1718278678158060111,-0.0034699679723777,-0.0106837425273499,0.0001245520507369,-0.128698972321594,0.2065810406968625,-0.1545321871696793
1718278678159284595,-0.0039081645616901,-0.0098601321920797,-7.125966190466015e-05,-0.1320927905568983,0.2071342182721637,-0.1507998399498615
1718278678160557615,-0.0041855025811012,-0.0087323097889713,-0.0004753501715315,-0.1360806430379498,0.2075986702894449,-0.1476790943643322
1718278678164670872,-0.0044001468195294,-0.0077696793140181,-0.0004432206163586,-0.1390358520688077,0.2081427727617423,-0.1447750928508568
1718278678167383432,-0.0043142478885593,-0.0071341838321632,-0.0001552451424701,-0.1408944847882232,0.2090675164700029,-0.1426676489564303
1718278678167407348,-0.0042255965714031,-0.0063542511132012,-0.0001479412820338,-0.1433813060899999,0.2104099499944436,-0.1404263439770071
1718278678167435547,-0.0041482765266409,-0.0054394080580292,-8.408228837813309e-05,-0.1461774172472784,0.2113283214769529,-0.1383852535050505
1718278678167452361,-0.0042728356696525,-0.0046294884330051,6.344183465331957e-05,-0.1485691837598898,0.2119062333705917,-0.136646488923734
1718278678167472089,-0.0044507538520836,-0.0038562575810408,0.0001633672515948,-0.1508102452570521,0.2128492566723231,-0.1345324121787057
1718278678168720913,-0.004759325564152,-0.0031569869922091,0.0001446459176868,-0.1534433204024602,0.214093038780036,-0.132292818129083
1718278678168732223,-0.0047156769559804,-0.002484051808214,-5.726296235982614e-05,-0.156826701458666,0.215512372653151,-0.1306282311444282
1718278678169776348,-0.0044680720399863,-0.0015343979004988,-0.0001148237768042,-0.1603263724818791,0.2170196391223499,-0.1293231484624752
1718278678170886634,-0.0041051906983291,-0.000571658042806,-0.0001088878686643,-0.1638118215543711,0.2184006344864073,-0.1278508610048398
1718278678172167893,-0.0035037219129273,0.0003438381302349,-4.246873767223269e-05,-0.1670335532479506,0.2201023514697718,-0.1267340531058652
1718278678172185029,-0.0032208047597748,0.0014720492204333,-0.0003570802792849,-0.1713149466226503,0.2210547465062735,-0.1257146142253534
1718278678173347545,-0.0031012873357038,0.0024258753447575,-0.0002081634854765,-0.1746192340056949,0.2220026266203602,-0.1242781992167915
1718278678174584475,-0.0029466443569962,0.0034967023153695,2.3259138869718976e-05,-0.177791616020411,0.2235987891319867,-0.122579471352504
1718278678175794364,-0.0028655708280735,0.0043625897955026,0.0004339050880511,-0.1800463525770434,0.2242822015579616,-0.1215481652236223
1718278678177083050,-0.0028897943269395,0.0051454307716911,0.0010320408307773,-0.1818441719128316,0.2250699221893717,-0.1202255459413063
1718278678177090442,-0.0027608840929466,0.0061754713702281,0.0009197302338303,-0.1853269923501448,0.2257614468098336,-0.1196621335000019
1718278678178213806,-0.0026851277925446,0.0071869406293501,0.0011241084921297,-0.1879587069059355,0.2263624947650255,-0.1186433134307241
1718278678179425197,-0.0029595571319373,0.008255800153506,0.0012567469308934,-0.19074155734454,0.2268967261422486,-0.1166014985562503
1718278678180708360,-0.0033579564478147,0.0094029533503736,0.0015536140277484,-0.1932918042664805,0.2268977730760826,-0.1144171857800664
1718278678182001488,-0.0034579596224669,0.0105106330082493,0.0015907376996336,-0.1959481135190018,0.2270005012380511,-0.1135882153684074
1718278678182011172,-0.0033670281280363,0.0114714042350422,0.0020880837291981,-0.1974761780597164,0.2270798644075256,-0.1130547260999304
1718278678183163061,-0.0033226446311857,0.0122494623165784,0.0028166345613082,-0.1981944839146397,0.2271824518207408,-0.1123381726329278
1718278678184375584,-0.0036664820002255,0.0131491107000397,0.0035456230397631,-0.1991843967062064,0.2273246151494847,-0.110935604876039
1718278678185599814,-0.0034681441908095,0.014190273834806,0.0041290060923936,-0.2005679622725539,0.2280863215169129,-0.1098082153218851
1718278678186855342,-0.0033667679094712,0.0148935317567637,0.005128050245285,-0.2005475629967469,0.2286727905318723,-0.1091672139465738
1718278678188119583,-0.002982355894275,0.0154671253604437,0.0059258585506006,-0.2005076426076867,0.2296300594248844,-0.109049574132636
1718278678188127057,-0.0024469389071596,0.0161335795298083,0.0066765105328279,-0.2006427794108469,0.2303078154813509,-0.109149888706763
1718278678189306617,-0.0017399563311793,0.0166910209681611,0.0071867018576782,-0.2009587057588837,0.2317798421148326,-0.1092655885830209
1718278678190533614,-0.0010372598148859,0.0172608154155643,0.0074498183893376,-0.2014704995041011,0.2327805943839848,-0.109421914655674
1718278678191747981,-0.0005256482824799,0.0177566748766594,0.0077561318850495,-0.2016755606661871,0.2329278688376402,-0.1101332851499674
1718278678193063614,-0.0001571318960755,0.0181612063708894,0.008051537457379,-0.2020050497892116,0.2330559891787944,-0.1108038218914169
1718278678193079697,8.199002207455539e-05,0.0183399761904422,0.0083489521180021,-0.2019540733272536,0.2331673304010905,-0.1111922421630934
1718278678194242068,0.0003263118030723,0.0187099924277587,0.0086194363265325,-0.2023286232390319,0.2336183918068206,-0.1114215111370219
1718278678195490384,0.0006372139277686,0.0189390962186373,0.0086524912537575,-0.2029365650960615,0.2343733212870949,-0.1120969867601448
1718278678196754925,0.0006991544568417,0.0190114659124189,0.0086431423174815,-0.2036822114165611,0.2346953797900517,-0.1127585292654093
1718278678198041648,0.0006909164181136,0.0191047217189649,0.008239128430609,-0.2053229827659062,0.2347633902858114,-0.1131622182365205
1718278678198072112,0.0007824238268695,0.0187875872475647,0.0083494620320732,-0.2050696249496985,0.235094644527267,-0.1132159782779199
1718278678199208879,0.0004792687458076,0.0184379784439588,0.0085934393594914,-0.204391338682588,0.2347010458195042,-0.1127769257843422
1718278678200432750,0.0003313370796162,0.0181694496714153,0.0086899078440764,-0.2042616832214303,0.2347822898591655,-0.1124490031727229
1718278678201648874,0.0004988888859117,0.0178738638511758,0.0086228656523757,-0.2042434311133242,0.2346891524522764,-0.1127439886198963
1718278678202919511,0.000548763967673,0.0176532483376282,0.0081254829177619,-0.2050486955532424,0.2344792728327837,-0.1129171578613759
1718278678202938488,0.0007377233871666,0.0171803408228389,0.0075587162161041,-0.2054013190172005,0.2342897931965797,-0.1129143579748575
1718278678204105740,0.0007220589641655,0.0165865859384168,0.0075594984306715,-0.2046488203946459,0.2341290800588435,-0.1121311727654895
1718278678205333899,0.0005584656550688,0.0161535352823967,0.0070707269708386,-0.2049939959903113,0.2344628646860636,-0.1108337212395207
1718278678206566972,0.0003720375776545,0.0155678034656102,0.0067304007264323,-0.2048218354225142,0.2350773945449368,-0.1094346218532197
1718278678207765097,0.0001902932835792,0.0148729723800872,0.0063680513258255,-0.2044773538885841,0.2349622034830529,-0.108236323141927
1718278678209826405,-4.30089908270516e-05,0.0143865275767438,0.0059528955013507,-0.2044715262336523,0.2353073461622886,-0.1062971430613772
1718278678209836225,0.0001569821697307,0.0139528086498179,0.0057484536853398,-0.2042987095985679,0.2358808823674147,-0.1051747236570203
1718278678211101157,4.156909070412505e-05,0.0135945822264316,0.0052112621831289,-0.2046670224451096,0.2362308960636381,-0.1036678124112915
1718278678211119068,-0.0001235715799443,0.0132700757417811,0.0045762814687527,-0.2051815274123847,0.236931873089339,-0.1021896785585238
1718278678212191064,-0.0002433076108235,0.0127832941789499,0.0039818655643603,-0.2054355363831084,0.2373421122576343,-0.1008137011086183
1718278678213496949,-0.0002601546201919,0.0122472822261882,0.0034492985034629,-0.2055142341047987,0.2373911884635726,-0.0993565486100999
1718278678214762326,-0.0005095051524319,0.0115765492489851,0.0028615858054213,-0.2053084720596213,0.237065823391611,-0.0980571472125348
1718278678215995894,-0.0006330899911698,0.0110092929724957,0.0025048132475274,-0.2051484062013142,0.2372766886065083,-0.0962904930163997
1718278678216010331,-0.0005270749417334,0.0102731472951492,0.0021183763502879,-0.2045156105791718,0.2383492807273132,-0.0949711667268617
1718278678217522579,-0.0003156874446334,0.0098045597364422,0.0012628559878799,-0.2054078169899756,0.2394016142357903,-0.0939695830733301
1718278678218744299,-0.0003035153409703,0.009259626685486,0.0008541063742908,-0.2051855254285541,0.2402849886443698,-0.0927813577525199
1718278678220011823,-0.0003091694396703,0.0087101306562414,6.178058342408421e-05,-0.2055483954752872,0.2415712274171038,-0.091564557070761
1718278678220077795,-0.0001086698491224,0.0082518995139757,-0.0004981178564389,-0.205811830735406,0.2430268456216418,-0.0906338012343456
1718278678221160863,-0.0002987825494553,0.0076351715667332,-0.0008543903310996,-0.2053765710590559,0.2447549910689844,-0.0881342645597288
1718278678222406050,-0.0003934762744323,0.0070056474167159,-0.001071661973374,-0.2048033078942734,0.246120121342892,-0.0864934483054833
1718278678223721738,-0.0002905808866305,0.0062828210856345,-0.0018803073366754,-0.2047349938138192,0.2472668561979873,-0.0855193342365769
1718278678224908302,-0.0001663790181003,0.0057274192307695,-0.0023629617243995,-0.2043095504122374,0.2479844736280858,-0.085583717046634
1718278678226213188,8.637834248302e-05,0.0050500239519279,-0.0028762375646311,-0.2034203080484759,0.2490994497015284,-0.0858993412090602
1718278678226225745,-4.1539791485490405e-06,0.0046443764150561,-0.0033430277426054,-0.2030831957809361,0.2503350024613338,-0.0848801698124171
1718278678227343224,-8.629468686435383e-05,0.0041607285968908,-0.0038376073040308,-0.2027914285881529,0.2515876015980323,-0.0838487631938643
1718278678254791859,-0.000299558619216,0.0036118478521927,-0.0042174772702646,-0.201933763274642,0.2530085999249554,-0.0824215117818922
1718278678254803596,-0.0006221877948378,0.0033182891542718,-0.0047803491165094,-0.2017398023506955,0.2543873981641962,-0.0811006832954699
1718278678254816274,-0.0006682506315653,0.0029433673637768,-0.0052870011559931,-0.201520650032143,0.2556589605643406,-0.0803628159986701
1718278678254827036,-0.0006912045698555,0.0028633433253223,-0.0056244394981937,-0.2016785566152188,0.2568360122795055,-0.079032099775809
1718278678254841090,-0.000607546032346,0.0027650545370885,-0.0059897647579143,-0.2015889070598904,0.2577932636606074,-0.0783625427127637
1718278678254851697,-0.0005191068039564,0.0027316274229646,-0.0059896801143608,-0.2011898735362149,0.2592937450138952,-0.0773280060531027
1718278678254861785,-0.00025180733048,0.002757807935196,-0.0060879978758681,-0.2010315494284896,0.2606393729395289,-0.0765120074626634
1718278678254874697,0.0002956332354517,0.0027224580639234,-0.0066012000343352,-0.2015006723323665,0.2616684559803685,-0.0767052081402978
1718278678254889403,0.0005496164197047,0.0026337258610643,-0.007045414621416,-0.2017952254821869,0.2625187099123015,-0.0763357725976342
1718278678254903310,0.0005926442100833,0.0025844086786192,-0.007180517389234,-0.2016578145086737,0.2630764553632186,-0.0759170858321628
1718278678254920829,0.0008036964021547,0.0025268439668801,-0.0074730498581595,-0.2017028840741233,0.2640014414293639,-0.0755398138364736
1718278678254932931,0.0006777837046456,0.0021176680174482,-0.0072596574349146,-0.2001175532513652,0.2647123802887633,-0.0747782830738248
1718278678254945865,0.0003665508326231,0.0014290462363589,-0.0066946031271786,-0.1976308980582583,0.2652836983775615,-0.0740091633945225
1718278678254956095,-5.531689767568999e-05,0.0008571010196233,-0.0061985028889379,-0.195335243892648,0.2652914530046594,-0.0731706529576276
1718278678254964705,-0.0005044604185654,0.0003230880616199,-0.0058113410186461,-0.1934944727339267,0.2647821563310823,-0.071847336396158
1718278678254976390,-0.0007938555965812,-1.933724392667774e-05,-0.0058899308714593,-0.192907204916326,0.2646437120046929,-0.0707105421356275
1718278678254985282,-0.0007981782361908,-0.0001982169560595,-0.0064588426801933,-0.1934010559964749,0.2646598194000672,-0.0704416542418501
1718278678254996352,-0.000797020813514,-0.0004215822000676,-0.0067027904107645,-0.1934621791576224,0.2648505612660105,-0.0698054234016557
1718278678255007999,-0.0007989655722864,-0.0003482186496093,-0.0071309904998519,-0.1945137145683353,0.2644823411565625,-0.0695886565922308
1718278678255013926,-0.0007476384818974,-0.0002599659869012,-0.0077355397301952,-0.1956488037801342,0.2639142466768505,-0.0699609948306227
1718278678255019585,-0.0006741290742711,-0.0003201409820975,-0.0084487078996348,-0.1967783557029956,0.2636795004771394,-0.069627728700736
1718278678255029531,-0.0005461116097516,-0.0004317774600831,-0.0088156935950804,-0.1970135506266771,0.2636920481361008,-0.069802973226565
1718278678255053153,-0.0006319495204262,-0.0004601757870822,-0.0090999379557377,-0.1970723936196855,0.2626011627391577,-0.0700561391230224
1718278678256744055,-0.0006167678901923,-0.0005635579158338,-0.0089252378440679,-0.1962817570848695,0.2620414174128171,-0.069604026414894
1718278678256776387,-0.0007081023495081,-0.0005969038369283,-0.009055964457716,-0.1961784732085029,0.2618529541630207,-0.0691648733061366
1718278678256790017,-0.0010955868647558,-0.0008797706432722,-0.0085894162275193,-0.1947901875619202,0.261942745514821,-0.0682174778246016
1718278678256803399,-0.0014496485027115,-0.001165072287849,-0.0081328223792895,-0.1934104123574621,0.2615833738085757,-0.0676902170549269
1718278678256814541,-0.0015833316998523,-0.0013263568866788,-0.0081420656278453,-0.1929526357928938,0.2609754272793327,-0.0679967250896487
1718278678256860403,-0.001181644674109,-0.0013708661017781,-0.0081235199864376,-0.1930048365141125,0.2615763292295645,-0.0685806975547572
1718278678258478775,-0.0007099150795535,-0.0013296769011038,-0.0080887664312631,-0.1930345477145946,0.2622312917231316,-0.0696506441269735
1718278678258486440,-0.0006616744183225,-0.001336341572062,-0.0076831203159626,-0.1921360160245037,0.2621737500040259,-0.0704003920835741
1718278678259668828,-0.0006053810875691,-0.0011960474204307,-0.0073840724076963,-0.1919585389898766,0.262307144240517,-0.0700179850393033
1718278678260866600,-0.0005880665537071,-0.0010347806366512,-0.007378299323349,-0.192385541566581,0.2621001518537269,-0.0703094766824661
1718278678260878150,-0.0007340896939125,-0.0007653760816263,-0.0077308070189967,-0.1937156588916764,0.2616399768042832,-0.0697465307477601
1718278678262397628,-0.0014183548658469,-0.0005798863511621,-0.007693173636353,-0.1943498283712643,0.2610117750734986,-0.0681801568133214
1718278678267029837,-0.0017384598276782,-0.000442447192387,-0.0075264749532848,-0.1946934916607501,0.2600398601095023,-0.0678304693960092
1718278678268607837,-0.0017430239309848,0.0001523594212364,-0.0078772116356726,-0.1972368724621656,0.2596252622865747,-0.0674609471623701
1718278678268623037,-0.0019999384707065,0.0006229986890941,-0.0082324098075348,-0.1993865798379305,0.2591638879789357,-0.0665576647246224
1718278678268643423,-0.002037276095846,0.0009801405983863,-0.0087383314664739,-0.2016179995719109,0.2592150808606894,-0.066106626793874
1718278678268659297,-0.0023067271323198,0.0013345562008061,-0.0091163173260288,-0.2034422787175361,0.2589567865622594,-0.0657468831309094
1718278678268671251,-0.0024223761434352,0.0014667116712505,-0.0095312171243487,-0.2048573018881058,0.2585141227385484,-0.0656057263833093
1718278678269986048,-0.0026452198946585,0.0016505744571942,-0.0095978477039027,-0.2058108041215942,0.2582810428123387,-0.0652679835806779
1718278678270008877,-0.0026842714665055,0.001879085737282,-0.0095152494333377,-0.2063770260181889,0.2579738766842402,-0.0647450992299853
1718278678271073164,-0.0026082418879151,0.0019737255009856,-0.0093640584955538,-0.2066160375991095,0.2580170877458864,-0.0643921730449436
1718278678272190574,-0.0025795897875001,0.0020966435654829,-0.0090458027888813,-0.2063189056259345,0.2584812932493213,-0.0640109478357053
1718278678273383438,-0.0027825343021289,0.0024112178332516,-0.0089504896138572,-0.2068523011179299,0.2589389510532928,-0.0641051582152269
1718278678274753561,-0.0030108202412318,0.0028309703589351,-0.0088372361014021,-0.2075031253336076,0.2588775232945052,-0.0646517058266479
1718278678275854599,-0.0033334222157454,0.0032751133128471,-0.0086894233952403,-0.2079698966343332,0.25864933066797,-0.0659355198144279
1718278678275862864,-0.0035463498576708,0.0037191008606412,-0.0086849365557858,-0.208546966515962,0.2587480049117374,-0.0671385858376956
1718278678277044462,-0.0035718177906106,0.0043118592162471,-0.0085759827657103,-0.2093652462262878,0.2590962420086157,-0.0687914539469891
1718278678278273095,-0.0034160529749959,0.0048524293343057,-0.0082923310334714,-0.2097914418230051,0.2594399473066926,-0.0706740430172248
1718278678279664891,-0.0035081298145865,0.0052594577714601,-0.0079466712335333,-0.2096947478953331,0.2599224843337486,-0.0723449582529318
1718278678281019742,-0.0035671279296585,0.0055742650679792,-0.0074797536437114,-0.2092189969805267,0.2604045590902907,-0.0737634624801974
1718278678281030060,-0.0040580520317447,0.005701136554606,-0.0068039059401752,-0.2080871008493355,0.2608320237181987,-0.0741369054603376
1718278678282253890,-0.0040766079489669,0.0059740282093249,-0.0060558598777515,-0.2074337735062509,0.2616740579148418,-0.0755167240548224
1718278678283605623,-0.0042178615154912,0.0062831240109435,-0.0053397020672676,-0.2068163154006461,0.2622990032169509,-0.0765302564620788
1718278678284970585,-0.0042817033873913,0.0067020153702193,-0.004510743519526,-0.2061765631290554,0.2631799890984265,-0.0776669180586225
1718278678284978974,-0.0045912023638811,0.007206102774381,-0.0036878738791998,-0.2056129544907862,0.2637365783066241,-0.0780057473713911
1718278678286254128,-0.0044048733363959,0.0076848266321287,-0.0031718020376496,-0.2055646790588005,0.2645774888258728,-0.0793910862702297
1718278678287361885,-0.0040354616716065,0.0080268629411436,-0.0026920062697543,-0.2055045435126256,0.2664468502863983,-0.0802279373195764
1718278678288690430,-0.0037180986533864,0.0083959610581493,-0.0022489170870769,-0.2055746561343067,0.2679553425628135,-0.0805311923679926
1718278678289729760,-0.0035561343407468,0.0083731586810146,-0.0013099185686341,-0.2041591720805614,0.2694222970097612,-0.0797572204029267
1718278678290945651,-0.0036777630752743,0.0084796603037484,-0.0008658707287984,-0.2037651144398757,0.2706089269505899,-0.0788213700197058
1718278678290957932,-0.0041629858224331,0.0085896087543242,-0.0004999458849363,-0.2034542011842783,0.2712905796926576,-0.0775095234792775
1718278678292216361,-0.0047026754825132,0.0085966895172829,-0.0003007026792004,-0.202992711439289,0.2716134505814978,-0.0764742419485844
1718278678293520407,-0.0051030426896765,0.0085191207886965,0.0002621024754845,-0.2019496994645749,0.2717550587071123,-0.076069968598582
1718278678294653149,-0.0055171843861623,0.0083514703370538,0.0005219185704077,-0.2010627686440636,0.2715863793850707,-0.0756369343118427
1718278678295922222,-0.0056406977416729,0.0084565786898636,0.0007053958738853,-0.2009595678816254,0.2717314414824532,-0.0754812814177956
1718278678295954704,-0.0059412904638137,0.0086324106546465,0.0007800138961977,-0.2011004916290019,0.2716462321107541,-0.0749457933428401
1718278678297113591,-0.006138262703148,0.0085032942989536,0.000971604448611,-0.2004954991237982,0.2715415602628455,-0.0747736535159731
1718278678298361289,-0.0063681944877639,0.0081946602881955,0.0012979971806939,-0.1991407309528709,0.2709616240025224,-0.0745449058379918
1718278678311882267,-0.006326410898561,0.007667964288089,0.001606393702482,-0.1973432551970171,0.2704277793964614,-0.0745469812600083
1718278678314240996,-0.0066028920488892,0.0072405246639112,0.0016153356340392,-0.1963310855811948,0.2699176469793605,-0.0739488729273435
1718278678314251349,-0.0067099560386652,0.0069161433543241,0.0015350487370346,-0.1956600632787397,0.2699598047388623,-0.0733890779344224
1718278678314261833,-0.0068530322530731,0.0064361248431952,0.0016692673161207,-0.1943112853835203,0.26982445245381,-0.0725165209337028
1718278678314308360,-0.0071396028452298,0.0060806342720525,0.0017008025685147,-0.1933988629535457,0.269148500385799,-0.0718457275189083
1718278678314322471,-0.0072638993041652,0.0057166461717038,0.0016196215897687,-0.1927296669232523,0.2686122007426955,-0.0715422371743136
1718278678314336512,-0.0072025334962775,0.0051921711990001,0.0015661460595465,-0.1918558201117977,0.2681621403391551,-0.0719231595479178
1718278678314351953,-0.0070399906627479,0.004677583582102,0.0015503292006967,-0.1907507073458292,0.2678695531919808,-0.0726336664009026
1718278678314363658,-0.0068012383172656,0.0040949518800647,0.0016225631498241,-0.1893647947518411,0.2674680874161739,-0.0740627633005003
1718278678314475454,-0.0062775465772965,0.0035462550924928,0.0016133939588474,-0.1881269785481977,0.267110900686012,-0.0757714998255588
1718278678314492663,-0.0057818532639017,0.0029076955412688,0.0014177689354088,-0.1871331111315176,0.2673591493087988,-0.0767169028602621
1718278678314502367,-0.0054117267307969,0.0023095251051571,0.0011059013543887,-0.1866932984700975,0.2674626965876067,-0.0776702249474708
1718278678314542720,-0.0050407198303835,0.0016310828445992,0.0008538373133777,-0.1861575683776087,0.2674810781649104,-0.079315673776435
1718278678314565773,-0.0047751115774017,0.0007936623578062,0.000609918764186,-0.1852375641689688,0.2673751088837973,-0.0804474320174305
1718278678314585323,-0.0045858401736584,5.730481992047392e-05,0.000297503973849,-0.1849050201723464,0.2671785500239063,-0.0814110481848963
1718278678314603970,-0.0041206488305751,-0.0007622798931652,1.7676934554212986e-06,-0.1841291050720002,0.2670266939523497,-0.082052006631835
1718278678316554122,-0.0037294047105029,-0.0014060818544071,-0.0008183628903141,-0.1845585172504281,0.2667379740482449,-0.0822993795756785
1718278678317662258,-0.0036115429631748,-0.0020657426253235,-0.0015374399671424,-0.1848928424876251,0.2659277109361145,-0.0821140864420517
1718278678317687614,-0.0037204620853129,-0.0027262455731553,-0.0021723034004906,-0.1850432083692512,0.2647956452334331,-0.0825823072462838
1718278678319915029,-0.0039956702989143,-0.0032342380921889,-0.0027490782400753,-0.1851933548311648,0.2635368680144107,-0.0831154489810958
1718278678319931795,-0.0044011825831535,-0.0036814347863099,-0.0031309559576833,-0.1850272909619397,0.262214453883662,-0.0831444660339511
1718278678321156844,-0.0044125453876879,-0.0039347110503494,-0.0036845621345304,-0.1853828221737614,0.260881449544197,-0.0832988091273738
1718278678321165194,-0.0044550237360828,-0.0040675966677505,-0.0042483753250272,-0.1859470327011456,0.259679645693212,-0.0837763298777946
1718278678322335792,-0.0046244507254272,-0.004091457325838,-0.0047148319375573,-0.186806393898211,0.2583874354040428,-0.0845262474220236
1718278678323526769,-0.0047058693715513,-0.0042535658753407,-0.0051821259077134,-0.1871573260023045,0.2567752235056944,-0.0859753228754486
1718278678324732244,-0.0046773357951152,-0.0045235633551399,-0.0055815479466158,-0.1870930913588751,0.255501366955416,-0.0873729474996828
1718278678325903230,-0.0048236307807423,-0.0046864534038272,-0.0060616262281041,-0.1875292657778317,0.2539915902599078,-0.0883231302745218
1718278678325911987,-0.0049031263994405,-0.0047666744559442,-0.0063374164503119,-0.1875263588445918,0.252370095458129,-0.0896007132086923
1718278678327161881,-0.0049064083621117,-0.004771360929486,-0.0063662877095387,-0.1869750469390917,0.2512239507285966,-0.0908095174440359
1718278678328273190,-0.0048678320866992,-0.0050287678547766,-0.0060012955202082,-0.1850298022229041,0.2500417028844974,-0.0921816383104231
1718278678329519217,-0.0046791520462424,-0.0052181503316996,-0.0057744127554792,-0.1834640682147945,0.2491775492657004,-0.0941230383907355
1718278678331142179,-0.0047461083628555,-0.0052792783722048,-0.0055183416501415,-0.1823654617305248,0.2480746144788078,-0.0956779117397305
1718278678331160599,-0.0047375356699329,-0.0050127665673386,-0.0052844354746702,-0.1823270054545785,0.2468068955778862,-0.0974363953905905
1718278678332299616,-0.0050777671293,-0.004885933737847,-0.0049057814467579,-0.1815326875622295,0.2454576698317038,-0.0982159081943211
1718278678333682410,-0.0056045559785482,-0.0050323498485489,-0.0045325790742599,-0.1802356730806332,0.2441218366591259,-0.0985759022073906
1718278678335098656,-0.0059260792568293,-0.0052638421756304,-0.0040795280677994,-0.1786317019775468,0.2427034604638951,-0.0996415025477328
1718278678335116554,-0.0062873992950901,-0.0052229212665278,-0.0036960710045076,-0.1779842600561822,0.2418111873536534,-0.0996907291024511
1718278678336136265,-0.0063165434295856,-0.0050873234862546,-0.0034024194985924,-0.1776662048508288,0.2416350889887221,-0.0996972237876291
1718278678337347654,-0.0062241787018118,-0.0049309987747322,-0.0031163023172321,-0.1773985916626647,0.2414458917837445,-0.1001180671941653
1718278678338574880,-0.0061800198010391,-0.0050912631903745,-0.002557183392376,-0.1760556880027937,0.2413515790013129,-0.1006741958020834
1718278678339707686,-0.0062240710126001,-0.0053544915701548,-0.0015310925903317,-0.1735704923146022,0.2413481592457066,-0.1008077594799723
1718278678340934498,-0.0063637903439987,-0.005552564161735,-0.0005340631866942,-0.1711753951566919,0.2413439480345517,-0.1004521464292978
1718278678340956619,-0.0065456478454941,-0.0054612660818006,0.0002132282543045,-0.1697012623542426,0.2413067705647614,-0.0999174040053089
1718278678342103896,-0.0067597162719035,-0.0054789726764439,0.0006591971036102,-0.1686046067304444,0.2412522507343704,-0.0990910079109085
1718278678343338277,-0.0070790164260579,-0.0054496428389311,0.0012628310666166,-0.1674616205838051,0.2412087442277301,-0.0979191660918046
1718278678344719154,-0.0073738057859262,-0.0053460109978009,0.0016226535072586,-0.1669505273467451,0.2412598926586062,-0.0967647669698917
1718278678345858533,-0.0077329116967301,-0.0052427342312005,0.0021075416871823,-0.1661431246553722,0.2414553266580502,-0.0953863087430778
1718278678345866167,-0.0077255771754166,-0.0051282966574617,0.0021541458670594,-0.1663991893396635,0.2411736433904024,-0.094913926844241
1718278678347113654,-0.0080589823131023,-0.0052160626387659,0.0020708277563186,-0.1665224959249633,0.2405918416762608,-0.0937921860874371
1718278678348288726,-0.0082755696306435,-0.0053880646031073,0.0023095566273141,-0.1658632218266313,0.2403604961500242,-0.0927072602448298
1718278678349528824,-0.0085561545102111,-0.0056690178474053,0.0025990224230526,-0.1649836170280239,0.2404088005844208,-0.0922959739118809
1718278678350787960,-0.008352596259487,-0.005864823825126,0.0026840692151875,-0.16469003933241,0.2407617298743834,-0.0923708774786186
1718278678352011938,-0.0081156065617448,-0.0060352329594396,0.0024364390357161,-0.1651143523241634,0.2412406653563922,-0.0922520358982222
1718278678352022959,-0.0079531976335023,-0.0060816418158517,0.0024371074640872,-0.1654421623803227,0.2415832556384574,-0.0922648959980784
1718278678353205330,-0.0078521516459363,-0.0061496326137601,0.0020340133619348,-0.1661424352149447,0.2418399050373429,-0.0923989357354387
1718278678355152091,-0.0074713398735839,-0.0062852623365927,0.0017159088080115,-0.1669845104774263,0.2429712732216933,-0.0923188176396498
1718278678356409436,-0.0071677013557038,-0.0065633295014099,0.0010708284234521,-0.1682327842315301,0.244499772353008,-0.0919611062731499
1718278678356421502,-0.0065769753340547,-0.0067372047889179,0.0005449886854787,-0.1698332561119573,0.2459443480302458,-0.0917998128534155
1718278678357577132,-0.0061986584639944,-0.0071191977677695,0.0002875129255489,-0.1707659740823962,0.246981744586173,-0.0920992905544324
1718278678358929046,-0.0061184949618369,-0.0073801712222717,-0.0004033326778856,-0.1724954343466694,0.2476819924253157,-0.0916794594137018
1718278678358946302,-0.0058520588173329,-0.0074488674983329,-0.0015071812444594,-0.1753579919870748,0.2479675681318003,-0.0926993424388561
1718278678360070276,-0.0057034956334153,-0.0072842824945875,-0.0022696087143516,-0.1782289136124151,0.2480084341169579,-0.0937285717924282
1718278678361197121,-0.0052619720523646,-0.0068992172796391,-0.0033495452804726,-0.182071918927302,0.2479507935530078,-0.0952780661568113
1718278678362385168,-0.0049731043013604,-0.0063866336219174,-0.0044320115279011,-0.1863837963706894,0.247663991437076,-0.0965472340097945
1718278678363592789,-0.0049921389181122,-0.0060358344388889,-0.0053081912802376,-0.1898706046857829,0.2473926178420372,-0.0969111023819282
1718278678364887960,-0.0049538459876542,-0.0056733427326582,-0.0062365100282618,-0.1934571553345411,0.2470313717284938,-0.0977498053540916
1718278678364905169,-0.0052242661060916,-0.0051920286691352,-0.0066888714188669,-0.1965575084108919,0.2465962623019392,-0.0982501801594637
1718278678370200294,-0.0055946369008129,-0.0047295084025554,-0.0070124604472967,-0.1993211999388479,0.2459707031594515,-0.0981829222329547
1718278678371788900,-0.0059681640412808,-0.0042914232991522,-0.0071105864021756,-0.2013591170855514,0.2453697771887229,-0.0978016607988132
1718278678371808125,-0.0066498944110784,-0.0039455609905437,-0.0070713311654031,-0.202656519011788,0.2447365525353397,-0.095824753896486
1718278678371820897,-0.0070158606833135,-0.0037818257002647,-0.0066723117131695,-0.2032135834455085,0.2441973636210036,-0.094653513567238
1718278678371829754,-0.0070938886539571,-0.0034619943086161,-0.0067868850166983,-0.2047953697274139,0.2437606406372635,-0.093188249769777
1718278678371841508,-0.0072392238255914,-0.0030848138816996,-0.0068724359903665,-0.206444476369258,0.2432627264581087,-0.0914406800527985
1718278678372854266,-0.0070606054061973,-0.0028282737662054,-0.006882692351857,-0.2075987861562506,0.2432713699589892,-0.0904529778970861
1718278678374645455,-0.007155992043315,-0.0026631446038104,-0.0066681292140897,-0.2082837501444064,0.2426684425617337,-0.0900554199978374
1718278678374660543,-0.0072631636092584,-0.0025961142464229,-0.0065347823484198,-0.2089307130079494,0.2417006805099267,-0.0899115306215454
1718278678376982354,-0.0073459293047998,-0.0025556174166251,-0.0060523463083835,-0.2085926218574669,0.2410017098091915,-0.0889255719724315
1718278678376995658,-0.0075459821462078,-0.0025922493586004,-0.0055363164881549,-0.2079781578740194,0.2401318558516722,-0.0875904029916496
1718278678378204202,-0.0077514659710636,-0.0027663270126515,-0.0053498374360823,-0.207770525299432,0.2387861279030881,-0.0862484057817274
1718278678378211718,-0.0077637209382319,-0.0028311441948898,-0.0052108159190846,-0.2079705509400656,0.2375550746516992,-0.0850822606578318
1718278678379392253,-0.008296444886033,-0.0029900782295538,-0.0047113930103554,-0.2071508561295581,0.2358673009929598,-0.083327059379144
1718278678380581671,-0.0085238967907056,-0.0027436441132547,-0.0046965659278363,-0.2078857277025311,0.2343829335874055,-0.0817496281248827
1718278678381755524,-0.0087809163433093,-0.0024559232589365,-0.0043497014906719,-0.2080695491399172,0.2336677286066603,-0.0798848685972573
1718278678382961509,-0.0090870194331653,-0.0022698322808585,-0.0040413556153183,-0.2081765421613239,0.233140705450554,-0.0785915614609376
1718278678382977343,-0.0094584680435809,-0.0017976864558521,-0.0036928106381091,-0.2085745037589249,0.2325144129109241,-0.0770203072478293
1718278678384187252,-0.0100973872329435,-0.0016235043682729,-0.0027222132122353,-0.2071034298472636,0.2313516606035274,-0.0754465274992632
1718278678385449230,-0.0105545447584311,-0.0014892671609548,-0.0016706995127686,-0.2055378566764963,0.230764641182277,-0.0742879213892687
1718278678386686460,-0.0109383235067725,-0.0013620748257057,-0.0005690025601779,-0.2038011191105371,0.229774945165733,-0.0726571691116328
1718278678387970825,-0.0112852105757677,-0.0014114137970532,0.000968006128323,-0.201171457852128,0.2284311649084192,-0.0712621192359111
1718278678387975258,-0.0113287256977095,-0.0015656540492645,0.0024407802462929,-0.1982999583406157,0.2274797248870219,-0.0698575400447441
1718278678389124848,-0.0115233902657789,-0.0018134337234719,0.0037482458782822,-0.1955414952279516,0.2266562713603284,-0.0685717402063872
1718278678390323484,-0.0114655062067439,-0.0021930442903104,0.0054514836626879,-0.1918158776776859,0.2259653489029184,-0.0675127189942877
1718278678391538405,-0.0114614494256013,-0.0022145397255585,0.0063937214582796,-0.1899625082150545,0.2258743125021515,-0.0664799911257988
1718278678392757201,-0.0116268631234595,-0.0024680341499206,0.0077762513992946,-0.1869452735532655,0.2257315334716214,-0.0653780232540629
1718278678393963402,-0.0121684191854263,-0.0026766112952707,0.00899293099644,-0.1842334911290498,0.2254794982335366,-0.0635733204782576
1718278678393977121,-0.0127444263483347,-0.0027651520536608,0.0098546449465611,-0.1822295737572912,0.2252485024277324,-0.0617088125375603
1718278678395207655,-0.0133883894711577,-0.0027876287178441,0.0102521638806712,-0.1813716673928485,0.2247604502196393,-0.0598771260980339
1718278678396416348,-0.0136417987003781,-0.0027098592188745,0.0109876310690829,-0.1801452039998221,0.2248680075105552,-0.0583454480085246
1718278678397630694,-0.0138115881276632,-0.0028558602794484,0.0118401788674444,-0.1783889998766284,0.2254589047442761,-0.0574519635924937
1718278678398866713,-0.0137787612179665,-0.0028948589086099,0.0121417115019125,-0.1778907250225232,0.225826709134232,-0.0570197601018614
1718278678398875687,-0.0138226244708433,-0.0029143638494362,0.0119021779433424,-0.178209997538384,0.2260529116598724,-0.0571158105685218
1718278678400131118,-0.014319327230604,-0.0031437093853006,0.0118578110711223,-0.1779620837434006,0.2255923538493888,-0.0575161504262418
1718278678401367750,-0.0145052056044634,-0.0034577206954868,0.011822385589466,-0.1773936137394207,0.2253692801621391,-0.0592531567309722
1718278678402564945,-0.0145725381963063,-0.0036448556090122,0.0114053851910151,-0.1774636502864815,0.2250983754632157,-0.0608171209842464
1718278678403803936,-0.014437743824923,-0.0038770144135688,0.0112131592936594,-0.1771869973022928,0.2253915321090429,-0.0620603563539725
1718278678403895436,-0.0146736792812127,-0.0042217862657349,0.0108040292980867,-0.1768854746027952,0.2251797594765143,-0.0623425539254095
1718278678405045368,-0.0148304652317836,-0.004595046136938,0.0105082022118505,-0.1764270979686121,0.2250307234464212,-0.0627031821905604
1718278678406286565,-0.0147205720582287,-0.0050129614271815,0.0103405176399333,-0.1758013353218778,0.2249223322924383,-0.0642116478479409
1718278678407489893,-0.0146347320333336,-0.005303692306159,0.0098077456843233,-0.1760463910766804,0.2248975875600755,-0.0660097658127702
1718278678408688811,-0.0147541564104171,-0.005716292965676,0.0091005866568877,-0.1764332421383228,0.2255009978268211,-0.0671464504677493
1718278678409953619,-0.015013859701324,-0.0060512060448593,0.0085912616284611,-0.1764998584169062,0.2263316159346655,-0.0680926959386289
1718278678409972752,-0.0148846105730477,-0.0060972504640417,0.0075043735208299,-0.177889449729711,0.2271423258256122,-0.0700697805339032
1718278678411126944,-0.0146512756058324,-0.0061759005784006,0.0063748300348057,-0.1794359237418399,0.2275777565550639,-0.0723401633134247
1718278678412360396,-0.0142630366170372,-0.0063809678746232,0.0051717198633152,-0.1807385013476079,0.2288047586082576,-0.0738561603657435
1718278678414865190,-0.0140224054307852,-0.0066736132974161,0.004297435920172,-0.1812812358568524,0.2304777524305614,-0.0752168418477788
1718278678416192578,-0.0136554051369938,-0.0069461408320657,0.0032540267986713,-0.1821495628734403,0.2321979084744087,-0.076804855059813
1718278678416209790,-0.0136060490330575,-0.0072443913686575,0.0024942678280479,-0.1825820366306893,0.2340930305772932,-0.0777053585610796
1718278678417316555,-0.0135038602029659,-0.0076055065344095,0.0017678746741359,-0.1827706596182284,0.2361265190126699,-0.0778575696040692
1718278678418630508,-0.0132767286205022,-0.0080138259011353,0.0010236980427564,-0.1827929441578376,0.2381840239094386,-0.0788221338216127
1718278678420975943,-0.0134338577204217,-0.0085249895607454,0.0003691586180079,-0.1824966244457448,0.2396976631730266,-0.0786532661682382
1718278678420985094,-0.0133553739697541,-0.008962860397986,-0.0001185340329867,-0.181981955971294,0.2411668106030372,-0.0791566541369998
1718278678422191956,-0.0130411482244882,-0.009479176205676,-0.0004322664811433,-0.1811736069778345,0.2429549509295515,-0.0791982811995521
1718278678422207302,-0.0130559819315007,-0.0100931444441125,-0.0006276932932298,-0.1798909357823389,0.2441734309866815,-0.0791946968976367
1718278678423460436,-0.0128356188507283,-0.0105700140659753,-0.0011113886564896,-0.1793128710369457,0.2450180247347392,-0.0798595713289603
1718278678424717450,-0.0123832397312867,-0.0112313666317704,-0.0015205859893513,-0.1781365707047869,0.2461115170088023,-0.0805767970601596
1718278678425920115,-0.0124031509923744,-0.0118001508538836,-0.0016631452419432,-0.1766989262245797,0.2461939166148581,-0.08061439062984
1718278678427126426,-0.0125482561055522,-0.0123142483721324,-0.0019803551568797,-0.1755551115508172,0.2462729053875278,-0.0804494923717918
1718278678427151931,-0.0126261818200925,-0.0128040595335797,-0.0020677506644464,-0.1744187119895268,0.2467509986096994,-0.0801459233858531
1718278678428373122,-0.0123419485972459,-0.0133568087761127,-0.0022194037367713,-0.1728401758797584,0.2470565650508273,-0.0805894125121499
1718278678429571438,-0.0122671006589825,-0.0137929643234104,-0.0021004301703522,-0.1710749866149024,0.2471980617819354,-0.0806050501437349
1718278678430670555,-0.0121772396094413,-0.0141820781266068,-0.0020175272471778,-0.1693399937867002,0.2468458716162666,-0.0808244576978471
1718278678431936296,-0.012069597277191,-0.0143939343298172,-0.0020472024388805,-0.1680492733680845,0.2465328080520471,-0.0813803695809726
1718278678431952561,-0.0121741406869297,-0.0146169650018788,-0.002226318299351,-0.1671898694559687,0.2457044173505279,-0.0818479962393448
1718278678433273980,-0.0119327418445192,-0.0147805477631709,-0.002204511329056,-0.1661662673784794,0.245086764481634,-0.082546687838147
1718278678434449540,-0.0114751619513599,-0.014940891590016,-0.0019743127620533,-0.1649183212079704,0.2449211034933877,-0.0841442835518909
1718278678435687060,-0.0112758161374202,-0.0152782823320872,-0.0014753896357728,-0.1630194428478327,0.2444069203268727,-0.0857280937233688
1718278678436930244,-0.0113775476686201,-0.0157858735248803,-0.0010996118297307,-0.1611836736974412,0.2436080631899284,-0.0867295791144298
1718278678436951702,-0.0111670949481652,-0.0159909674136326,-0.0009183414953095,-0.160250222491102,0.2431410733502135,-0.0881755431447098
1718278678438126109,-0.0109761425517469,-0.0160660363617284,-0.0007439042600233,-0.1596980057065509,0.2426395847439796,-0.0894533737222844
1718278678439379508,-0.0106607469122388,-0.0160746064187661,-0.0006670256967052,-0.1596527478587342,0.2423249539325108,-0.0909059608012423
1718278678440583238,-0.0104015614471342,-0.0161056879823521,-0.0009900997136402,-0.1600855955295019,0.2414202527354642,-0.0924647235154315
1718278678441767055,-0.0103649223889701,-0.0163102426164179,-0.001202881206831,-0.1600444089539233,0.2403308759966256,-0.0939757641679802
1718278678443059399,-0.0099619945335282,-0.0165026792155694,-0.0013422179933107,-0.1599722529663925,0.2395236307876565,-0.0955199826791035
1718278678443068368,-0.0096600414830649,-0.0165034987748168,-0.0018136057157067,-0.1608690534841528,0.2390401100437561,-0.0958840564454312
1718278678444238086,-0.0095711618720555,-0.0165252428387664,-0.0026742370179512,-0.1626610073473365,0.2381373915479389,-0.0966296559429431
1718278678445540297,-0.0092364479388381,-0.0164759003548181,-0.0031394746362869,-0.1640396604705905,0.2369876146152406,-0.097310050401686
1718278678446754924,-0.0088210856616326,-0.0163847688552734,-0.0036420397261596,-0.1655341652516373,0.2356091031123509,-0.0988622043456096
1718278678446765686,-0.0084155088561963,-0.0161648107073262,-0.0040663933209504,-0.1672694513726799,0.2341533138423711,-0.0994371181542465
1718278678447963092,-0.0081212115582597,-0.0156619962294917,-0.004374336749574,-0.1693040391247229,0.2327536222246976,-0.0992903948074414
1718278678449522191,-0.0079835149736233,-0.0151506356051534,-0.004462746823658,-0.1708595037319411,0.23158137864533,-0.0991644320903377
1718278678450705537,-0.0080269152647672,-0.0148294204912177,-0.0045114042386675,-0.171847831305106,0.2300661755502196,-0.0992490433926074
1718278678451963581,-0.0080419035029186,-0.014515281970248,-0.0046696302762563,-0.173185897074494,0.2286907769078949,-0.0991878768637681
1718278678451972541,-0.0078264884214293,-0.0140155915451284,-0.0046419069631855,-0.1744061267750915,0.2274165591213594,-0.0993549655936936
1718278678453159445,-0.0078132454456151,-0.0135478463862933,-0.0043031352901891,-0.1751621614241632,0.2258955687138724,-0.0988359684197479
1718278678454396966,-0.0077223824836044,-0.013040842528375,-0.0037184792043839,-0.17542831710465,0.2244581763420017,-0.0983930609445547
1718278678455606675,-0.0077705501176436,-0.0125991535087937,-0.0030804944279891,-0.1755323369603527,0.2230932098740862,-0.097635853644759
1718278678457095726,-0.0081515290767481,-0.0120393144084121,-0.0024660618413787,-0.1759224848496466,0.2212921227390025,-0.0974669678091715
1718278678457102622,-0.0082526385756206,-0.0111957351063612,-0.0023029604187864,-0.1775077297128519,0.2196734497710245,-0.0973576021828428
1718278678458057375,-0.0082586104139288,-0.0104473693163825,-0.0019751860013815,-0.1786078727638007,0.2186383288913793,-0.0969709419701388
1718278678459282907,-0.0083684647632456,-0.0098631823517781,-0.0014469231560521,-0.1790499517497119,0.2175768800856405,-0.0964733264368491
1718278678460490540,-0.0082622856803828,-0.0090116738995885,-0.0012873514681375,-0.1807043390977079,0.2169820821739329,-0.0960457090093957
1718278678461694293,-0.0082224188318434,-0.008427868344003,-0.0009246593492444,-0.1813231675231119,0.2164305441998752,-0.0957477881129522
1718278678463047721,-0.0083563552881363,-0.007768935222403,-0.0006470125389167,-0.1821380463439513,0.2161898200736269,-0.0949813244094952
1718278678463060688,-0.0084677190335154,-0.0069924305540901,-0.0005386443836241,-0.1836036979809527,0.2160866009187353,-0.0941211267528912
1718278678464109994,-0.0087272753194734,-0.0064624998501957,-0.0001368134861345,-0.1841165145136779,0.2160079720132756,-0.0932924560686785
1718278678465381412,-0.0087942082593908,-0.0059289088766009,5.709368168301671e-05,-0.1851075396153267,0.2164036969734874,-0.092601543536426
1718278678466540987,-0.0089235487175043,-0.0052324361978896,0.000145829632075,-0.1865643070729842,0.2166269524450169,-0.0917920189735059
1718278678467779766,-0.009213096057547,-0.0045738977228271,0.0003559796716911,-0.1878565022140976,0.2167722663055281,-0.0901429344968402
1718278678471881315,-0.0097272041864323,-0.003742664485128,0.0004448039532893,-0.1895121160098795,0.2168685285527332,-0.0884140549430883
1718278678471899709,-0.0099981603178533,-0.0031497182222298,0.0005719636700602,-0.190706736361713,0.2167766333282379,-0.0872049448121659
1718278678473281973,-0.009989517568824,-0.002841320877714,0.0010338226972464,-0.1906262837911076,0.2175458412117187,-0.085582115363693
1718278678473291198,-0.0100899842353035,-0.0022913483839712,0.0012318898579128,-0.1915363350635966,0.2184365691451252,-0.0846486508480405
1718278678473306370,-0.0105446274822569,-0.0021319192468442,0.002130822253419,-0.1907262148156484,0.2188447259477196,-0.0828929582346647
1718278678473330399,-0.0109742209888382,-0.0020402136007444,0.0027902813604976,-0.1902521854773466,0.219791131691532,-0.0806256828903294
1718278678474310685,-0.0110926286438712,-0.0020509560947418,0.0035176990139409,-0.1891651655898875,0.2208680563151791,-0.0795514105576025
1718278678475996954,-0.0113451692663492,-0.0024449257509329,0.0044954976534643,-0.1871600135027572,0.2221795337864175,-0.0779891639039386
1718278678477140251,-0.0115144295272703,-0.0024779593305703,0.0052165611670543,-0.1863122260641079,0.223289505340151,-0.076494000414252
1718278678477146426,-0.011614337691613,-0.0023628465064932,0.005753511501192,-0.1859202553763084,0.223764856283253,-0.0749771571926961
1718278678478329376,-0.0119094744663509,-0.0021842275217591,0.0062903449018552,-0.185803846958688,0.2244164160639679,-0.0738811635894723
1718278678479569778,-0.0120542636089826,-0.0021984782326512,0.0066123093417477,-0.1853337567495588,0.2253219288686798,-0.0730378511559731
1718278678480746908,-0.0123202047337837,-0.0022168026610059,0.0071033070971228,-0.1844328951165258,0.2261913416945024,-0.0723092788738527
1718278678481979619,-0.0127680153084724,-0.0024205725367909,0.0076437247547572,-0.1830586960051479,0.2266168060693297,-0.0718754069338989
1718278678481994740,-0.0129677590097608,-0.0025847551710477,0.0078588038414882,-0.1821626188612646,0.227055866243089,-0.0718646347983096
1718278678483184697,-0.0128299044889794,-0.002890637118177,0.0081540164812748,-0.1810473738789721,0.2276682842881546,-0.0723857193214045
1718278678484409825,-0.0127580564124301,-0.0032699720652433,0.0085454578946254,-0.179633430324573,0.2284052918895376,-0.0721437301914731
1718278678485661224,-0.0126351175260468,-0.0038214816195822,0.0090415489667855,-0.1777492019909474,0.2287255639754981,-0.0726638374451081
1718278678486911021,-0.012552166394144,-0.0043107249801015,0.0093325030161941,-0.176681343449321,0.2287654663927697,-0.0733439703531798
1718278678486922220,-0.0125062583675646,-0.0048317828902181,0.0094934490053469,-0.1757578098973626,0.2290338203725023,-0.0740847507470113
1718278678488131923,-0.0122751493635033,-0.0051675344129175,0.0092234867485282,-0.1757006791391123,0.2289003577234674,-0.0760061299054027
1718278678489354131,-0.01220722116976,-0.0055783011794255,0.0090080210277478,-0.1753739998458711,0.2285918768178686,-0.0787755775804765
1718278678490559357,-0.011701253447131,-0.0059042765664587,0.0087101291468803,-0.1751293747369101,0.2286244619158696,-0.0822255330682742
1718278678491798093,-0.0116470772747247,-0.0059758453242489,0.008090315742912,-0.1761824640661408,0.2283293725184356,-0.0842968855131084
1718278678493028788,-0.0113310880687172,-0.0062210554541204,0.007527727716681,-0.1763915399124495,0.2279622610485324,-0.0863101850750871
1718278678493047517,-0.0110525695234901,-0.0064970435569023,0.0066311465585331,-0.1771845875508427,0.2279507032220559,-0.087823870284053
1718278678494225613,-0.0105944786146002,-0.0067559062867158,0.0057023294473862,-0.1780507741186658,0.2282082739502385,-0.0895282783166103
1718278678495478983,-0.0100682058914047,-0.007053833450808,0.0048412667733377,-0.1788105930392585,0.2279932997113877,-0.0920484495810457
1718278678496698828,-0.0096997626444682,-0.0069481163461109,0.0036593306288983,-0.1811131759881634,0.2274680871431257,-0.0939920290951661
1718278678497913831,-0.0093814086764711,-0.007264909787034,0.0031476616962005,-0.181455161174004,0.2269927644648,-0.0955659596466153
1718278678497924189,-0.0093163137938685,-0.0077665331733705,0.0028304305523302,-0.1809839172719331,0.2265363003915865,-0.0961108579994934
1718278678499156489,-0.0091916023148152,-0.008255750221521,0.0021380802945761,-0.1809757432416668,0.2259711466298108,-0.0964118851504311
1718278678500364644,-0.0090883388286631,-0.0089741071266745,0.0018272431397211,-0.1797912588682431,0.2253009140365496,-0.0973303529778727
1718278678501575848,-0.0089847365644441,-0.0095460360571359,0.0014071123107961,-0.1791483673909843,0.2249688241807133,-0.0971642965530215
1718278678502825601,-0.0087524677514901,-0.009921431155966,0.0006192900168053,-0.1793456255097598,0.2244314262650578,-0.0972344220232137
1718278678516613944,-0.0086409493577272,-0.0107184515854677,0.0003554930912934,-0.1780262479440692,0.2240090960414427,-0.0972257446492174
1718278678516636444,-0.00858040429501,-0.0114668727451276,-9.455295081617354e-05,-0.1768715118821436,0.2230017965491069,-0.0971756867415757
1718278678517881612,-0.008485666518334,-0.0123428802390183,-0.000459939051086,-0.1751699494443873,0.2218147905476011,-0.0978535012924542
1718278678517898125,-0.0082416298718937,-0.0132058059302844,-0.0008643287236295,-0.1737283911608021,0.2203542196259499,-0.0989424923338834
1718278678517910566,-0.0078915848549758,-0.013806865048092,-0.0014064018605104,-0.1729479758272491,0.2189276991158712,-0.1006021268389774
1718278678517920502,-0.007933451307881,-0.0146219131306492,-0.0017885732689591,-0.1715104561074928,0.2174934962240848,-0.1017658061406509
1718278678517942344,-0.008154816072217,-0.0152086535496004,-0.0022218077709224,-0.1708568794618015,0.2161782605496394,-0.1026013900602642
1718278678517951484,-0.0083634964677511,-0.0157896387887357,-0.0026110208523849,-0.1698944718317408,0.2151101530902398,-0.1024387436972772
1718278678517960460,-0.008341755927173,-0.0165204478286684,-0.0031319156983055,-0.1688920600944305,0.2143755912797746,-0.1023511496764626
1718278678517985184,-0.0081479323505501,-0.0173936946582031,-0.0032826449655527,-0.1671005573389494,0.2138441966372508,-0.1025474539950741
1718278678517998564,-0.0078141802437463,-0.0182607139295261,-0.0036674778487507,-0.1656469996116186,0.2133691372542971,-0.103278445338381
1718278678518007842,-0.0076249067804867,-0.0190964515770597,-0.0040164548820121,-0.164110774366124,0.212958158596262,-0.1038252187758542
1718278678518017534,-0.0072071815036515,-0.0198350398164918,-0.0042615796641398,-0.1624736789465713,0.2126621606111862,-0.1054511238890663
1718278678518090317,-0.0071575016382441,-0.0205424942372919,-0.0044000686209656,-0.1605253627081754,0.2119162495472165,-0.1065797887844646
1718278678518111627,-0.0071353364892561,-0.0212379668965035,-0.0043873064947803,-0.1583532959369631,0.2113289513914834,-0.1075812005641247
1718278678518136424,-0.0070622913583079,-0.0217519894018179,-0.0042080808068587,-0.1565472512671266,0.2107642303773122,-0.1082917833733804
1718278678520132796,-0.0071151656927448,-0.0218686277949506,-0.0039976221606659,-0.1558136070988306,0.2104636623808784,-0.1078485811132465
1718278678522252726,-0.0072233532457439,-0.0218326370384654,-0.0036134179906731,-0.1552218760613226,0.2099160544480487,-0.1070749772011831
1718278678522279188,-0.0074443673399839,-0.0218652132666423,-0.003083684430495,-0.1544502168371781,0.2090723385974749,-0.106107806731887
1718278678522292683,-0.0075964254471177,-0.0219798720741844,-0.0026146982294575,-0.1538017818985534,0.2082342978424237,-0.1048675541180153
1718278678523575226,-0.0080073806072196,-0.0218946480421391,-0.0021932232751545,-0.1534081933233425,0.2073189409752725,-0.1029684611649273
1718278678524765721,-0.0082592300243384,-0.0216477011908392,-0.0019970681923532,-0.1536343784533972,0.2063281890545717,-0.1014521540457697
1718278678526021932,-0.0085526446965748,-0.0212030704004555,-0.0018346725537637,-0.1543708709912015,0.2053906471328291,-0.0997577743584788
1718278678526038539,-0.0089015431706293,-0.0207158233275919,-0.0017173071467113,-0.1553011538312786,0.2039819082167887,-0.0984580014124308
1718278678527292255,-0.0093362944486406,-0.0202417596712654,-0.0017175254561399,-0.1563498425097242,0.2024095400566193,-0.0968666296038615
1718278678528522050,-0.0094540355689036,-0.0199918594422602,-0.0013865516444991,-0.1563910771074684,0.2012967414107785,-0.0956032846414471
1718278678529752341,-0.0099345999826322,-0.0196940190427036,-0.0014588722616514,-0.1572702165117766,0.1999533206851405,-0.0937562209930943
1718278678529763658,-0.0100960911259218,-0.0192693734067809,-0.0015152624927015,-0.1586054979930272,0.199135226403013,-0.0921823358334307
1718278678530950509,-0.0102345827419851,-0.0189675564318379,-0.0014301963806724,-0.1595914662443207,0.1986341941030688,-0.090526056269303
1718278678532201872,-0.010542839005771,-0.0186369236851456,-0.0015360216721349,-0.1608757347183264,0.1978340734743805,-0.0888055699988345
1718278678533407214,-0.0105562001004645,-0.0181436058536325,-0.001462780652367,-0.1623779914268176,0.1974176645137106,-0.0875188567332863
1718278678535198260,-0.0106362108950547,-0.0176245136049724,-0.0016389252322204,-0.1645308451669113,0.197255833068122,-0.0859691746342189
1718278678536628343,-0.0106033107742607,-0.017000547568339,-0.0020923903897317,-0.1671844713989453,0.1973418169413807,-0.0841849224950038
1718278678536648738,-0.0102729993483746,-0.0164374792008171,-0.0021871117820069,-0.1690491371077213,0.1975794572930969,-0.0837617814669312
1718278678537863502,-0.0100815906218436,-0.015754497640513,-0.0025847531984642,-0.1715606021400842,0.197785543159969,-0.0828783015235588
1718278678537893575,-0.0103286063458916,-0.0150455022145114,-0.0032027243579079,-0.1745277630337927,0.1978995086669133,-0.0813625459626477
1718278678538995246,-0.0108020884421747,-0.0146575886356516,-0.003249627156459,-0.1758984449967561,0.1980855514476698,-0.0790780991596553
1718278678540218247,-0.0112740651704871,-0.0142574292701754,-0.0030082738571321,-0.1766738552017886,0.1982092325783414,-0.0773631323335272
1718278678541875959,-0.0112800036312576,-0.0136252485743457,-0.0026309171511133,-0.1776236194580915,0.1987052006765409,-0.0761840900577691
1718278678541897851,-0.0108262431996576,-0.0128541005027966,-0.0026891300501158,-0.1798007015647692,0.1995159228732071,-0.0758330584602224
1718278678543104127,-0.0104255864449036,-0.011976224470843,-0.0029592092525979,-0.1825581963041338,0.2004482405601568,-0.074949555261385
1718278678544355138,-0.0102805662342677,-0.0111930564090554,-0.0025646761101373,-0.1839154439005245,0.2008388022586066,-0.074223393220635
1718278678545580768,-0.0103007393800793,-0.010410715405894,-0.0020941324361715,-0.1853896660546243,0.2013542850277156,-0.0730062628411419
1718278678546812528,-0.0102920508933626,-0.0096054325172867,-0.0015406160078693,-0.1864408534081043,0.2020967411039204,-0.0718025261502546
1718278678546819581,-0.0106232382779899,-0.0088756692216863,-0.0010483656462416,-0.1873678301173015,0.2028570036589823,-0.0701645244408242
1718278678547960578,-0.0108769918197737,-0.0082797708522525,-0.0004452775584455,-0.187815962219411,0.2036404780312956,-0.0684751791271986
1718278678549173280,-0.0110757421861298,-0.0075298618434315,-0.0002168816718756,-0.1888243909510057,0.2038184496862332,-0.0674425013176159
1718278678550423680,-0.011295254994821,-0.0068880403075568,0.000384153467532,-0.1890981487034673,0.2045993876793493,-0.0665358742451863
1718278678551591249,-0.0115629037817716,-0.0063193482959098,0.0007806610475957,-0.1896255277599017,0.2046657573402523,-0.0654720434514528
1718278678552812470,-0.0119591067647833,-0.0057296053160017,0.0012312995048364,-0.1901131100505289,0.2042849707101426,-0.0644721034192986
1718278678552868928,-0.0122745066919906,-0.0052601703778977,0.0017568060507089,-0.1900938449260326,0.2043068709442387,-0.0627104599394661
1718278678554011706,-0.0124238176535712,-0.0049743685506459,0.0024003611024172,-0.1894528987863654,0.2045853592328809,-0.0607733911755705
1718278678555305197,-0.0127878221062254,-0.0049087310005836,0.003004555280872,-0.188544948675253,0.2045018453234768,-0.0592700727036858
1718278678556607301,-0.0129073261751032,-0.0048108982484728,0.0037094536072887,-0.1876569159567939,0.2047220558251615,-0.0584766806517063
1718278678557935148,-0.0133869589003163,-0.0045144035477506,0.0043329181205314,-0.1871548186107536,0.2040021644177553,-0.0573652155210375
1718278678557950914,-0.0138714502545747,-0.0041842953063462,0.0054952231176687,-0.1860319049060024,0.2028825582653899,-0.0565688364354203
1718278678559460828,-0.0141693420945184,-0.004071025925778,0.0066139602917867,-0.184304631737213,0.202067944107236,-0.0562211638391828
1718278678560374762,-0.0144835439168322,-0.0039618665007,0.0072127719356449,-0.1831405476748769,0.2009159764497842,-0.0564873681113247
1718278678561625992,-0.014873704383414,-0.0041652036873737,0.0078132126741564,-0.1813287272842381,0.1996539123248449,-0.0567294510873116
1718278678562916279,-0.0151764268290955,-0.0043574442477053,0.0084497154467981,-0.1794519417757886,0.1982944259389507,-0.0568077783338436
1718278678562946642,-0.0154191547126492,-0.0046145900926581,0.0091130604039074,-0.1774717817790154,0.1975224230326027,-0.0567504623797828
1718278678564194098,-0.0154955915103565,-0.0047349133258632,0.0095711443574391,-0.1762316456668509,0.1966611073513943,-0.0562365414297567
1718278678565433980,-0.0153194853420861,-0.0048307076457346,0.010067837580449,-0.174812568285041,0.1956969047918016,-0.0568600698831557
1718278678566624715,-0.0151567818045167,-0.0051513509329003,0.0105876757903925,-0.1729342447198039,0.1948071125537028,-0.0570251846032364
1718278678567910734,-0.0148536771044438,-0.0057191411951478,0.011256991778235,-0.1700605708648582,0.1938695799641206,-0.0580367806072045
1718278678567997187,-0.0144927872654654,-0.0063705882371701,0.0118743575508731,-0.1672529701583961,0.1932637086784426,-0.0586224835153284
1718278678569112987,-0.0141866262404556,-0.0069607860209319,0.0124432712986963,-0.1647606694705076,0.1925242340555599,-0.0598275882840098
1718278678570328896,-0.0140022244618753,-0.0077681602658715,0.0131744425728596,-0.1616419261456247,0.1917618226828479,-0.0604938520790309
1718278678574213425,-0.01358840356176,-0.0083245338290068,0.0133526224826955,-0.1596893472644917,0.1910158306499952,-0.0617784531248657
1718278678574220591,-0.013438234502763,-0.00909916542234,0.0139148534738168,-0.1565717309429047,0.1902398586504787,-0.062667158006348
1718278678575545314,-0.0135295954102857,-0.0098424571655278,0.0142340876521744,-0.1541556061534695,0.1894094016255646,-0.0634163835843323
1718278678575610565,-0.0138999597202739,-0.0108212350158478,0.0143517339279396,-0.1514086045348626,0.1887957462054205,-0.0638975675525266
1718278678575622634,-0.0143030803940656,-0.0117490325276964,0.014358824763577,-0.1492957203839801,0.188142130569498,-0.064413942048722
1718278678576763664,-0.0148366635907178,-0.0125810896451209,0.0143114296656093,-0.1476792474811006,0.1875406448580337,-0.0644624115717628
1718278678578002205,-0.0152142914557257,-0.0132958469346069,0.0138107846433318,-0.1469083349423918,0.1868989994597499,-0.0650425233777381
1718278678578026822,-0.0155310868754647,-0.0143531886503243,0.0133869457220178,-0.1454105052554322,0.1859268866526474,-0.0660214717537061
1718278678579230536,-0.01596118732749,-0.0154101518102866,0.0126235074818518,-0.1447047451288665,0.1845825497726944,-0.0668715718208089
1718278678580446450,-0.0163313872690265,-0.0163557065423836,0.0120206557695395,-0.1438919461118137,0.1830895202569413,-0.0677996980964819
1718278678581640163,-0.0168358403883224,-0.0171579949197666,0.0109361814879948,-0.1441907626777509,0.1815844428293418,-0.0681736477016461
1718278678582853772,-0.0169286675924696,-0.0177389302607544,0.0094878320593502,-0.145425001868869,0.1806288719689349,-0.0686740331957423
