%time,field.force.x,field.force.y,field.force.z,field.torque.x,field.torque.y,field.torque.z
1718275665380196238,0.3775348689999896,0.6504597469999782,10.867054240999936,-0.0816552350000013,-0.0029824839999993,-0.004127138
1718275665381464860,0.3787978689999901,0.676300746999978,10.843731240999936,-0.0886002350000013,-0.0010944839999993,-0.003230138
1718275665381481772,0.3802068689999899,0.731636746999978,10.835342240999935,-0.0965052350000013,0.0012645160000006,-0.002333138
1718275665382658028,0.3860378689999899,0.7749607469999777,10.840781240999936,-0.1054342350000013,0.0033395160000006,-0.002111138
1718275665383895213,0.4004178689999898,0.8084457469999781,10.829670240999938,-0.1140552350000013,0.0063345160000006,-0.002814138
1718275665385239949,0.4187658689999898,0.8440167469999773,10.826860240999938,-0.1211202350000013,0.0098985160000006,-0.003370138
1718275665386379146,0.4456628689999899,0.8698917469999776,10.855308240999936,-0.1289732350000013,0.0140035160000006,-0.003261138
1718275665387577716,0.45556786899999,0.9006547469999777,10.884093240999936,-0.1367392350000013,0.0175515160000006,-0.002887138
1718275665387599429,0.4608228689999893,0.9335917469999782,10.92873064099994,-0.1429332350000013,0.0189945160000006,-0.002381138
1718275665388813871,0.4529288689999901,0.944086746999978,10.964508640999936,-0.1465172350000013,0.0184705160000006,-0.003070138
1718275665390039530,0.45735686899999,0.9418607469999772,11.008837640999936,-0.1478592350000013,0.0184265160000006,-0.003610138
1718275665391235004,0.4616968689999894,0.9344977469999776,11.038489640999936,-0.1481672350000013,0.0197725160000006,-0.003999138
1718275665392537828,0.4407528689999895,0.9322437469999776,11.091451690999936,-0.1496872250000013,0.0206705160000006,-0.003732138
1718275665392556511,0.4070988689999897,0.9277163469999774,11.152792640999936,-0.1518752250000013,0.0200865160000006,-0.002811138
1718275665393692828,0.3690558689999898,0.935356346999978,11.213443640999936,-0.1534682250000013,0.0180245160000006,-0.002428138
1718275665394916360,0.3437338689999901,0.9207373469999778,11.264934640999938,-0.1540272250000013,0.0178535160000006,-0.00322614
1718275665396145411,0.30991286899999,0.901079346999978,11.294612640999937,-0.1539802250000013,0.0189245160000006,-0.003480138
1718275665397479552,0.2802308689999894,0.8790503169999782,11.340506240999936,-0.1541892250000013,0.0185585160000006,-0.00307914
1718275665399154200,0.2335508689999899,0.8669183469999782,11.349808240999938,-0.1544812250000013,0.0167455160000006,-0.001759138
1718275665399170478,0.2036978689999896,0.8594753469999779,11.358649240999936,-0.1538642200000013,0.0154735160000006,-0.000963138
1718275665400361503,0.1993058689999893,0.8518193469999782,11.350800240999936,-0.1524102250000013,0.0164135160000006,-0.001346138
1718275665401562316,0.1951878689999897,0.849117346999978,11.310961640999938,-0.1513372250000013,0.0193715160000006,-0.002651138
1718275665401571202,0.2082818689999899,0.8566383469999777,11.287898640999938,-0.1525892250000013,0.0222405160000006,-0.002643138
1718275665402774055,0.2302398689999897,0.8890733469999781,11.250538640999936,-0.1561992250000013,0.0259904860000006,-0.001713138
1718275665403998857,0.2694598689999899,0.941256346999978,11.243014640999936,-0.1613502200000013,0.0320374860000006,-0.000908138
1718275665405200419,0.3176788689999901,0.9937673469999776,11.19454364099994,-0.1680472200000013,0.0401364860000006,-0.001700138
1718275665406503850,0.37445386899999,1.0413573469999775,11.175980640999938,-0.1750312200000013,0.0495275160000006,-0.002751138
1718275665407604522,0.4144088689999896,1.0891203469999775,11.15073369099994,-0.1828682200000013,0.0588755160000006,-0.00300814
1718275665407612805,0.4414748689999895,1.124699346999978,11.134510690999935,-0.1906132200000013,0.0659944860000006,-0.00234714
1718275665408858564,0.4556368689999893,1.1626883469999776,11.141922685999935,-0.1980872200000013,0.0713714860000006,-0.001161138
1718275665410036824,0.4652178689999895,1.1734613469999775,11.139953690999937,-0.2034602250000013,0.0746844860000006,-0.001442138
1718275665411250193,0.4659608689999895,1.169167746999978,11.138511640999935,-0.2068042250000013,0.0773554860000006,-0.001713138
1718275665411972397,0.4493138689999895,1.1497427469999777,11.137027640999936,-0.2076652250000013,0.0787304860000006,-0.00237514
1718275665413644848,0.40684086899999,1.130158746999978,11.145230640999936,-0.2073912350000013,0.0772544860000006,-0.00184714
1718275665413657085,0.3558378689999895,1.115552746999978,11.176484640999936,-0.2074802350000013,0.0743604860000006,-0.00106314
1718275665414915918,0.32165286899999,1.110562746999978,11.191902640999936,-0.2066022350000013,0.0714974860000006,-0.00094014
1718275665416043923,0.3043118689999902,1.100414746999978,11.237612640999936,-0.2049312350000013,0.0701954860000006,-0.00106514
1718275665417262502,0.2953108689999893,1.0802867469999775,11.268898640999936,-0.2022992350000013,0.0694294860000006,-0.00091814
1718275665418542161,0.2775598689999895,1.0501227469999777,11.300326240999937,-0.1982362350000013,0.0676384860000006,-0.00090014
1718275665419713574,0.2680548689999895,1.0296167469999775,11.355630240999938,-0.1936302350000013,0.0649684860000006,-0.00035114
1718275665419726244,0.2630338689999896,1.0019427469999775,11.403069240999937,-0.1899972350000013,0.0635234860000006,0.0001988599999999
1718275665420911751,0.2665818689999901,0.9790777469999778,11.46612624099994,-0.1865382350000013,0.0643634860000006,0.0010298599999999
1718275665422141078,0.2744218689999894,0.943867746999978,11.513086240999936,-0.1825752350000013,0.0665564860000006,0.0012068599999999
1718275665423335368,0.2779538689999897,0.9012397469999778,11.56584624099994,-0.1780302350000013,0.0679294860000006,0.0001838599999999
1718275665428000353,0.2855478689999898,0.8657927469999778,11.612557240999935,-0.1727512350000013,0.0693594860000006,-3.514000000000121e-05
1718275665429745768,0.30090786899999,0.789640746999978,11.686124240999936,-0.1616072350000013,0.0786584860000006,0.0013028599999999
1718275665429755030,0.31347086899999,0.777177746999978,11.687331240999937,-0.1606822350000013,0.0796484860000006,0.0018468619999999
1718275665429762517,0.32630886899999,0.774778746999978,11.687698240999936,-0.1611732350000013,0.0810114860000006,0.0021178619999999
1718275665429780746,0.3344678689999893,0.7594777469999778,11.694830240999938,-0.1585102350000013,0.0830634900000006,0.0013508619999999
1718275665429791547,0.3338388689999895,0.7391247469999774,11.664596240999936,-0.1543652350000013,0.0828214860000006,0.0007088619999999
1718275665430762701,0.3246388689999896,0.7188707469999773,11.635535640999938,-0.1504272350000013,0.0807904860000006,0.0008508619999999
1718275665430776451,0.3112938689999898,0.725791746999978,11.607193640999938,-0.1476972350000013,0.0776434860000006,0.0016468619999999
1718275665432200016,0.2857158689999899,0.7308467469999778,11.577116640999938,-0.1476002350000013,0.0739114860000006,0.0018868619999999
1718275665433360407,0.2689568689999894,0.7608297469999781,11.536618640999937,-0.1494092350000013,0.0690454860000006,0.0006428619999999
1718275665434610375,0.2564628689999894,0.7834747469999779,11.517611640999936,-0.1513072350000013,0.0641394900000006,-0.001398138
1718275665435937092,0.2436438589999894,0.7911557469999779,11.471253690999935,-0.1516402350000013,0.0589914900000006,-0.00183814
1718275665435948022,0.24333786899999,0.7962347469999775,11.427521640999936,-0.1513722250000013,0.0540614860000006,-0.000810138
1718275665436787734,0.2259248689999895,0.8061167469999779,11.39185564099994,-0.1505802250000013,0.0480684860000006,0.0004838619999999
1718275665438009300,0.1960748689999895,0.8089237469999777,11.368357640999935,-0.1509402250000013,0.0416184860000006,0.0001708619999999
1718275665439190330,0.1663508689999897,0.8165217469999775,11.358559640999935,-0.1512352250000013,0.0371824860000006,-0.001058138
1718275665441437911,0.14491186899999,0.7943367469999774,11.341727640999936,-0.1497062250000013,0.0346934860000006,-0.002262138
1718275665441446992,0.1358578689999894,0.7693547469999776,11.334732640999936,-0.1466992250000013,0.0326714860000006,-0.002391138
1718275665442672439,0.12663386899999,0.7491777469999773,11.328966640999935,-0.1431982250000013,0.0298834860000006,-0.001855138
1718275665442700326,0.1387798689999898,0.7511567469999774,11.331288640999938,-0.1407842250000013,0.0285754860000006,-0.000917138
1718275665443901015,0.1641378689999894,0.7558397469999774,11.354815640999938,-0.1403282250000013,0.0305254860000006,-0.000635138
1718275665445006717,0.1938938689999895,0.7579527469999778,11.376910640999938,-0.1396862250000013,0.0350774860000006,-0.001264138
1718275665446183723,0.2278648689999901,0.762462346999978,11.414446690999934,-0.1390202200000013,0.0400774860000006,-0.001756138
1718275665447340291,0.2531408689999893,0.7570003469999776,11.460227690999934,-0.1373622200000013,0.0443064860000006,-0.001980138
1718275665448635588,0.2738918689999894,0.7488923469999776,11.477704640999937,-0.1344212250000013,0.0475745160000006,-0.001140138
1718275665448646167,0.2986838689999896,0.7479243469999782,11.525815640999935,-0.1307382250000013,0.0506485160000006,-0.000293138
1718275665449841798,0.3277628689999898,0.7347613179999779,11.557705640999938,-0.1269872250000013,0.0535645160000006,-0.000114138
1718275665451079486,0.3526128689999898,0.7190633469999779,11.581231640999938,-0.1228192250000013,0.0570395160000006,-0.000461138
1718275665452283428,0.3605318689999899,0.6984103469999778,11.604894640999936,-0.1184642250000013,0.0611065160000006,-0.000669138
1718275665453595033,0.3640158689999894,0.6751783469999774,11.621617640999936,-0.1132572350000013,0.0642145160000006,-0.000612138
1718275665453619824,0.3628858689999901,0.6493313469999777,11.632180640999938,-0.1067612350000013,0.0648485160000006,0.0001008619999999
1718275665454769789,0.3827098689999898,0.6405407469999779,11.613016240999938,-0.0994422350000013,0.0638085160000006,0.0009398619999999
1718275665456083986,0.4110668689999896,0.6170977469999782,11.585027240999937,-0.0920932350000013,0.0628125160000006,0.0009768619999999
1718275665457271814,0.4311078689999897,0.6035567469999774,11.548166240999937,-0.0852672350000013,0.0620385160000006,0.0003458619999999
1718275665458540704,0.4471448689999898,0.5977457469999781,11.533508240999936,-0.0803152350000013,0.0601775160000006,-0.000300138
1718275665459800057,0.4466668689999901,0.5973227469999773,11.503283240999938,-0.0776882350000013,0.0584025160000006,-0.000697138
1718275665459810603,0.4464778689999896,0.6070127469999782,11.495511240999935,-0.0769132350000013,0.0569995160000006,-0.000967138
1718275665461060562,0.4506258689999901,0.6095207469999777,11.481230240999938,-0.0768952350000013,0.0556815160000006,-0.000445138
1718275665462264024,0.45059786899999,0.6048927469999781,11.443982240999938,-0.0774002350000013,0.0529145160000006,5.986199999999896e-05
1718275665464103487,0.4335548689999897,0.6003017469999778,11.421168240999938,-0.0778712350000013,0.0485885160000006,0.0001588619999999
1718275665465452069,0.4081238689999895,0.6006507469999776,11.405567240999938,-0.0787062350000013,0.0446155160000006,0.0001258619999999
1718275665465463833,0.3787858689999894,0.6037047469999781,11.403603240999937,-0.0810322350000013,0.0415805160000006,-0.00057414
1718275665466721826,0.34534986899999,0.6191737469999775,11.394819240999938,-0.0843052350000013,0.0387105160000006,-0.00061214
1718275665466736987,0.3203468689999898,0.6395997469999777,11.393436240999936,-0.0877502350000013,0.0348475160000006,-0.00079314
1718275665467815456,0.2953728689999897,0.660115746999978,11.369853240999936,-0.0914212350000013,0.0306065160000006,-0.000580138
1718275665469114330,0.2870508689999896,0.6851107469999778,11.354306240999938,-0.0933062350000013,0.0271545160000006,-0.00048214
1718275665470274851,0.2702568689999893,0.7003107469999779,11.347316240999936,-0.0952962350000013,0.0240695160000006,0.0002828619999999
1718275665471485919,0.2493498689999895,0.7081187469999781,11.338393240999938,-0.0971442350000013,0.0221835160000006,-0.00014114
1718275665472730902,0.2369468689999895,0.715861746999978,11.34470824099994,-0.0990032350000013,0.0214555160000006,-0.00055514
1718275665472764956,0.2329818689999898,0.7136267469999779,11.336530240999938,-0.1001212350000013,0.0223985160000006,-0.00069014
1718275665473907640,0.2414168689999896,0.7036367469999777,11.345391240999938,-0.0995982350000013,0.0244485160000006,-7.13800000000115e-06
1718275665475408170,0.2583138689999895,0.6935477469999779,11.339250240999936,-0.0986532350000013,0.0274025160000006,0.0006818619999999
1718275665476722785,0.2752758689999895,0.683414746999978,11.340053240999938,-0.0977052350000013,0.0313665160000006,0.0009798599999999
1718275665476752776,0.3008688689999901,0.6782397469999777,11.348115240999938,-0.0973702350000013,0.0366105160000006,0.0011508599999999
1718275665478157476,0.3180358689999899,0.6780257469999773,11.347630240999935,-0.0971782350000013,0.0413245160000006,0.0007828599999999
1718275665479157607,0.3351448689999898,0.672954746999978,11.347982240999936,-0.0970482350000013,0.0452855160000006,0.0009428599999999
1718275665480412986,0.3519008689999898,0.6823247469999781,11.341211240999936,-0.0954282350000013,0.0474555160000006,0.0011008599999999
1718275665481755083,0.3642498689999894,0.6941617469999777,11.311999640999936,-0.0933372350000013,0.0474005160000006,0.0013788599999999
1718275665481778303,0.37228586899999,0.7035557469999781,11.282602640999936,-0.0910482350000013,0.0462655160000006,0.0015168599999999
1718275665482901296,0.3676898689999894,0.7057417469999776,11.252956640999937,-0.0892642350000013,0.0445415160000006,0.0016488619999999
1718275665484060649,0.3463008689999897,0.7032847469999775,11.221846640999935,-0.0883832350000013,0.0415225160000006,0.0011008619999999
1718275665485268555,0.3125378689999899,0.6988087469999777,11.167123640999938,-0.0892652350000013,0.0379155160000006,0.0004018619999999
1718275665486504163,0.2831178689999896,0.6968937469999773,11.151578640999936,-0.0912182350000013,0.0351355160000006,0.0006368619999999
1718275665487717834,0.2582558689999901,0.6976923469999776,11.105518640999938,-0.0944702350000013,0.0335695160000006,0.0010008619999999
1718275665487737779,0.2505058689999901,0.7035573469999779,11.10455064099994,-0.0989992350000013,0.0325505160000006,0.0012298619999999
1718275665488982436,0.2641378689999893,0.7267243469999781,11.065149640999936,-0.1042392350000013,0.0322635160000006,0.0011878619999999
1718275665490227742,0.2779468689999898,0.7645323469999774,11.025035640999938,-0.1097402350000013,0.0342305160000006,0.0007628599999999
1718275665491435231,0.3044528689999899,0.7949333469999778,11.000220690999935,-0.1151292350000013,0.0369335160000006,0.0003438599999999
1718275665492816512,0.3139508689999902,0.8301383469999779,10.983399640999938,-0.1202132250000013,0.0397095160000006,0.0001948599999999
1718275665492824296,0.3233258689999895,0.8653353469999778,10.967290640999936,-0.1250782250000013,0.0413475160000006,0.0004388619999999
1718275665494029494,0.3453498689999898,0.8980543469999778,10.958704640999937,-0.1297732250000013,0.0427055160000006,0.0005488599999999
1718275665495295353,0.3592028689999899,0.9211743469999776,10.957059640999937,-0.1356662250000013,0.0455745160000006,0.0005288599999999
1718275665496546921,0.3776478689999897,0.9421733469999778,10.962283640999935,-0.1433462250000013,0.0494115160000006,0.0003698599999999
1718275665497777339,0.3962448689999899,0.968147346999978,10.997423640999935,-0.1518392200000013,0.0542545160000006,8.185999999999892e-05
1718275665497785326,0.4321268689999895,1.0141317469999778,11.032486640999936,-0.1625362200000013,0.0592505160000006,4.5859999999998914e-05
1718275665499294741,0.4721798689999898,1.0673037469999778,11.091094240999938,-0.1729322200000013,0.0653175160000006,0.0004208599999999
1718275665500200360,0.5035998689999894,1.095694746999978,11.135285240999938,-0.1818592250000013,0.0725235160000006,0.0010778599999999
1718275665501555953,0.5218758689999896,1.116291746999978,11.164311240999936,-0.1882232200000013,0.0786235160000006,0.0013448599999999
1718275665501567881,0.5352758689999895,1.1387767469999774,11.193814240999938,-0.1914822200000013,0.0824895160000006,0.0013528599999999
1718275665502777061,0.5397188689999894,1.151108746999978,11.223085240999938,-0.1924322250000013,0.0838135160000006,0.0008268599999999
1718275665503997029,0.5438568689999894,1.1632277469999777,11.20854324099994,-0.1918582200000013,0.0839945160000006,0.0010968599999999
1718275665505211333,0.5520368689999899,1.1629927469999777,11.195094240999936,-0.1905632200000013,0.0833795160000006,0.0018978599999999
1718275665506400485,0.5515968689999902,1.1576817469999778,11.196583240999937,-0.1884332250000013,0.0826185160000006,0.0024388599999999
1718275665507625734,0.5680438689999902,1.1572083469999777,11.189252240999936,-0.1858322250000013,0.0813915160000006,0.0020478599999999
1718275665507653208,0.57196886899999,1.144733346999978,11.165325240999938,-0.1840122250000013,0.0794585160000006,0.0009788599999999
1718275665508836307,0.5758608689999901,1.1371223469999776,11.165205240999937,-0.1823532250000013,0.0778965160000006,0.0005788599999999
1718275665510063952,0.5714128689999893,1.119880746999978,11.158263240999938,-0.1814572250000013,0.0765785160000006,0.0008398599999999
1718275665511339296,0.5586198689999896,1.1027977469999777,11.166188240999936,-0.1814212200000013,0.0751155160000006,0.0010968599999999
1718275665512594452,0.5500768689999896,1.078444746999978,11.158924240999935,-0.1814832250000013,0.0731065160000006,0.0013468599999999
1718275665513875119,0.5458188689999898,1.046710746999978,11.158024240999938,-0.1814162250000013,0.0716875160000006,0.0008028599999999
1718275665513888652,0.5461858689999897,1.0226487469999777,11.149643240999938,-0.1832422250000013,0.0718545160000006,0.0006558599999999
1718275665515857539,0.5425958689999901,1.0257267469999778,11.148214240999936,-0.1864912350000013,0.0730545160000006,0.0003758599999999
1718275665515876382,0.5434748689999898,1.0561937469999778,11.139712240999938,-0.1918382350000013,0.0727855160000006,0.0007378619999999
1718275665517042230,0.5443108689999897,1.101411746999978,11.122985240999938,-0.1972282250000013,0.0711105160000006,0.0006908619999999
1718275665518242935,0.5495738689999901,1.154087746999978,11.113009240999936,-0.2034112250000013,0.0703885160000006,0.0002458619999999
1718275665519465052,0.5592998689999902,1.214202746999978,11.125541240999937,-0.2106042250000013,0.0714995160000006,-0.000190138
1718275665520783484,0.5609878689999901,1.2748527469999775,11.129064240999938,-0.2201922250000013,0.0720955160000006,-0.001045138
1718275665520797034,0.5542388689999894,1.350423746999978,11.132925240999938,-0.2306882250000013,0.0708875160000006,-0.001519138
1718275665521972612,0.5431418689999898,1.4185617469999778,11.152683240999938,-0.2408252250000013,0.0694835160000006,-0.001591138
1718275665523198471,0.5320038689999899,1.4669077469999778,11.165286240999938,-0.2501042250000013,0.0697435160000006,-0.001515138
1718275665524404358,0.5164108689999898,1.5075767469999777,11.185870240999936,-0.2579292250000013,0.0706885160000006,-0.001423138
1718275665525685193,0.5090458689999899,1.5480977469999777,11.237729240999936,-0.2651072250000013,0.0706415160000006,-0.000932138
1718275665525759554,0.50169986899999,1.5788377469999777,11.258442240999935,-0.2719672250000013,0.0703565160000006,-0.000976138
1718275665530306678,0.4983308689999897,1.6116087469999776,11.28687724099994,-0.2770512200000014,0.0710195160000006,-0.001268138
1718275665531691886,0.4944658689999895,1.619288746999978,11.316600240999938,-0.2791412200000013,0.0720785160000006,-0.001272138
1718275665531739049,0.4729698689999898,1.6215377469999777,11.332201240999934,-0.2779792200000013,0.0701835160000006,-0.001140138
1718275665531756584,0.4635498689999901,1.6160357469999778,11.333533240999936,-0.2740802200000013,0.0649775160000006,-0.001015138
1718275665531770244,0.4581688689999894,1.6028907469999778,11.343480240999938,-0.2689612200000013,0.0607315160000006,-0.000477138
1718275665531781374,0.4528228689999897,1.5552497469999775,11.352573240999938,-0.2629372200000013,0.0588005160000006,-0.000585138
1718275665532810503,0.4390978689999897,1.5124847469999778,11.352534240999937,-0.2568372200000013,0.0574745160000006,-0.00161814
1718275665534296774,0.4081878689999897,1.474539746999978,11.375750240999936,-0.2502072200000013,0.0540735160000006,-0.00239314
1718275665535589360,0.38134186899999,1.4244077469999776,11.370846240999938,-0.2433052250000013,0.0488665160000006,-0.00185214
1718275665535599076,0.3671788689999896,1.381429746999978,11.382591240999936,-0.2361192250000013,0.0458895160000006,-0.00049314
1718275665536833467,0.3576838689999895,1.3313117469999778,11.369926240999936,-0.2301222250000013,0.0455265160000006,7.385999999999894e-05
1718275665538059149,0.3568498689999897,1.2862117469999776,11.378358240999937,-0.2249512250000013,0.0458155160000006,-0.00028914
1718275665539299313,0.3602738689999897,1.263217746999978,11.386731640999937,-0.2201802250000013,0.0456465160000006,-0.00065914
1718275665540603783,0.3678778689999897,1.2425437469999778,11.395487640999937,-0.2149512250000013,0.0461775160000006,-0.00088614
1718275665540611890,0.3797658689999894,1.224348746999978,11.389885640999935,-0.2099212250000013,0.0472835160000006,-0.00058114
1718275665541877542,0.3875158689999894,1.213679746999978,11.384032640999935,-0.2056742200000013,0.0476785160000006,-0.00028414
1718275665543127435,0.3827828689999896,1.210682746999978,11.377034640999938,-0.2028492250000013,0.0470915160000006,-0.00040214
1718275665544388588,0.3864258689999896,1.212633346999978,11.369911640999938,-0.1999782250000013,0.0448805160000006,-0.00066514
1718275665544397493,0.3815928689999894,1.1950863469999775,11.363497640999938,-0.1973302250000013,0.0420405160000006,-0.00040214
1718275665545546808,0.37256486899999,1.1849043469999776,11.349429640999938,-0.1948062250000013,0.0393705160000006,-0.00013814
1718275665546758565,0.3638788689999896,1.1800093469999775,11.341536640999935,-0.1941932250000013,0.0365785160000006,-0.00042014
1718275665547981053,0.3428508689999898,1.1976633469999776,11.341053690999937,-0.1961432250000013,0.0330375160000006,-0.00032214
1718275665549193009,0.3135848689999901,1.225465346999978,11.356018640999936,-0.1999332250000013,0.0289635160000006,0.0002948599999999
1718275665550440778,0.2885658689999896,1.240982346999978,11.363061640999936,-0.2034382250000013,0.0253575160000006,0.0006488619999999
1718275665550449896,0.2593248689999899,1.2539963469999778,11.383813640999938,-0.2067402250000013,0.0219345160000006,7.585999999999899e-05
1718275665551605350,0.2341858689999897,1.264469346999978,11.367310640999936,-0.2092102250000013,0.0179555160000006,-0.00023414
1718275665552794676,0.2002918689999896,1.2747903469999775,11.366845240999936,-0.2107872250000013,0.0123075160000006,-0.00014814
1718275665554004516,0.1703708689999897,1.2923533469999775,11.351531240999936,-0.2114092250000013,0.0045775160000006,-7.01400000000013e-05
1718275665555248303,0.1400688689999898,1.294866316999978,11.352564240999936,-0.2102362250000013,-0.0037754839999993,0.0004148599999999
1718275665556515835,0.10518986899999,1.2845853169999777,11.331142240999936,-0.2063552250000013,-0.0109334839999993,0.0006578599999999
1718275665556546890,0.0744278689999901,1.2519903169999778,11.293688240999936,-0.2009932250000013,-0.0171094839999993,0.0001168599999999
1718275665557718466,0.0394598689999898,1.221883346999978,11.279081240999938,-0.1960292250000013,-0.0232354839999993,-0.00029114
1718275665558965794,0.0130968689999899,1.201671346999978,11.258218240999938,-0.1918432250000013,-0.0282164839999994,0.0002348599999999
1718275665560178045,-0.0085871310000102,1.1744003469999778,11.24440924099994,-0.1895052250000013,-0.0307074839999993,0.0007638599999999
1718275665561688870,-0.0132421310000098,1.1568173469999778,11.230325240999935,-0.1870772250000013,-0.0311474839999993,0.0010418599999999
1718275665561758555,-0.0135751310000106,1.131843346999978,11.215007240999936,-0.1845232250000013,-0.0304934839999993,0.0005288599999999
1718275665562609367,-0.0055021310000106,1.111723346999978,11.208436240999935,-0.1819252250000013,-0.0296994839999993,0.0006818599999999
1718275665563829789,0.0112808689999893,1.091817346999978,11.194001240999938,-0.1804392250000013,-0.0281214839999993,0.0008328599999999
1718275665565131978,0.0240338689999896,1.0842373469999775,11.194874640999938,-0.1798942250000013,-0.0248644839999993,0.0012568599999999
1718275665566824863,0.0411448689999893,1.093962346999978,11.193889640999938,-0.1800222250000013,-0.0224324839999993,0.0006058599999999
1718275665566841917,0.0454178689999899,1.096234346999978,11.184809640999935,-0.1793392250000013,-0.0208474839999993,-0.00044314
1718275665567988619,0.04929986899999,1.083554346999977,11.177474640999936,-0.1770832250000013,-0.0207654839999993,-0.00069514
1718275665569221607,0.0612478689999893,1.0705343469999775,11.172008640999938,-0.1730912250000013,-0.0215544839999993,-0.00014414
1718275665570499978,0.0690118689999893,1.0502233469999775,11.158244640999936,-0.1691812250000013,-0.0225314839999993,5.859999999999459e-06
1718275665570510373,0.0728588689999895,1.0376463469999773,11.157803640999935,-0.1671402250000013,-0.0240894839999993,-0.00065814
1718275665571610882,0.0598188689999896,1.0398733469999777,11.156482640999938,-0.1655502250000013,-0.0265894839999993,-0.00172714
1718275665572838146,0.0552178689999894,1.0176343469999776,11.171425640999937,-0.1640492250000013,-0.0290384839999993,-0.00213314
1718275665574011307,0.0461188689999896,0.9927133469999776,11.172605640999937,-0.1612612250000013,-0.0319434839999993,-0.00186914
1718275665575227156,0.03264286899999,0.9700813469999776,11.181771640999935,-0.1577802250000013,-0.0349284839999993,-0.00146714
1718275665576468506,0.0193058689999896,0.937770346999978,11.197495640999938,-0.1548502250000013,-0.0376454839999993,-0.00159914
1718275665576487433,0.0018108689999897,0.9030713469999778,11.205305690999936,-0.1521622250000013,-0.0401794839999993,-0.00186414
1718275665577931146,-0.0246481310000101,0.8678793469999779,11.222013640999936,-0.1470502250000013,-0.0435044839999993,-0.00171714
1718275665579208400,-0.0517641310000102,0.8075123469999779,11.225663640999937,-0.1382932250000013,-0.0473194839999994,-0.00088714
1718275665580405640,-0.0835691310000099,0.7442167469999779,11.221610640999936,-0.1269282250000013,-0.0520974839999993,-0.00057814
1718275665581658363,-0.1279231310000099,0.6737477469999774,11.216596640999937,-0.1162852250000013,-0.0570834839999993,-0.00067414
1718275665581666058,-0.1761031310000104,0.6305857469999779,11.203153640999936,-0.1077222200000013,-0.0611614839999993,-0.00090914
1718275665582858406,-0.2067881310000102,0.5880127469999775,11.219860240999935,-0.1024732200000013,-0.0640474839999994,-0.00075914
1718275665584075073,-0.2242931310000103,0.5678877469999775,11.205662240999937,-0.0993952200000013,-0.0654664839999993,-0.00061514
1718275665585293453,-0.2160261310000105,0.5577517469999778,11.21414424099994,-0.0979942200000013,-0.0641774839999993,-0.00033214
1718275665586545690,-0.2031291310000106,0.5651287469999778,11.207110240999938,-0.0985872250000013,-0.0619434839999993,7.785999999999904e-05
1718275665586574743,-0.1942221310000099,0.5850507469999779,11.214556240999936,-0.1007782250000013,-0.0599194839999993,0.0003448599999999
1718275665587731347,-0.18098913100001,0.6075397469999778,11.199348240999935,-0.1033892250000013,-0.0579494839999993,0.0007388599999999
1718275665588956606,-0.1720741310000104,0.617671746999978,11.190195240999936,-0.1052552250000013,-0.0564154839999993,6.985999999999928e-05
1718275665590266540,-0.1762021310000102,0.6250267469999775,11.158539240999938,-0.1051612250000013,-0.0558654839999993,-0.00072614
1718275665591559593,-0.1931821310000102,0.6104407469999781,11.13564724099994,-0.1050932250000013,-0.0575304839999993,-0.00073814
1718275665591618467,-0.2188361310000102,0.610577746999978,11.106471240999936,-0.1048382250000013,-0.0616364839999994,3.385999999999927e-05
1718275665592801978,-0.2531021310000103,0.6008977469999779,11.076537240999937,-0.1040262250000013,-0.0675194839999994,0.0002638599999999
1718275665594061835,-0.2748121310000099,0.5935107469999782,11.052846240999935,-0.1023242250000013,-0.0740684839999993,-0.00056914
1718275665595487050,-0.2967501310000102,0.5956397469999779,11.007028240999936,-0.0991942250000013,-0.0806344839999994,-0.00126114
1718275665595516778,-0.3225661310000106,0.5907747469999779,10.975164240999936,-0.0978942250000013,-0.0866264839999993,-0.00235914
1718275665596738919,-0.3565781310000102,0.6057647469999777,10.974766240999935,-0.0985372250000013,-0.0915274839999993,-0.00239314
1718275665598081312,-0.3775221310000103,0.6235167469999777,11.00381824099994,-0.1011372250000013,-0.0951914839999993,-0.00269814
1718275665599121208,-0.3983841310000106,0.6413043469999777,11.032161240999937,-0.1039552250000013,-0.0984744839999993,-0.00339914
1718275665600366042,-0.3981291310000105,0.6515543469999777,11.030560240999936,-0.1058052250000013,-0.1003694839999993,-0.00409014
1718275665601620897,-0.4233891310000099,0.6469023469999775,11.068154240999936,-0.1071312250000013,-0.1010574839999993,-0.00396614
1718275665601631336,-0.4530171310000107,0.6445913469999773,11.084006240999935,-0.1077682250000013,-0.1020784839999993,-0.00330814
1718275665603165978,-0.49974413100001,0.6617483469999776,11.152136240999935,-0.1081312250000013,-0.1041804839999993,-0.00318114
1718275665604440493,-0.54232513100001,0.6715103469999777,11.188866240999936,-0.1077142250000013,-0.1073344839999993,-0.00385714
1718275665605850462,-0.5724361310000106,0.6490503469999779,11.210842240999936,-0.1052922250000013,-0.1092224839999993,-0.00464914
1718275665605865604,-0.5900631310000102,0.6090193469999782,11.241422240999936,-0.1011242250000013,-0.1091074839999993,-0.00515114
1718275665607104190,-0.60332613100001,0.5764597469999775,11.25854124099994,-0.0977612250000013,-0.1080434839999993,-0.00445414
1718275665608327378,-0.6078291310000099,0.5590027469999778,11.282736240999936,-0.0964252250000013,-0.1075984839999993,-0.00377514
1718275665609686436,-0.5992501310000107,0.554061746999978,11.314500240999935,-0.0969362200000013,-0.1051744839999993,-0.00282814
1718275665609696285,-0.5816941310000099,0.5492397469999781,11.344624240999936,-0.0987742200000013,-0.0983034839999993,-0.00265914
1718275665611037035,-0.5467331310000105,0.5299677469999781,11.373104240999938,-0.1021272250000013,-0.0885834839999993,-0.00328314
1718275665612291240,-0.51587813100001,0.5230697469999779,11.401137240999937,-0.1062022250000013,-0.0788264839999993,-0.00404214
1718275665613546323,-0.4767771310000104,0.535831746999978,11.416440240999938,-0.1102852250000013,-0.0715974839999994,-0.00335614
1718275665613556000,-0.4333601310000101,0.5560737469999777,11.417071240999936,-0.1149482350000013,-0.0645554839999994,-0.00227714
1718275665614738825,-0.3940411310000098,0.5739377469999775,11.417312240999935,-0.1200702350000013,-0.0566974839999993,-0.00132814
1718275665616017058,-0.3462981310000099,0.606505746999978,11.408807240999936,-0.1250292350000013,-0.0499724839999994,-0.00118514
1718275665617930794,-0.3195911310000099,0.6467507469999776,11.375813240999936,-0.1309592350000013,-0.0456384839999993,-0.00186314
1718275665617939610,-0.2844731310000102,0.7017767469999778,11.366181240999936,-0.1373822350000013,-0.0425634839999993,-0.00215214
1718275665619180325,-0.26196713100001,0.7545297469999777,11.364857240999935,-0.1446912250000013,-0.0398334839999993,-0.00178214
1718275665620393661,-0.2310321310000098,0.826863746999978,11.363406240999938,-0.1519992250000013,-0.0376094839999993,-0.00154814
1718275665621747261,-0.2052351310000099,0.8467877469999779,11.347039240999935,-0.1537792250000013,-0.0365494839999993,-0.00208714
1718275665621756045,-0.1913601310000106,0.8995697469999777,11.314207240999938,-0.1604172250000013,-0.0366154839999993,-0.00253414
1718275665622951006,-0.1723231310000099,0.975530746999978,11.317654240999936,-0.1729272250000013,-0.0369924839999993,-0.00301814
1718275665624276264,-0.1710251310000103,1.006304746999978,11.31679024099994,-0.1802462250000013,-0.0351094839999993,-0.00225414
1718275665625690048,-0.1655311310000099,1.044370746999978,11.338128240999936,-0.1874812250000013,-0.0332884839999993,-0.00188814
1718275665625704946,-0.1516931310000099,1.0872517469999776,11.343705240999938,-0.1940132250000013,-0.0324614839999993,-0.00205814
1718275665626857862,-0.1340341310000099,1.1173047469999775,11.350308240999937,-0.1978522250000013,-0.0305464839999993,-0.00207014
1718275665629020731,-0.09119213100001,1.1175647469999777,11.358228240999937,-0.1998962250000013,-0.0266424839999993,-0.00166214
1718275665632706960,-0.0526341310000103,1.1151547469999776,11.342792240999938,-0.2008692250000013,-0.0215504839999993,-0.00177114
1718275665632718556,-0.0183721310000105,1.1347757469999775,11.350084240999935,-0.2020042250000013,-0.0171914839999993,-0.00188214
1718275665634123219,0.0286028689999896,1.1569437469999777,11.365156240999935,-0.2035702250000013,-0.0134964839999993,-0.00186814
1718275665634179220,0.0756878689999893,1.179121746999978,11.365613240999938,-0.2053602250000013,-0.0084124839999993,-0.00144914
1718275665634190515,0.13537486899999,1.203528746999978,11.359043240999938,-0.2062672200000013,-0.0022294839999993,-0.00088414
1718275665634202325,0.1823668689999901,1.2205077469999774,11.358788640999938,-0.2067982250000013,0.0043715160000006,-0.00111114
1718275665635055685,0.21249386899999,1.2277757469999775,11.358090640999936,-0.2076352250000013,0.0108165160000006,-0.00147214
1718275665635960331,0.21683386899999,1.2450307469999775,11.327847640999938,-0.2081002250000013,0.0108715160000006,-0.00134414
1718275665637203086,0.2682498689999897,1.244538746999978,11.359723640999938,-0.2084062250000013,0.0237455160000006,-0.00046014
1718275665638439779,0.2642878689999897,1.262019746999978,11.343642640999938,-0.2099482250000013,0.0232785160000006,-0.00074014
1718275665639636138,0.2814018689999895,1.2666397469999775,11.330988690999936,-0.2097092250000013,0.0289905160000006,0.0007638599999999
1718275665640894641,0.3146238689999897,1.265392346999978,11.294859640999938,-0.2042962250000013,0.0337265160000006,0.0008288599999999
1718275665640903600,0.3274588689999896,1.2826573469999778,11.272843640999938,-0.2049952250000013,0.0343075160000006,0.0013588599999999
1718275665642140912,0.3225638689999898,1.2793993469999776,11.234641640999936,-0.2006372250000013,0.0338435160000006,0.0004508599999999
1718275665643317837,0.3225638689999898,1.2793993469999776,11.234641640999936,-0.2006372250000013,0.0338435160000006,0.0004508599999999
1718275665644603471,0.3562428689999896,1.3434083469999778,11.204806640999935,-0.2014702350000013,0.0281745160000006,0.0006708599999999
1718275665644613490,0.3562428689999896,1.3434083469999778,11.204806640999935,-0.2014702350000013,0.0281745160000006,0.0006708599999999
1718275665645762461,0.35168186899999,1.361129346999978,11.179517640999938,-0.2021292350000013,0.0176125160000006,-0.00087214
1718275665646991309,0.36053586899999,1.3862933469999776,11.155584240999938,-0.2049182350000013,0.0152195160000006,-0.00117514
1718275665648219553,0.39888186899999,1.4035257469999776,11.155806240999937,-0.2058742350000013,0.0173825160000006,-0.00103614
1718275665649454662,0.3865028689999896,1.4213167469999777,11.162709240999936,-0.2087132350000013,0.0147505160000006,-0.00093814
1718275665650757605,0.3784288689999895,1.4367597469999778,11.169929240999936,-0.2120292350000013,0.0120735160000007,-0.00057814
1718275665650772346,0.3446848689999899,1.432372746999978,11.176336240999936,-0.2137792350000013,0.0082135160000006,-0.00087914
1718275665651903283,0.3064308689999895,1.4300997469999777,11.190346240999936,-0.2139582350000013,0.0042685160000006,-0.00143614
1718275665653145649,0.28480186899999,1.432354746999978,11.174497240999935,-0.2121382350000013,0.0002305160000006,-0.00211614
1718275665654348285,0.2545898689999895,1.4346057469999778,11.175065240999938,-0.2103062350000013,-0.0047164839999993,-0.00200214
1718275665655662871,0.2330868689999894,1.441959746999978,11.183341240999937,-0.2097442350000013,-0.0087604839999993,-0.00162414
1718275665655675941,0.2075148689999897,1.4469797469999777,11.198113240999938,-0.2098582350000013,-0.0121144839999993,-0.00177814
1718275665656896499,0.1777138689999899,1.4593937469999778,11.205237240999937,-0.2100972350000013,-0.0160554839999993,-0.00193514
1718275665658055188,0.1562768689999893,1.4716987469999778,11.181665240999935,-0.2094772350000013,-0.0203554839999993,-0.00249314
1718275665659277432,0.13056786899999,1.4668197469999775,11.181897240999938,-0.2088352350000013,-0.0242034839999993,-0.00238014
1718275665660494386,0.1090768689999897,1.4693457469999778,11.160635240999936,-0.2083392350000013,-0.0284934839999993,-0.00147514
1718275665661907611,0.0876758689999901,1.4620827469999775,11.161821240999936,-0.2081752350000013,-0.0316334839999993,-0.00069514
1718275665661913000,0.0665448689999901,1.4647047469999777,11.184427240999938,-0.2089842350000013,-0.0328884839999993,-0.00057214
1718275665662994937,0.0540088689999893,1.462472746999978,11.18321324099994,-0.2098652350000013,-0.0334824839999993,-0.00111414
1718275665664268425,0.0539938689999894,1.4820967469999775,11.167203640999938,-0.2098492350000013,-0.0343894839999993,-0.00165214
1718275665665442386,0.0580558689999894,1.494306746999978,11.160840640999938,-0.2094942350000013,-0.0358474839999993,-0.00099514
1718275665666760388,0.07055986899999,1.521180746999978,11.155184640999936,-0.2092002350000013,-0.0370524839999994,6.285999999999878e-05
1718275665666771499,0.0916948689999896,1.5482087469999777,11.163867640999936,-0.2097912350000013,-0.0378524839999993,0.0007198599999999
1718275665668463853,0.1086348689999894,1.5482017469999776,11.185478685999938,-0.2098122350000013,-0.0380584839999993,-7.914000000000098e-05
1718275665669843986,0.1211608689999896,1.5259787469999777,11.214298640999935,-0.2087722350000013,-0.0386924839999993,-0.00127514
1718275665669855504,0.1122948689999894,1.4962827469999778,11.214184640999935,-0.2066982350000013,-0.0404494839999993,-0.00167414
1718275665670958783,0.11153386899999,1.4517287469999778,11.24669264099994,-0.2037192350000013,-0.0439414839999993,-0.00088014
1718275665672188676,0.0935838689999892,1.4119437469999778,11.248856240999936,-0.1995602350000013,-0.0493784839999993,-0.00022614
1718275665673344130,0.0584528689999894,1.3622387469999775,11.242166240999936,-0.1941722350000013,-0.0571214839999994,-0.00051014
1718275665674748730,0.0317618689999896,1.3174127469999777,11.249889240999938,-0.1887352350000013,-0.0652274839999993,-0.00132714
1718275665675811713,-0.0030361310000104,1.272635746999978,11.249681240999935,-0.1841622350000013,-0.0696924839999994,-0.00212614
1718275665675819175,-0.0290601310000102,1.2428837469999785,11.272369240999936,-0.1816172350000013,-0.0735164839999993,-0.00253214
1718275665677063138,-0.0720391310000101,1.2328947469999778,11.295213240999937,-0.1796862350000013,-0.0794274839999994,-0.00268814
1718275665678381186,-0.1196041310000106,1.2252787469999775,11.295817240999936,-0.1766262350000013,-0.0887014839999993,-0.00272914
1718275665679638562,-0.1717091310000098,1.200078746999978,11.29616724099994,-0.1713522350000013,-0.0975304839999994,-0.00328314
1718275665679661836,-0.2152781310000102,1.1601177469999775,11.281441240999936,-0.1658332350000013,-0.1046774839999993,-0.00382714
1718275665681141801,-0.2756311310000099,1.120294346999978,11.274571240999936,-0.1611622350000013,-0.1113624839999993,-0.00397314
1718275665682370167,-0.3398871310000106,1.078486346999978,11.27503324099994,-0.1587042350000013,-0.1184884839999993,-0.00387014
1718275665683742668,-0.3997671310000104,1.0489733469999776,11.275167240999936,-0.1567642350000013,-0.1245444839999993,-0.00389614
1718275665683763000,-0.43405013100001,1.0145073469999777,11.290131240999935,-0.1551422350000013,-0.1277484839999993,-0.00417114
1718275665684807554,-0.4514991310000105,0.9846883169999772,11.275609240999936,-0.1523992350000013,-0.1295324839999993,-0.00416714
1718275665686026999,-0.4691431310000105,0.954718346999978,11.26135224099994,-0.1487812350000013,-0.1320764839999993,-0.00416114
1718275665687264480,-0.4698451310000102,0.9296383469999776,11.225523240999935,-0.1451392350000013,-0.1340784839999993,-0.00348914
1718275665688525775,-0.4746411310000105,0.9020903469999776,11.219673240999937,-0.1419522350000013,-0.1342584839999993,-0.00293914
1718275665688531252,-0.4749921310000102,0.8771117469999776,11.204998240999938,-0.1394002350000013,-0.1336054839999993,-0.00305314
1718275665689645859,-0.4711701310000102,0.8546877469999776,11.174118240999936,-0.1368232250000013,-0.1350234839999994,-0.00384814
1718275665691638563,-0.4883991310000104,0.8252307469999774,11.128838240999938,-0.1354002250000013,-0.1378084839999993,-0.00386214
1718275665692957965,-0.5015491310000104,0.8079547469999776,11.107501240999936,-0.1338372250000013,-0.1414244839999993,-0.00321314
1718275665692970199,-0.5145911310000104,0.7906757469999774,11.094902240999938,-0.1327142250000013,-0.1432714839999994,-0.00175614
1718275665694136368,-0.5229791310000105,0.7810667469999777,11.058418240999938,-0.1332672250000013,-0.1436584839999993,-0.00070114
1718275665695348955,-0.5478551310000104,0.7864817469999779,11.055983240999936,-0.1357892250000013,-0.1433394839999993,-0.00164514
1718275665696643589,-0.5809141310000103,0.8020657469999781,11.053166240999936,-0.1401532250000013,-0.1433014839999994,-0.00247014
1718275665696655685,-0.6099171310000102,0.8101657469999777,11.044298240999936,-0.1437412200000013,-0.1435624839999993,-0.00249414
1718275665697782969,-0.6223431310000103,0.8180047469999774,11.075128240999936,-0.1462602250000013,-0.1446714839999994,-0.00171614
1718275665699035054,-0.6220391310000102,0.8184667469999778,11.060003240999936,-0.1482352250000013,-0.1455464839999993,-0.00133814
1718275665700253990,-0.6343401310000105,0.8017947469999782,11.052081240999938,-0.1503932250000013,-0.1452334839999993,-0.00108514
1718275665701485015,-0.6468491310000106,0.7850047469999779,11.082904240999936,-0.1521082250000013,-0.1459334839999993,-0.00043514
1718275665702916073,-0.6763931310000102,0.7632487469999778,11.089361240999937,-0.1529772250000013,-0.1479334839999993,-0.00085214
1718275665702941805,-0.7061561310000104,0.7510197469999778,11.10335524099994,-0.1526282350000013,-0.1500774839999993,-0.00152714
1718275665704036249,-0.7148511310000103,0.7264317469999779,11.095772240999938,-0.1515932350000013,-0.1517114839999993,-0.00166614
1718275665705796403,-0.7278941310000104,0.6991947469999776,11.104595240999936,-0.1499242350000013,-0.1524124839999994,-0.00112714
1718275665705807428,-0.7324711310000102,0.6866847469999776,11.11406224099994,-0.1485332350000013,-0.1532354839999993,-0.00019214
1718275665706902582,-0.7413271310000105,0.6617887469999777,11.129577240999936,-0.1463992350000013,-0.1537404839999993,-0.00031414
1718275665708159016,-0.74565813100001,0.6297077469999776,11.113868240999938,-0.1450202350000013,-0.1526404839999993,-0.00083314
1718275665709349189,-0.7498101310000099,0.6172737469999777,11.113534240999936,-0.1445022350000013,-0.1499244839999993,-0.00107614
1718275665710596547,-0.7410301310000099,0.622318746999978,11.121234240999936,-0.1457722350000013,-0.1475064839999993,-0.00080214
1718275665710607026,-0.73628113100001,0.6693237469999777,11.121293240999936,-0.1487302350000013,-0.1460944839999994,-0.00027614
1718275665711945849,-0.7186851310000105,0.7091467469999779,11.121207240999937,-0.1524552350000013,-0.1444474839999994,0.0002428599999999
1718275665713115508,-0.6926001310000098,0.7536587469999779,11.119889240999935,-0.1554742350000013,-0.1410174839999993,-0.00015314
1718275665714338914,-0.6620331310000102,0.7859997469999778,11.094617240999936,-0.1588672350000013,-0.1357274839999993,-0.00120514
1718275665715649193,-0.62272113100001,0.8284937469999778,11.100027240999935,-0.1643462350000013,-0.1302944839999993,-0.00173814
1718275665715661451,-0.59156413100001,0.8861377469999776,11.098428240999937,-0.1720492350000013,-0.1254004839999993,-0.00148914
1718275665716805512,-0.5604281310000099,0.9488527469999778,11.120450240999936,-0.1805692350000013,-0.1220274839999993,-0.00058914
1718275665718022662,-0.5252071310000099,0.9943017469999776,11.119179240999935,-0.1879882350000013,-0.1194414839999993,-0.00022314
1718275665720237471,-0.5026211310000099,1.017662746999978,11.101433240999938,-0.1949902350000013,-0.1160404839999993,-0.00064914
1718275665720250815,-0.4759001310000099,1.0483057469999777,11.098365240999938,-0.2016892350000013,-0.1133304839999993,-0.00147514
1718275665721202249,-0.4573781310000107,1.0841917469999778,11.102121240999937,-0.2100652350000013,-0.1110224839999994,-0.00244714
1718275665722547930,-0.4432331310000101,1.132336746999978,11.108204240999935,-0.2185132350000013,-0.1098174839999993,-0.00196214
1718275665723681695,-0.4209791310000101,1.1751917469999775,11.122717240999936,-0.2250622350000013,-0.1088444839999993,-0.00133314
1718275665723692472,-0.4033601310000105,1.200353746999978,11.091677240999935,-0.2285272350000013,-0.1074274839999993,-0.00121614
1718275665724830618,-0.3859731310000107,1.2105867469999776,11.090692240999935,-0.2308472350000013,-0.1065024839999994,-0.00149214
1718275665726022423,-0.3812741310000105,1.2233077469999776,11.080969240999936,-0.2331142350000013,-0.1064314839999994,-0.00244014
1718275665727290020,-0.3851291310000102,1.2311037469999777,11.072088240999935,-0.2352092350000013,-0.1066314839999993,-0.00285414
1718275665728494403,-0.3807401310000105,1.243511746999978,11.072277240999936,-0.2361662350000013,-0.1063174839999993,-0.00259214
1718275665729848632,-0.3766791310000106,1.2310477469999777,11.081021240999936,-0.2352262350000013,-0.1057284839999993,-0.00205014
1718275665729856974,-0.3728151310000103,1.2330837469999776,11.066102240999935,-0.2330152350000013,-0.1062964839999993,-0.00230614
1718275665731060848,-0.3688721310000102,1.2303607469999778,11.073316240999937,-0.2315132350000013,-0.1072334839999993,-0.00283414
1718275665735140464,-0.3688741310000099,1.225406746999978,11.06661724099994,-0.2313572350000013,-0.1063464839999993,-0.00229614
1718275665736817707,-0.3561551310000106,1.2276427469999778,11.097997240999938,-0.2311292250000013,-0.1036064839999993,-0.00174114
1718275665736828671,-0.3307391310000103,1.2322387469999776,11.129750240999938,-0.2306742250000013,-0.0998924839999993,-0.00104614
1718275665736841894,-0.30554613100001,1.236550746999978,11.146130240999936,-0.2286862250000013,-0.0963094839999993,-0.00074214
1718275665736853147,-0.2678781310000107,1.248016746999978,11.170491240999938,-0.2257542250000013,-0.0933994839999994,-0.00043614
1718275665738250772,-0.2472471310000104,1.2545147469999778,11.179296240999935,-0.2221962200000013,-0.0911614839999993,-0.00039614
1718275665738265564,-0.2352021310000105,1.2413167469999775,11.196018240999935,-0.2179812250000013,-0.0893014839999993,-0.00022114
1718275665739149114,-0.2277141310000101,1.2206317469999777,11.214298240999938,-0.2127562250000013,-0.0892784839999993,0.0007458599999999
1718275665740391370,-0.1311521310000101,1.197356746999978,11.233008640999936,-0.2074902250000013,-0.0854234839999993,0.0015978599999999
1718275665741676546,-0.1404171310000102,1.176952746999978,11.256517640999938,-0.2033242250000013,-0.0868254839999994,0.0013518599999999
1718275665741685373,-0.1578761310000107,1.1518867469999776,11.278545640999935,-0.2002942250000013,-0.0877324839999993,0.0004368599999999
1718275665742806111,-0.1324251310000097,1.1517787469999778,11.316034640999936,-0.2003302250000013,-0.0860254839999993,5.0859999999999794e-05
1718275665744036796,-0.1112431310000099,1.1688917469999778,11.347934640999936,-0.2008172250000013,-0.0849224839999993,0.0009878599999999
1718275665745240362,-0.0985411310000101,1.1763697469999777,11.395221640999935,-0.2018442250000013,-0.0854674839999993,0.0021778599999999
1718275665746445983,-0.1027441310000101,1.1789937469999776,11.410992640999936,-0.2026852250000013,-0.0864264839999993,0.0026988599999999
1718275665747679922,-0.1028711310000101,1.1788297469999778,11.431464640999938,-0.2017972250000013,-0.0871834839999993,0.0011048599999999
1718275665749029929,-0.12848413100001,1.178738746999978,11.437227640999938,-0.2008712250000013,-0.0896484839999993,-0.00010014
1718275665749034695,-0.1458931310000102,1.1736857469999775,11.437778640999936,-0.1993672250000013,-0.0936044839999993,1.685999999999962e-05
1718275665750214872,-0.1846851310000103,1.200417746999978,11.440420640999935,-0.1976722350000013,-0.0992404839999993,0.0014588599999999
1718275665751423445,-0.2147571310000104,1.2225167469999776,11.448653640999934,-0.1971382350000013,-0.1050924839999993,0.0018258599999999
1718275665752696423,-0.2402981310000103,1.2619043469999778,11.453664640999936,-0.1974942350000013,-0.1098754839999993,0.0003328599999999
1718275665752721833,-0.2527391310000102,1.2894263469999776,11.465344640999938,-0.1997682350000013,-0.1137774839999993,-0.00143614
1718275665753817393,-0.2610721310000103,1.3093763469999775,11.479200640999936,-0.2012672350000013,-0.1162164839999993,-0.00199214
1718275665755042597,-0.2824161310000104,1.3267073469999775,11.503173240999937,-0.2019022350000013,-0.1197654839999994,-0.00108414
1718275665756259904,-0.3169011310000102,1.3266213469999777,11.535597240999936,-0.2007502350000013,-0.1255424839999993,8.585999999999924e-05
1718275665757501564,-0.3599781310000103,1.306767346999978,11.535022240999936,-0.1980602350000013,-0.1321984839999994,-0.00060414
1718275665757519040,-0.4202001310000103,1.2719443469999778,11.541665240999937,-0.1939822350000013,-0.1387594839999993,-0.00168214
1718275665758646554,-0.4848911310000103,1.2294703469999777,11.565105240999936,-0.1886712350000013,-0.1447614839999993,-0.00194914
1718275665760024876,-0.5457071310000103,1.1844003469999778,11.576067240999937,-0.1823092350000013,-0.1524604839999993,-0.00075814
1718275665761171214,-0.5982821310000104,1.1293393469999782,11.587222240999935,-0.1747652350000013,-0.1610124839999993,0.0002998599999999
1718275665762386443,-0.6340331310000102,1.074017346999978,11.59631024099994,-0.1659272350000013,-0.1690164839999993,-0.00022814
1718275665763716865,-0.6694261310000105,1.0237503469999776,11.589041240999936,-0.1581272350000013,-0.1748754839999993,-0.00128014
1718275665763736263,-0.69603113100001,0.9835923469999776,11.605497240999938,-0.1524142350000013,-0.1793314839999993,-0.00140414
1718275665764840735,-0.7308571310000105,0.9584903469999774,11.623886240999935,-0.1487102350000013,-0.1836984839999993,5.685999999999929e-05
1718275665766108253,-0.7570971310000103,0.9236573469999776,11.648954240999936,-0.1453542350000013,-0.1875244839999993,0.0009868599999999
1718275665767276846,-0.7834471310000102,0.8786783469999776,11.648990240999938,-0.1401382350000013,-0.1902024839999994,0.0002048599999999
1718275665768587796,-0.8015761310000105,0.8186843469999774,11.640723240999936,-0.1331382350000013,-0.1928444839999993,-0.00136514
1718275665769790070,-0.8239941310000103,0.7659467469999781,11.604719240999938,-0.1258372350000013,-0.1945654839999993,-0.00133214
1718275665769803093,-0.8378031310000105,0.7231657469999775,11.592707240999935,-0.1197482350000013,-0.1956444839999993,-0.00036914
1718275665771288179,-0.8679591310000105,0.7054007469999776,11.579281240999938,-0.1166222350000013,-0.1953984839999993,0.0003198599999999
1718275665772445709,-0.8851441310000101,0.6804507469999775,11.549235240999936,-0.1142622350000013,-0.1939054839999993,0.0002108599999999
1718275665773812056,-0.8727031310000102,0.6529237469999777,11.518072240999937,-0.1113212350000013,-0.1916374839999994,-0.00082414
1718275665773819084,-0.8476631310000105,0.6276917469999778,11.457109240999936,-0.1074992350000013,-0.1890254839999993,-0.00171914
1718275665774986979,-0.8015361310000104,0.6196237469999774,11.398388240999935,-0.1039532350000013,-0.1866994839999993,-0.00129014
1718275665776202756,-0.7678481310000105,0.6290097469999776,11.347524240999936,-0.1021532350000013,-0.1843594839999994,-0.00033614
1718275665777401871,-0.7463761310000103,0.6462367469999774,11.302131240999936,-0.1028682350000013,-0.1816094839999994,-0.00019414
1718275665778751449,-0.7500891310000102,0.6490227469999774,11.269495240999936,-0.1045842350000013,-0.1795304839999993,-0.00125714
1718275665778760573,-0.7537631310000104,0.647008746999978,11.243297240999937,-0.1065742350000013,-0.1783244839999993,-0.00299414
1718275665779798332,-0.7534741310000101,0.6327647469999782,11.204234240999938,-0.1080672250000013,-0.1795584839999993,-0.00341714
1718275665782448754,-0.7620781310000102,0.6084787469999775,11.138223240999938,-0.1079242250000013,-0.1824514839999993,-0.00197914
1718275665784159918,-0.7581411310000101,0.5914377469999781,11.119180240999937,-0.1077112250000013,-0.1855154839999994,0.0002588599999999
1718275665784167293,-0.76219913100001,0.5648597469999778,11.089894240999936,-0.1089122250000013,-0.1864334839999993,0.0011708599999999
1718275665784177525,-0.78297113100001,0.5382907469999774,11.071751240999935,-0.1102892250000013,-0.1862534839999993,-0.00030314
1718275665785781546,-0.7994951310000105,0.5289397469999775,11.068284240999937,-0.1121232250000013,-0.1867774839999994,-0.00204814
1718275665785795275,-0.8205231310000103,0.5218277469999778,11.074797240999938,-0.1130472250000013,-0.1877644839999993,-0.00245914
1718275665786941136,-0.8292771310000102,0.5169877469999778,11.070631240999935,-0.1128832250000013,-0.1905624839999993,-0.00034814
1718275665788175279,-0.8339151310000104,0.4996867469999779,11.058158240999935,-0.1115572250000013,-0.1928944839999994,0.0011068599999999
1718275665789364503,-0.8511801310000102,0.4749757469999774,11.050071240999936,-0.1098482350000013,-0.1948044839999994,0.0005708599999999
1718275665790814064,-0.8766631310000104,0.435658746999978,11.054976240999938,-0.1087302350000013,-0.1953244839999993,-0.00115414
1718275665790824114,-0.9061801310000104,0.4038637469999777,11.068369240999935,-0.1088362350000013,-0.1947904839999993,-0.00208114
1718275665791833775,-0.9273381310000104,0.3866457469999778,11.107814240999936,-0.1090062350000013,-0.1932504839999993,-0.00100314
1718275665793044272,-0.9360091310000104,0.3766327469999778,11.125509240999936,-0.1082372350000013,-0.1926374839999993,0.0004708599999999
1718275665794256124,-0.9278861310000102,0.3712757469999774,11.126406240999936,-0.1061202350000013,-0.1919864839999994,0.0006228599999999
1718275665795500148,-0.9111481310000104,0.3560667469999773,11.125871240999937,-0.1039112350000013,-0.1895334839999994,-0.00014614
1718275665796808974,-0.8857441310000105,0.3604767469999774,11.111100240999937,-0.1023652350000013,-0.1846834839999993,-0.00023714
1718275665796843663,-0.8642421310000103,0.3824367469999775,11.118016240999935,-0.1030112350000013,-0.1801734839999993,-0.00060914
1718275665798025551,-0.8425041310000103,0.4293467469999777,11.147914240999938,-0.1059912350000013,-0.1772044839999993,-0.00047114
1718275665799311540,-0.8206481310000102,0.471530746999978,11.138689240999936,-0.1092522350000013,-0.1751054839999993,-0.00101114
1718275665800721682,-0.7819991310000103,0.5135527469999777,11.098892240999938,-0.1114492250000013,-0.1730904839999993,-0.00194814
1718275665801776977,-0.7265121310000104,0.5554487469999783,11.075169240999935,-0.1132352250000013,-0.1707824839999994,-0.00247914
1718275665801796698,-0.6875081310000102,0.5880037469999779,11.036511240999936,-0.1173082250000013,-0.1672354839999993,-0.00235414
1718275665802947599,-0.6479941310000101,0.6309017469999779,11.021196240999936,-0.1245502250000013,-0.1625554839999994,-0.00130914
1718275665804277128,-0.6080421310000101,0.6839257469999773,11.02697724099994,-0.1338592250000013,-0.1563654839999994,-0.00093114
1718275665805555687,-0.5677881310000104,0.7520057469999777,11.015837240999938,-0.1447432250000013,-0.1506894839999993,-0.00136414
1718275665805565917,-0.5317181310000101,0.8177247469999778,10.99678824099994,-0.1558692250000013,-0.1455874839999993,-0.00193714
1718275665806802463,-0.4871551310000104,0.8932977469999778,10.977927240999936,-0.1673302250000013,-0.1406014839999993,-0.00238114
1718275665808166792,-0.4594361310000103,0.978869746999978,10.968343240999936,-0.1799662250000013,-0.1359234839999993,-0.00150214
1718275665809451785,-0.4231791310000103,1.0597887469999776,10.966349240999936,-0.1935502250000013,-0.1326014839999993,-0.00050514
1718275665810842818,-0.4040061310000102,1.1503767469999775,10.979177240999936,-0.2065472250000013,-0.1300964839999994,0.0002278599999999
1718275665810851089,-0.3765241310000102,1.225996746999978,10.959635240999935,-0.2177582250000013,-0.1275524839999993,-0.00062914
1718275665812037305,-0.3534701310000103,1.2988997469999777,10.949038240999936,-0.2278992250000013,-0.1243284839999993,-0.00080714
1718275665813257085,-0.3307411310000101,1.3616427469999777,10.962124240999938,-0.2364022200000013,-0.1211014839999993,-0.00070614
1718275665814645531,-0.3253021310000099,1.419223746999978,10.969438240999937,-0.2434072250000013,-0.1190554839999993,0.0003278599999999
1718275665816130369,-0.3245261310000102,1.4593687469999777,10.976448240999936,-0.2484162250000013,-0.1192134839999994,0.0008278599999999
1718275665816136845,-0.3199631310000101,1.467120746999978,10.975286240999935,-0.2503062250000013,-0.1196454839999993,0.0004128599999999
1718275665817323118,-0.3158641310000101,1.4595717469999778,10.97496124099994,-0.2493032250000013,-0.1193114839999993,2.285999999999868e-05
1718275665818419659,-0.30370613100001,1.4318747469999775,10.976300240999938,-0.2457052250000013,-0.1179334839999993,0.0001858599999999
1718275665819816395,-0.2959891310000102,1.4162587469999777,10.971345640999935,-0.2412992250000013,-0.1171554839999994,0.0010188599999999
1718275665819845214,-0.2799741310000103,1.410258746999978,10.988400640999936,-0.2361272250000013,-0.1168754839999993,0.0011888599999999
1718275665821441421,-0.2555771310000103,1.4089917469999775,10.989110640999936,-0.2300322250000013,-0.1164544839999993,0.0004328599999999
1718275665822820568,-0.2269731310000102,1.4002197469999778,10.974241640999937,-0.2231572350000013,-0.1150674839999993,-0.00071114
1718275665822830623,-0.1940001310000103,1.398991746999978,10.952803640999935,-0.2173002350000013,-0.1136132839999993,-0.00106414
1718275665824021979,-0.1565331310000102,1.4152503469999778,10.954461690999938,-0.2134372350000013,-0.1122272839999993,-0.00089714
1718275665825326292,-0.1185901310000101,1.441947346999978,10.970593640999937,-0.2127392350000013,-0.1114742839999993,-0.00062114
1718275665826577929,-0.0927941310000102,1.4666853169999778,10.976811640999935,-0.2144572350000013,-0.1096632839999993,-0.00128614
1718275665827602978,-0.0793701310000101,1.4894343469999778,10.981492640999935,-0.2181512350000013,-0.1088202839999993,-0.00250114
1718275665828952977,-0.0734171310000104,1.5575533469999778,11.01583764099994,-0.2285322350000013,-0.1087892839999993,-0.00296514
1718275665828964072,-0.0647671310000104,1.5724363469999778,11.00740464099994,-0.2294662350000013,-0.1087812839999993,-0.00337114
1718275665830223548,-0.06753813100001,1.6305123469999778,11.020393640999938,-0.2384222350000013,-0.1090182839999993,-0.00316314
1718275665831396674,-0.0701351310000102,1.6937603469999776,11.056161640999935,-0.2488512350000013,-0.1096362839999993,-0.00269914
1718275665832812835,-0.0812811310000101,1.7422147469999778,11.075015640999936,-0.2583442350000013,-0.1110142839999993,-0.00343314
1718275665832826630,-0.0841741310000101,1.7953827469999777,11.101592640999936,-0.2669132350000013,-0.1130122839999993,-0.00429814
1718275665834042046,-0.0915641310000103,1.821308746999978,11.121863640999935,-0.2738312350000013,-0.1148032839999994,-0.00462014
1718275665837807554,-0.1119491310000104,1.8494707469999776,11.129341640999938,-0.2796102350000013,-0.1173332839999994,-0.00360914
1718275665837816234,-0.13278913100001,1.8625223469999777,11.175373640999934,-0.2833692350000013,-0.1208632839999993,-0.00258814
