%time,field.linear.x,field.linear.y,field.linear.z,field.angular.x,field.angular.y,field.angular.z
1718275665382622083,-0.0016349737971804,0.0061712298905063,0.0005014063653052,-0.1729704310835976,0.2266882550073638,-0.140739341944509
1718275665383892557,-0.0013732694960285,0.0069974270956809,8.164959699403021e-05,-0.1769462266402935,0.2290430947166367,-0.1390074142864047
1718275665385106848,-0.0010057974847341,0.0078753711889328,-0.0003177791987608,-0.1807950744725554,0.2311546533856786,-0.1380645831906446
1718275665386339341,-0.0007410565116587,0.008732589933144,-0.0005594487769129,-0.1843855440374631,0.2325851198818386,-0.1372799330893025
1718275665386350723,-0.0005347785831965,0.0093227762007719,-0.0007701103000458,-0.1873511869329898,0.2341897357034685,-0.1364943261621325
1718275665387572449,-0.000425533352944,0.0099558189143909,-0.0008015729625795,-0.1897786358437333,0.2355841688296524,-0.1355290108715724
1718275665388801885,-0.0005836533483968,0.0104133832208321,-0.0005050813062499,-0.1913009912310961,0.2370188671909837,-0.133748255526499
1718275665390005748,-0.0006671134836827,0.0109889452309487,-0.0003499803530492,-0.1932444451596094,0.2376965067858674,-0.1325583398500732
1718275665391206158,-0.0010560947153437,0.0117797972183957,-0.0004922701010978,-0.1962000195943112,0.2386301639768744,-0.1310537615819016
1718275665392458601,-0.0012289880258918,0.0123964797510598,-0.0007744964257501,-0.1987733377804805,0.2396263064803054,-0.1304345235765633
1718275665392486611,-0.0013657556876655,0.0128530643795342,-0.0008844194161992,-0.2006773989020067,0.2406412953717148,-0.129471401882322
1718275665393666576,-0.0014208977118129,0.0132325687378266,-0.0007513300839396,-0.2019086794396379,0.2421688943036762,-0.1282523614715529
1718275665394891685,-0.00145437579199,0.0137754864152184,-0.0009646409376034,-0.2041403501337045,0.2434525558616131,-0.1275029516900844
1718275665396133943,-0.0015817895783372,0.0142422592171105,-0.0010334889608742,-0.20572400192619,0.2446331753483515,-0.126395726653492
1718275665397367853,-0.0013724560209195,0.0146493779320468,-0.0010862237861524,-0.206994851840369,0.2467762524565446,-0.1260220811470182
1718275665399093032,-0.001388035056376,0.0151638827163399,-0.0009944325777737,-0.2083179930786098,0.2487614640906935,-0.1250325541987079
1718275665399106343,-0.0011381617224612,0.0157199551403392,-0.0007275476433896,-0.2091933833543409,0.2506908144602774,-0.1246051821671001
1718275665400341820,-0.0006339405102684,0.0159934290127488,-0.000167722961813,-0.2088819454057992,0.2524715075799437,-0.1245541404435404
1718275665401517658,-0.0005056213914324,0.0162115210647523,0.0002311934007062,-0.2085386281661058,0.2542088315972504,-0.1238371092608773
1718275665401525748,-0.0004313863272395,0.0165073688147951,0.0004462104389812,-0.2083082051854848,0.2558833852443164,-0.123140896859516
1718275665402758252,-0.0004515089610924,0.016593166000184,0.0008423914138565,-0.2075147698382065,0.2568309664149333,-0.1225387183478246
1718275665403974577,-0.0005076314484792,0.0167911590287617,0.0010143910863404,-0.2074840296675285,0.2577745583456945,-0.1222681938223627
1718275665405178504,-0.0005157727471346,0.0170361842829441,0.0011425084353415,-0.2076602753012153,0.2586598399063353,-0.1217303611091763
1718275665406440986,-0.0004057157805546,0.017089511231014,0.001072255360548,-0.207751941176465,0.2595258897204814,-0.1216181253812613
1718275665406449219,-0.0001190528688736,0.0169793091493703,0.0011517760244473,-0.2072004264117819,0.260819317556236,-0.1206781585021166
1718275665407583238,-0.0002194479206512,0.0171142144889411,0.0009140486461156,-0.207912085578769,0.2619595868291407,-0.1186868270222115
1718275665408825577,-0.0003176115580816,0.0171808887076306,0.0008845342440209,-0.2081813959752236,0.262893397793237,-0.1165880557860425
1718275665410015831,-0.0007116918755911,0.0171200473302876,0.0012647569739987,-0.2071561741435204,0.2637043347704242,-0.114049807836073
1718275665411207069,-0.0006806315768662,0.0173437714968165,0.0013544224414373,-0.2071110810211223,0.2648001361720788,-0.112310606087474
1718275665411952389,-0.0007126088711491,0.0175877333956166,0.0015023452782517,-0.2071495168473148,0.2650604737837558,-0.1115123298017174
1718275665413585591,-0.0005033160556466,0.0178164463256747,0.0017129194966319,-0.2073372701318129,0.2652850459133907,-0.1105956170978597
1718275665413621456,-0.0003312591129324,0.0177676185531677,0.0019584001975208,-0.2066958888312688,0.2655719884088031,-0.1098045369085204
1718275665414899066,-0.0002719693583487,0.0176493908975775,0.0023507591248594,-0.2056579790766119,0.2658254968384336,-0.1085684272636474
1718275665416025020,-1.0926774672704968e-05,0.0175923317858307,0.0025901982788639,-0.2051668755141733,0.2660915247211042,-0.1081980620387259
1718275665417242025,0.0005552158371704,0.017473013109438,0.002981225127373,-0.2043784463620888,0.2663747076668705,-0.1089963157566823
1718275665418482295,0.0010696339089015,0.0171527918227569,0.0029593946543365,-0.2038405305573988,0.2666505469826956,-0.110011113423906
1718275665418497737,0.0015386237011066,0.0166146542037028,0.0030706589430805,-0.202402696627636,0.2669982537541961,-0.1107184444318742
1718275665419675201,0.001788312656542,0.0157458882350511,0.003413387338549,-0.2000287726714567,0.2673306192068909,-0.1114446447837577
1718275665420877741,0.0019591150660541,0.0149856872426234,0.0036041069315174,-0.1982563612628496,0.2670933016705998,-0.1120751552941546
1718275665422094449,0.0022125656530294,0.0144129297662509,0.0032594629716248,-0.1978510818432632,0.2669777333240525,-0.1138724371894226
1718275665423320505,0.0024685781895608,0.0136580139961453,0.0029211765317229,-0.1967352322434452,0.2670315559977068,-0.11531361676902
1718275665427975725,0.0026760157637905,0.0129885241028556,0.0026563082388897,-0.1956839485626259,0.2671591276817947,-0.1162634620333468
1718275665429635472,0.002872982268706,0.0119905230221059,0.0024884381036868,-0.1935962332920069,0.2673856760274901,-0.1172006389401047
1718275665429649446,0.0033001432339911,0.0112198224877462,0.0021717043633297,-0.1921867460288737,0.2675523138282194,-0.1183757818530375
1718275665429659458,0.0037916583307923,0.0105691018903903,0.00197467444581,-0.190947043680668,0.2676192441008524,-0.1194933644408063
1718275665429675911,0.0043175624153212,0.0098716350991304,0.0016751816598973,-0.1896964722381991,0.267629576442249,-0.1207548449286321
1718275665429691285,0.0048745299615993,0.0094987025802498,0.0012347110051808,-0.1895161360359016,0.2681249228939367,-0.1216572150753347
1718275665430709665,0.0053589814562229,0.0089707562537843,0.0010647036531875,-0.1884458294627733,0.2684452160023773,-0.1222889970390574
1718275665430722595,0.0056817943447455,0.0082478105290864,0.0011063593755351,-0.1866203998770443,0.2685589584866778,-0.1222707565153344
1718275665432164348,0.0056579956907504,0.0077182086386842,0.0009899443804633,-0.1854538536372755,0.2685495341498962,-0.121431323478527
1718275665433313294,0.0056747896935442,0.0071352703326248,0.0007632183879312,-0.1846855832317608,0.2688631561293335,-0.1208809826508339
1718275665434559687,0.006127091909242,0.0065915465352541,0.000894279154019,-0.1835592961381916,0.2696746166168311,-0.1202851606899655
1718275665435872904,0.0067104591041628,0.0059547591617377,0.001063652040737,-0.1821309295253284,0.270065846503026,-0.1200144875037642
1718275665435889171,0.0070131858474949,0.0053783979531155,0.0008674034968931,-0.1813214222210746,0.2697960223125492,-0.1189861600032738
1718275665436752488,0.0070638961549507,0.0049055798803692,0.000757583290903,-0.1806580868954754,0.2690109222389122,-0.1175994476559627
1718275665437969462,0.0070753708059598,0.0044529174837648,0.0008604198205779,-0.17979230350349,0.2686575103424578,-0.1155609293688986
1718275665439157071,0.0068492800470042,0.0042713472722945,0.00085001511562,-0.179405927603969,0.2678685070639156,-0.1132953071532902
1718275665441373402,0.0069501757363137,0.0039855000780905,0.0012553470474541,-0.1779569840868914,0.2669260142412959,-0.1125057925128739
1718275665441381778,0.0064984093941305,0.003686926409153,0.0015447421926,-0.1766077195859314,0.2659366830482165,-0.1106431791112659
1718275665442621138,0.0060044294563101,0.003584585527328,0.0015660392380348,-0.1762064098084682,0.2650302810094731,-0.1082557184181657
1718275665442650662,0.0057189381373457,0.0035963265200646,0.0014786453475084,-0.1762705462656152,0.2645565698657474,-0.1057687786933063
1718275665443875730,0.0057053982104201,0.0036241112884744,0.0014899925740993,-0.1761851762620793,0.2643882293632755,-0.1036469297528588
1718275665444966337,0.0057234596112578,0.003465471016632,0.0014677791898906,-0.1757195037391123,0.2643938093905878,-0.1019819974355072
1718275665446161151,0.0055101766675018,0.0033093063281763,0.001107947322956,-0.1756954608146627,0.2641822352547326,-0.0999788852554704
1718275665447317368,0.0048978513555689,0.0033048330627957,0.0006459765083149,-0.1764058344566763,0.2636558938992053,-0.0976333143130782
1718275665448586556,0.0042899393109172,0.003425037478296,0.0002027070135897,-0.1776603436104131,0.2635050214867965,-0.0949728825353587
1718275665448595965,0.0041461168796826,0.0034422826358739,-0.0001987356721079,-0.1783742481650328,0.2636587768703858,-0.0933644879542116
1718275665449805505,0.0040307806954154,0.0034581871480137,-0.0005296243822837,-0.178763402137176,0.2638996565209608,-0.0916750221343134
1718275665451057020,0.0040727897812952,0.0031658032879785,-0.000602851636214,-0.1778437478351389,0.2650667404789079,-0.0905676333107041
1718275665452257817,0.0041576154554024,0.0029274392513684,-0.0008507853261521,-0.1772583269875957,0.2659582790469347,-0.0895389887574555
1718275665453541757,0.0042731927544121,0.0026677420937969,-0.0009644396263941,-0.1764509321862044,0.2665954311019355,-0.0893356609091052
1718275665453549902,0.0044853707238952,0.002461001957073,-0.0010331974324661,-0.1757878272823829,0.2670909901936804,-0.088810353738626
1718275665454755185,0.0042033934632273,0.0022839821436578,-0.0013353184830174,-0.1758870833692201,0.2668171448775283,-0.0873841679583176
1718275665456036815,0.0038788254863994,0.0019179227815806,-0.0013981768133343,-0.1751948854840593,0.2666200620582534,-0.0854564993028705
1718275665457229201,0.0033199231883559,0.001396159207167,-0.0015166772978619,-0.1742660211411951,0.2665167284728472,-0.0835279019442432
1718275665458499608,0.0030659789770624,0.0010288627686166,-0.0016466785441265,-0.1736344530047877,0.2663709080270375,-0.0823658084509363
1718275665459752980,0.002626666212182,0.0006539585079065,-0.0016394973977773,-0.1728581554544925,0.2662572358496641,-0.0811682761189845
1718275665459767616,0.0024455172230719,0.0003883997302728,-0.0017761677248264,-0.1727615996766298,0.2662324781651068,-0.0801406405842099
1718275665461013633,0.0026162402655469,0.0001702329942861,-0.0017616695292945,-0.1727157728095039,0.2661517112156239,-0.0800526063480903
1718275665462230235,0.0025651388948312,-0.0001466327457745,-0.001566199785805,-0.172386113235805,0.2661455549041581,-0.0789017579164994
1718275665464065105,0.0023870996969478,-0.0003882421782388,-0.0014757227113027,-0.1722426391968531,0.2654355600711874,-0.0782480993747163
1718275665465373070,0.0019106465429495,-0.0005339784772034,-0.0012241748106252,-0.1720928792491046,0.265054666829367,-0.0766300311974625
1718275665465403325,0.0015422229458951,-0.0004379022826619,-0.0010083822932287,-0.1725366223272527,0.2642957738836943,-0.0759022959071918
1718275665466670456,0.0011476375550269,-0.0004107451203757,-0.0009325452525875,-0.1729700068542917,0.2639063396899596,-0.0744043457616203
1718275665466691140,0.0005317268022087,-0.0005223094942208,-0.0006134002592291,-0.1727487854044509,0.2632646627083372,-0.0732714165610547
1718275665467766239,-0.0002336728359369,-0.0004426589351527,-0.0003710693993915,-0.17301729034507,0.2624349955076228,-0.0719875645729926
1718275665469062536,-0.0010603719445222,-0.000135469941981,-0.0006271147909973,-0.1746976800001292,0.2615755674696444,-0.0709388222992408
1718275665470256537,-0.0014989002244012,5.862777054567259e-05,-0.0010027882496939,-0.1763979756738761,0.2612418085652778,-0.070412219280736
1718275665471469685,-0.0014586476046996,0.0002286050564474,-0.0016494429140602,-0.1785218011478422,0.2613117498072279,-0.0706392083067504
1718275665472674949,-0.0015893411330727,0.0005285122097257,-0.0021372397369199,-0.1806290966606547,0.2610569801702521,-0.0708863824950372
1718275665472689137,-0.0018518981660967,0.0008327239095372,-0.0025812482504546,-0.1825750913936047,0.2606155609310982,-0.0712466231677338
1718275665473889252,-0.002309268594171,0.00101372173435,-0.002835709999571,-0.1842909889926853,0.2601082559331863,-0.0709882787040747
1718275665475392088,-0.0025490379268465,0.0012626233826076,-0.0031376296791201,-0.1861977118053261,0.2594975764832078,-0.071143683926254
1718275665476801988,-0.0029993713638561,0.0015356538820492,-0.0035449405738059,-0.1879285027879557,0.258751288082589,-0.0707337639341497
1718275665476815247,-0.0031828741354476,0.0015954439578549,-0.0037064696538115,-0.1887204701690901,0.2585849278319279,-0.0707198022355002
1718275665478133804,-0.0032400264218684,0.0019049919658803,-0.0036472785594701,-0.1896998750455728,0.2583015382922378,-0.0709235595505261
1718275665479145970,-0.0034523286810167,0.0022845048252894,-0.003844266025621,-0.1913029473086648,0.2577605314136471,-0.0710454332399366
1718275665480384557,-0.0033155915107082,0.0027137380347106,-0.0042092392013716,-0.1933510053295159,0.2576149390618326,-0.0712344170172183
1718275665481691646,-0.0033008873106315,0.003182495784755,-0.0043728397012526,-0.1950512763632527,0.2571424032028997,-0.0717317613935819
1718275665481713725,-0.0034774560786157,0.0036957642362035,-0.0047723114393822,-0.1971779454457792,0.2564816144289712,-0.0720267098250733
1718275665482841763,-0.0034680832412514,0.0042475534150689,-0.0052858867026988,-0.1997909984225246,0.2556473050019095,-0.0727122013553525
1718275665484036050,-0.003394793349615,0.004736798490313,-0.0055759384640379,-0.2017538375148151,0.2548060430968856,-0.0733454790191574
1718275665485258664,-0.0035656774251824,0.0051544669055764,-0.0061401063454464,-0.2037181670185308,0.2535270673599976,-0.0739426802637192
1718275665486461130,-0.0038730470966843,0.0054833077160731,-0.0066111253591042,-0.2054641888473273,0.2523653048696406,-0.0738318644167748
1718275665486472096,-0.0041409402680445,0.005765477184344,-0.0069145201695587,-0.2072394552621632,0.251509393995536,-0.0736650467931601
1718275665487696912,-0.0044138903024243,0.006065848036475,-0.007359750996422,-0.2091601989966361,0.2502323466379599,-0.0736503151483006
1718275665488960250,-0.0044508968494891,0.0064523343047184,-0.0076009143337542,-0.2107202675036046,0.249234900714352,-0.0744575001225863
1718275665490210853,-0.0046679097213042,0.0067696331699987,-0.0075014212080678,-0.2114272864554661,0.2484698776554506,-0.0741091637775384
1718275665491427908,-0.005037036770483,0.007137718928207,-0.0074507233314778,-0.2124883265862032,0.2477258668608835,-0.0737197510566835
1718275665492741740,-0.0052368229618333,0.0074995470407475,-0.0072248313286476,-0.2133144401543035,0.2471866060375317,-0.0732826545158364
1718275665492749617,-0.0055437850515394,0.0078611407840735,-0.007259523815752,-0.214694581824236,0.2463554869271489,-0.0728877228631755
1718275665493980976,-0.0055361122144183,0.0080596595947215,-0.0069478170457042,-0.2150407814966894,0.2457204462887448,-0.0737542350094181
1718275665495279806,-0.0054067069458631,0.0083723191834735,-0.0065719437527059,-0.2152940145525953,0.2453312900944174,-0.0748842489109989
1718275665496491110,-0.0052426939568593,0.0089279892124124,-0.0065321591122819,-0.2168032950429926,0.2451306659971997,-0.0761890498330959
1718275665496501859,-0.0049888779923776,0.0095101578612602,-0.0067082507388649,-0.218823505454986,0.2450620027342341,-0.0780049883603314
1718275665497753340,-0.0046849480278437,0.0099938970741351,-0.0069207965273686,-0.2206187291575686,0.2445293128548185,-0.0796752080032599
1718275665499253202,-0.0043352597906327,0.0105151690457813,-0.0072607893691405,-0.2225007205899261,0.2441545110400176,-0.0815114545001302
1718275665500180403,-0.0041394553883045,0.0109329865010526,-0.0073250810465345,-0.2237950147235827,0.2443911500472728,-0.082287278967065
1718275665501512258,-0.0042025361737594,0.0113863529002949,-0.0075225632142701,-0.2253221606703951,0.2445228255095839,-0.0820534367904403
1718275665501520682,-0.004436303976394,0.0118461973648238,-0.0078270653958513,-0.2267872341591827,0.2446262633814873,-0.0822281714094703
1718275665502725884,-0.004644668775582,0.0122093692983669,-0.0078063222853002,-0.2273605841814866,0.2447673687591684,-0.0824010995021337
1718275665503949696,-0.0051086885506328,0.0126025877045367,-0.008106537375108,-0.2284231626353221,0.244297639619429,-0.0823749683279659
1718275665505166847,-0.0056747044981894,0.012801448582717,-0.0080440480828601,-0.2284712754148161,0.2435729254283516,-0.0828632254465722
1718275665506378088,-0.0060968719822075,0.0127127042049513,-0.0076280275434431,-0.2273415215775626,0.2432300083885827,-0.0839438066585618
1718275665507587082,-0.0064265531036122,0.0126180220031241,-0.0072993679766098,-0.2261994439303609,0.2430116357466973,-0.085796420542468
1718275665507607476,-0.0071082178126811,0.0127257806342357,-0.0067818308116503,-0.2249958205592567,0.2423943372295933,-0.0871983471625108
1718275665508809983,-0.0075688156386111,0.0126018600054586,-0.0061817029552407,-0.223332334498047,0.2420165647123204,-0.0879180738785138
1718275665510064747,-0.0079392462817558,0.0125829445918081,-0.0057239572101542,-0.2222946315513807,0.2418223504242769,-0.0886390543814519
1718275665511316152,-0.0080077883905395,0.0124725719802187,-0.0051559939969796,-0.2206461314542429,0.2423044976951893,-0.0887939152165281
1718275665512553369,-0.0082782210050695,0.0123679008368911,-0.004669378133262,-0.2192169910245783,0.2427058750981539,-0.0886145435319096
1718275665512562797,-0.0086921618208269,0.0122449895916094,-0.0042201692740426,-0.2178272399239516,0.2430335217024627,-0.0879192508256845
1718275665513868947,-0.008983762576561,0.012531851253203,-0.003871835935884,-0.2174695430384891,0.2430890553550826,-0.0875883050877835
1718275665515813228,-0.0089438487609993,0.0127945585353596,-0.0032602641553152,-0.2164710643909039,0.2431521469323351,-0.0875640090462318
1718275665515823619,-0.0087524603769345,0.013023255041178,-0.0027136683928611,-0.2155351087141211,0.2437467792485706,-0.0877053282487833
1718275665517014716,-0.008676960265952,0.0131705106549874,-0.002306350060978,-0.2147743540610809,0.2440511801435696,-0.086858317415468
1718275665518241937,-0.0084416630059219,0.0134474157674998,-0.0020152195606906,-0.2144343152629977,0.2450041619023216,-0.0864305567980042
1718275665519435940,-0.0080402803730017,0.0137294845048443,-0.001580618403428,-0.2139599009836771,0.2461357656827173,-0.0856114526688749
1718275665520693283,-0.0075112893051857,0.0137955948702068,-0.000965285956569,-0.2128167407948463,0.2474078448792716,-0.0847759646030502
1718275665520708570,-0.007091900029686,0.0136826126384839,-0.0004212065951996,-0.211556802334523,0.2487780072801701,-0.0833078642114296
1718275665521939698,-0.0066706765314883,0.0132569331850834,-0.0002527537537341,-0.2103032694099226,0.2495781896816553,-0.0822817885503056
1718275665523164650,-0.0062004280780595,0.0126612526843112,3.774184339750547e-05,-0.2087085322910593,0.2498869105254166,-0.0818513572505003
1718275665524388006,-0.00577609743596,0.0120444506912599,0.0004529368898876,-0.2065243025472344,0.2500372155321375,-0.0811230708392565
1718275665525664310,-0.0056430157831295,0.0114674730758036,0.0006534019199112,-0.2045490552251097,0.2500146213061034,-0.0800220574900408
1718275665525680240,-0.0056095720246118,0.0108040757581189,0.0009157696452299,-0.2023283213530691,0.250472245071964,-0.0778872123831131
1718275665530288619,-0.0058476378803914,0.0102906808631087,0.0011548204637119,-0.2005350723102929,0.2507460845122313,-0.0757141055815503
1718275665531545243,-0.006154711592799,0.0099235290193387,0.001333282323801,-0.1991143749667897,0.2507916248496478,-0.0734807949905551
1718275665531558660,-0.0063203549305036,0.009417822565086,0.0016527496405585,-0.1972268487037936,0.2513032863468488,-0.0710714209788511
1718275665531570495,-0.0063776732365388,0.0090626937468607,0.0021288923317719,-0.1952491069171384,0.2516452234048544,-0.0692917426262064
1718275665531585170,-0.0062398422491881,0.008504544321498,0.0023911898520169,-0.1931607427722561,0.2519027815764237,-0.0683294436445715
1718275665531601953,-0.0060423820766834,0.0079439298946908,0.0026962429971162,-0.1909799137897665,0.2518611073442783,-0.0672559153519515
1718275665532781339,-0.0056390964186019,0.0074521805765778,0.0026263062127128,-0.1899755119431043,0.2517994927652998,-0.0674376717125801
1718275665534267672,-0.0053853704285039,0.0071589034555318,0.0025864504603788,-0.1890959497231901,0.2516286450286726,-0.0668269420689505
1718275665535546215,-0.0054039765618831,0.0067221706517345,0.0023520864028844,-0.1883830320749921,0.2513690771624711,-0.0656418902862792
1718275665535557477,-0.0051586891446494,0.0059034886701218,0.00253614732987,-0.1862238685496697,0.2518187491413157,-0.064391176517813
1718275665536820090,-0.0052253415774456,0.0050267197269378,0.0022882714062055,-0.1848551139872357,0.2520792567513939,-0.0628393693187725
1718275665538044030,-0.0053228689542683,0.0044072980884935,0.0019400791872519,-0.1842484011426095,0.2520798922772889,-0.0621682888752895
1718275665539292434,-0.0055443969509062,0.0038782304800263,0.0018429436894942,-0.1835104217090148,0.2519488016054267,-0.0618497505602164
1718275665540548681,-0.0056830580861964,0.0033216595932293,0.001782544841601,-0.1826078556132586,0.2515998015180885,-0.0612294484994037
1718275665540558953,-0.0054341553727381,0.0027310273506093,0.0013887526362337,-0.1819515929390672,0.2517668767549609,-0.0608725103143726
1718275665541861361,-0.0053461966648808,0.0020346677077678,0.0010299056928628,-0.1809424854126054,0.2516208794805667,-0.0606424417872574
1718275665543102470,-0.0054232058138562,0.0012934570703667,0.0005827843209835,-0.1798777435151487,0.2513871030204206,-0.0601824751154999
1718275665544363435,-0.0054554863507854,0.0010034651407633,-0.0002111476458717,-0.1803803851425365,0.2514933886110542,-0.059134699107579
1718275665545507797,-0.0053159727018474,0.0007973683905371,-0.0010567456147527,-0.1813436699175926,0.2517765220972994,-0.0584629531532441
1718275665545540628,-0.0051355282481074,0.0001313688084635,-0.0017716190695856,-0.1811127011075763,0.2517250140062024,-0.0584288414691376
1718275665546740742,-0.0051994195225708,-0.0005877179722292,-0.0025558269052953,-0.1808893750132342,0.2514751403436975,-0.0584702779931242
1718275665547946057,-0.0058334306325618,-0.0011683053894207,-0.0034655842300207,-0.1812987844905139,0.2510810119204938,-0.0573972861054932
1718275665549168925,-0.0061727082959088,-0.0018277164819911,-0.0040532703275561,-0.1813048135685475,0.2512019529806638,-0.0561447615932903
1718275665550391009,-0.0064771757765273,-0.002105571523021,-0.0047696490782586,-0.1822770695883815,0.251488774107114,-0.0553109386583418
1718275665550406943,-0.0066703808223553,-0.0021955925328464,-0.0057595560266061,-0.1838002983941706,0.2519028832018361,-0.0547820954620974
1718275665551590111,-0.0066570109320534,-0.0025256809395261,-0.0064043125882872,-0.1841810263352042,0.2520999435334761,-0.0548935275667328
1718275665552772954,-0.006927128622149,-0.0028845494369052,-0.0070730219953614,-0.1844317349966084,0.2515213398604531,-0.054637939347343
1718275665553977082,-0.0069546915116667,-0.0033567390356594,-0.00744665307188,-0.1840290395695641,0.2510544405585341,-0.0545214945285365
1718275665555230517,-0.0066339733800082,-0.0038432488910559,-0.0078360428355426,-0.1836293044057198,0.2506734186879892,-0.0551165812675161
1718275665556477655,-0.0061131198784728,-0.0040846256396225,-0.0080545779106903,-0.1834033491059222,0.2501813059594196,-0.0575285094897363
1718275665556500852,-0.0061906889912832,-0.004447622713352,-0.0077187593153311,-0.1816532538796729,0.2493895070075985,-0.0586176297382374
1718275665557687338,-0.0062618910454266,-0.0048352381728476,-0.0077343735358995,-0.1802868093265997,0.2488519681137602,-0.0596785605571613
1718275665558936387,-0.0062354399308275,-0.0052982183248344,-0.0078662778282215,-0.1790240013359341,0.2485605757704892,-0.0609681908125438
1718275665560172384,-0.0061570127412001,-0.0056168196124525,-0.0077189868207731,-0.1776879502280495,0.2483821074140743,-0.0620141461740443
1718275665561655495,-0.0060847293268233,-0.0057081913240388,-0.0076931198635867,-0.1770166902970886,0.2482820805717074,-0.0633946756209027
1718275665561666754,-0.0060105732569943,-0.0057521658702837,-0.0071783635859397,-0.1759240884731339,0.2482387348135079,-0.0648583498284253
1718275665562560763,-0.0059497509918487,-0.0056857501906356,-0.0066980485626255,-0.1752756636868426,0.2481737565354606,-0.0663333296211188
1718275665563805278,-0.005844718321666,-0.0055720493081241,-0.0066603039109237,-0.1752959554605825,0.2481935371420705,-0.0679547170016791
1718275665565089866,-0.0056153935439319,-0.0054982081927911,-0.0064544445745102,-0.174808252777767,0.2481303464279515,-0.0693696458155833
1718275665566784203,-0.0054015263107386,-0.00553001101542,-0.0059028293094311,-0.1736001288716896,0.2479723353675803,-0.0709045166999081
1718275665566800649,-0.0051367658524925,-0.0054100720546828,-0.0053854388011537,-0.1727698311398855,0.2481517323115898,-0.0724530809650414
1718275665567988242,-0.0048531976606929,-0.0052914583576277,-0.0049947757630565,-0.1722797895031841,0.2476837212200149,-0.0735824989445354
1718275665569206640,-0.0049070508045013,-0.0053246801806784,-0.0044554049891047,-0.1712712440317232,0.2473703188339277,-0.0745907385032744
1718275665570453152,-0.0046712912213559,-0.0052780119047221,-0.0040671306636692,-0.1706682327685169,0.2470416036537659,-0.0755216554813418
1718275665570461207,-0.0044819372155161,-0.0051946600556149,-0.004061793456202,-0.1709476689047458,0.2467475088915061,-0.0761796692254745
1718275665571587690,-0.0042259630750018,-0.0051058294140281,-0.0035194120129134,-0.170679949004703,0.2464756046558551,-0.0767411594763385
1718275665572791316,-0.0040810904956324,-0.0048983604848058,-0.0033801500813105,-0.171432720849767,0.246263901097457,-0.0770549256778219
1718275665573979588,-0.0040673228791917,-0.0047607728526361,-0.0034051848453246,-0.1722588049613017,0.2455431225352505,-0.0780501654685084
1718275665575200383,-0.0047259374529247,-0.0049843830277631,-0.0031874520684771,-0.1719297572910638,0.2447274690110307,-0.0773415044483265
1718275665576414719,-0.0051608155600283,-0.005105572461297,-0.0031026931164407,-0.1719181452792648,0.2436964493532548,-0.0769011012802181
1718275665576431190,-0.0056063451086342,-0.0051168618092872,-0.0030334650564446,-0.1720546424126587,0.2427085634995619,-0.0762653957661448
1718275665577915181,-0.0057443813331792,-0.0048700203381701,-0.0030872182396479,-0.1729982706528554,0.2420959698622002,-0.0762738847689333
1718275665579165428,-0.0058370467145128,-0.0047517995984335,-0.0029599950786624,-0.1734354650380894,0.2417373951944964,-0.0766672316857706
1718275665580375075,-0.0061963244298112,-0.0043211799444484,-0.0028715863821271,-0.1744167827561158,0.2410765536804841,-0.0764419330802054
1718275665581608165,-0.0064641260871252,-0.0038404681640079,-0.0028854895861163,-0.1757509248877246,0.2406707854747212,-0.0761775049688444
1718275665581616530,-0.0065653459299037,-0.0034670654425328,-0.0025465984459691,-0.1761626809007526,0.2407101261027734,-0.0765584685028946
1718275665582825568,-0.0066725372661111,-0.0032442604659805,-0.0022340123095739,-0.1763400772879985,0.2408594674633298,-0.0767099212787689
1718275665584048124,-0.0069422404829022,-0.0028999322060869,-0.0021500453863789,-0.177285288109839,0.2409909135353623,-0.0774149014795435
1718275665585263681,-0.0073611318793655,-0.0027315891514201,-0.0018835551004879,-0.1776131149534338,0.2407294385453036,-0.0777691375665318
1718275665586496778,-0.0076892381455799,-0.0026452046874236,-0.0015311976071271,-0.1776342227748788,0.2406862792072649,-0.0778438670547095
1718275665586506602,-0.0075828933758949,-0.002459655946509,-0.0013450246504684,-0.1779076935798129,0.2406142728985149,-0.0786698908667294
1718275665587727785,-0.0076020578426459,-0.0021552453877047,-0.0010838160715381,-0.1786415477486902,0.2405885709374507,-0.0791495876524613
1718275665588941261,-0.0077541813513614,-0.001688992768156,-0.000862735969327,-0.1798464044547223,0.2404576137839015,-0.0795084260979841
1718275665590245442,-0.0079467857212326,-0.0011784105334949,-0.0004934848313278,-0.1809744040299791,0.2404768849823413,-0.0800148934041483
1718275665591518300,-0.0078308623764512,-0.0007443512840015,-2.8183975102798187e-06,-0.181859755852114,0.2405597674899793,-0.0815603684733906
1718275665591525524,-0.008033732227916,-0.0001360634855801,0.0001065867837767,-0.1837195174117988,0.2405854294197334,-0.0816876930233732
1718275665592782906,-0.008537194404341,0.0007152767958576,-0.000109392285277,-0.1868248997359852,0.2405807428889705,-0.0824883364163411
1718275665594035529,-0.0088561218952611,0.0012633566641348,-1.2537978080595646e-05,-0.1888851165305169,0.2405719046261338,-0.0832916450639325
1718275665595441505,-0.0088002728768069,0.0018083190113485,3.743604069456757e-05,-0.1911454864374081,0.2404214413195471,-0.0853742448757354
1718275665595450925,-0.0087076252608624,0.0021499241274769,-0.0001281546753359,-0.1931644211075749,0.2403498616824378,-0.087064055263081
1718275665596705033,-0.0086820759330458,0.0027475728833077,-0.0003282772753244,-0.1959720171866777,0.2402403643301775,-0.0879894164242099
1718275665597912854,-0.0085855697768459,0.0032257540501659,-0.0004190123416006,-0.1982246746404457,0.2403455661759466,-0.0885568626119251
1718275665599084644,-0.0089943564270672,0.0039258055014088,-0.0007670208280423,-0.2012795824061554,0.2399332846999559,-0.0880012127210088
1718275665600345163,-0.0095635478963251,0.0045060395404276,-0.0009461579483994,-0.2038272997853339,0.2397217331168327,-0.0866790630870759
1718275665601564930,-0.0097561774740547,0.0051410706311683,-0.0006396988236513,-0.2056147664491355,0.2402608777265225,-0.0854409123442093
1718275665601584551,-0.0099603288615378,0.0058451458666416,-0.0007511452072366,-0.2081743736109536,0.2404824358266581,-0.0842986216777736
1718275665603133035,-0.0102831160261295,0.0065105215318963,-0.0006846116750995,-0.2100295004607315,0.2406767723453952,-0.0828565468738437
1718275665604429485,-0.0105834883287773,0.007027938199221,-0.0003126742136679,-0.211115899660831,0.2408232962069407,-0.0818071347378621
1718275665605774000,-0.0107992575437768,0.0075274621588516,-0.0001416343728683,-0.212438738265494,0.241461653521137,-0.0806978341491179
1718275665605782357,-0.0107855975524005,0.0079568332106998,-1.7121548794907238e-05,-0.2136262519281971,0.2425061684357669,-0.0795367724978322
1718275665606981310,-0.0110191028017067,0.0082041038601793,0.0003610226969835,-0.2137497607559498,0.2432982332332546,-0.0772609591358729
1718275665608190142,-0.0110102160205678,0.0082498028447406,0.00102482429106,-0.213063663265166,0.2438368847529339,-0.0754446512352106
1718275665609563780,-0.0111201586781396,0.0080683157769944,0.0017995978498322,-0.211395277240412,0.2443243823100498,-0.0736344300522355
1718275665609575496,-0.0113766376321925,0.0080590033787125,0.002275438961069,-0.210685891923861,0.2443088630498148,-0.072420388109593
1718275665610928124,-0.0118543082963049,0.0082084286793462,0.0019766124992819,-0.211594562781297,0.2442028269016616,-0.0710849438673768
1718275665612157301,-0.0122854520952785,0.0086000299799716,0.002027365123966,-0.2123994061565417,0.2439914842389643,-0.0702403582278546
1718275665613464694,-0.0126112124119081,0.0087325613911218,0.0020547313749615,-0.2127779345743917,0.2437696832728834,-0.0693192824179914
1718275665613481300,-0.0125795598669776,0.0088521101505465,0.0020146345783985,-0.2130516306691994,0.2439625210333614,-0.0691431442172278
1718275665614609841,-0.0127145764627336,0.0090081242207313,0.0019070498423608,-0.213534615288711,0.243982804469231,-0.0681113316698536
1718275665615894868,-0.0126861200939833,0.009180124741687,0.0020966880192158,-0.2135369580314444,0.2442467787723968,-0.0670794022256447
1718275665617893872,-0.0127314179975037,0.0092218011107962,0.0024155601778978,-0.2128785240556937,0.2441123021249663,-0.0666056048590962
1718275665617911740,-0.0125350727903393,0.0089992771634813,0.003065852298933,-0.2111472721749767,0.2439500330600157,-0.0670589338679872
1718275665619063755,-0.0122676942448799,0.0087848561921056,0.0035122828269448,-0.2098088930255773,0.2436207699930974,-0.068280077409325
1718275665620280637,-0.0119575394835088,0.0088393396731257,0.0031245579488869,-0.2107590344194586,0.2430078872149163,-0.0697934206282028
1718275665621680494,-0.0118676206538911,0.0086528222515068,0.0031790720716265,-0.2107782494637703,0.2425558133269882,-0.0712216785803512
1718275665621691461,-0.0117437003674803,0.0084430190588428,0.0032152880443143,-0.2104740714079045,0.2422811468098609,-0.0721107563507257
1718275665622852072,-0.0117139216774834,0.0081287296550843,0.0031523431004017,-0.2099673142164726,0.2419930895478999,-0.0730896622577396
1718275665624150118,-0.0116251763342899,0.0077118367320653,0.0030341607717691,-0.2092763845191443,0.2417267056468067,-0.0730556334624362
1718275665625613357,-0.0115719000901537,0.0070260969246098,0.0029605712974657,-0.2078925030412961,0.2411386705479458,-0.0733665548644172
1718275665625630517,-0.0113103519820572,0.0063334326699897,0.0030944244588667,-0.20604656370958,0.2408167473705169,-0.073293348124821
1718275665626748172,-0.0113158780532212,0.0056058865377032,0.003335676362186,-0.2038986341947658,0.2402072908463334,-0.0733867614165506
1718275665628978025,-0.0110163452645229,0.0049739233435726,0.0033490542644758,-0.2021991145661995,0.2393618471278938,-0.0739783232957495
1718275665632663144,-0.0107899175089483,0.0044629825537298,0.003252154943233,-0.2009960106831359,0.2384051894367457,-0.0749631774788299
1718275665632676594,-0.0108107287862224,0.0042599667359523,0.0029090277394327,-0.2007118781637666,0.2374158316034204,-0.0752487457549251
1718275665633990664,-0.010894660927292,0.0036829495056256,0.0029364315370903,-0.1990648985946818,0.2365964011715547,-0.0753792615056615
1718275665634016934,-0.010926421803106,0.0030689425223177,0.0029007615961281,-0.1973422757417304,0.2358255100377678,-0.0754045717808634
1718275665634033583,-0.0109690886785054,0.002350661445788,0.0027631755755175,-0.1956047195129729,0.2349800865952719,-0.0758461618152272
1718275665634065285,-0.0110337408766455,0.0017140350889267,0.0024662065432121,-0.1945630884274998,0.2336514827703254,-0.0771379882490418
1718275665635021135,-0.0114558029343611,0.0009916977171677,0.0020345079833583,-0.1934479244366323,0.2322082525552252,-0.0774685283167545
1718275665635946164,-0.0114298158394899,0.000230367922719,0.0016156146470825,-0.192221835606006,0.2310190731079824,-0.0792366373544713
1718275665637182307,-0.0116157612390154,-0.0007272692805531,0.0011531101716964,-0.1906465855122168,0.2300839724741472,-0.0798395719653408
1718275665638418557,-0.0116627257745135,-0.0017010715598993,0.0006193270522834,-0.1890858178076975,0.2293352489977765,-0.0808939195891227
1718275665639610529,-0.0117574937818614,-0.0026488041689961,0.0001752608478218,-0.1877612384089657,0.2285966825062579,-0.0816966611432888
1718275665640867703,-0.0118714195191943,-0.0037152499910027,0.0002342482888498,-0.1853609363097838,0.228023439260742,-0.0827235707262289
1718275665640879259,-0.0122624926087144,-0.0047691306247661,0.0001347546200457,-0.1830662604369154,0.227485920543202,-0.0825914118169592
1718275665642104341,-0.0125393648760387,-0.005878078010677,-7.489981814499252e-05,-0.1807592506227665,0.2269647137723554,-0.0827350888174901
1718275665643310949,-0.0126173092769179,-0.0070026815593588,4.395591042094527e-05,-0.177960711748692,0.2266066392231299,-0.0830993864930591
1718275665644543616,-0.0123825829809037,-0.0079212689958807,-0.0001937755427894,-0.1762419858661212,0.2263106687636923,-0.0844826268959761
1718275665644554697,-0.0123188253444802,-0.0087617307097697,-0.0005694656756061,-0.1749985707659894,0.2254585213188152,-0.086417596879984
1718275665645750502,-0.0119740997210251,-0.0093179134125396,-0.0014001533634747,-0.1751950017998165,0.2246360158945557,-0.0890435859433058
1718275665646981020,-0.0116361464164337,-0.0101533635069497,-0.0021662123992903,-0.1746800667200508,0.224642531985385,-0.0907685549995623
1718275665648203543,-0.0113063156172784,-0.0109687670434552,-0.0031165968023814,-0.1742824813225688,0.2247235655372459,-0.0922957348147133
1718275665649433244,-0.0109994080305528,-0.0117625378187284,-0.003743654644708,-0.1736229921205788,0.2248398339954532,-0.0943815273928092
1718275665650671118,-0.0107422401193355,-0.0124692705603063,-0.0043283316780373,-0.1731628396262005,0.2243100036995279,-0.0963300304835172
1718275665650697701,-0.0106706972412704,-0.0129239985344406,-0.0049965195325669,-0.1732638726172708,0.2238908385690917,-0.0976659816959588
1718275665651872748,-0.0110932230053423,-0.0133537342396565,-0.0053041876150263,-0.172951327534503,0.2235726915183548,-0.0972944161428686
1718275665653110869,-0.0114993688099884,-0.013797365236494,-0.0054381361686643,-0.1720887321462494,0.2236110188928342,-0.0963976619768213
1718275665654318947,-0.011894871480509,-0.0142440681417391,-0.0055822572852217,-0.1709683369600087,0.2231972885476808,-0.0959461872989506
1718275665655600852,-0.0121370397996548,-0.014666972544044,-0.0056253895189399,-0.169542144080742,0.2230035807145524,-0.0954913626918986
1718275665655612243,-0.0121923460413299,-0.0150626122748955,-0.0055161732307189,-0.167868188268432,0.2230246592397185,-0.0947771497902749
1718275665656866948,-0.0122085339736196,-0.015259701577237,-0.0056537996973381,-0.1669594503054295,0.2230540777788399,-0.0946510132361967
1718275665658018537,-0.0121592899860397,-0.0154844486590036,-0.0055577595186817,-0.1657495073924192,0.2232577949094425,-0.0945361259524776
1718275665659228558,-0.0123925713291262,-0.015771985345769,-0.0054044126745452,-0.1644424601840786,0.2229125529125208,-0.0944033715454535
1718275665660470322,-0.0124040428544086,-0.0157731674978347,-0.005301053013116,-0.1637558589052043,0.2228201703521679,-0.0942992007178314
1718275665661839171,-0.0125855852977336,-0.0156779494802606,-0.005096816769646,-0.1630900712458475,0.2229724522245501,-0.0935215496994463
1718275665661857856,-0.013126807652597,-0.0155970363514873,-0.005045633473676,-0.1626540435086931,0.2231227041803422,-0.0932131897575016
1718275665662965488,-0.0135910289636196,-0.0153511529828843,-0.0050430402251967,-0.1626905776235552,0.2232062997402725,-0.092572076302069
1718275665664244316,-0.0138515747810151,-0.0151280123132446,-0.0051187007313938,-0.1627328679279657,0.2231363074420874,-0.0920440069591531
1718275665665418494,-0.0141540206036183,-0.0149416252090106,-0.004615813381612,-0.1619616004258598,0.2235419645609468,-0.0911939662565552
1718275665666701248,-0.0144295088556763,-0.0147011721472137,-0.0042190651015103,-0.1614050986702017,0.223389693344014,-0.0914755630320638
1718275665666709690,-0.0148539259701652,-0.0144780732951594,-0.0035106407680773,-0.160304881581854,0.2232562087785369,-0.092084979335927
1718275665668417280,-0.0147958511967251,-0.0144678559633787,-0.0027432942325945,-0.1586248246447913,0.2233152927153434,-0.0932202993280437
1718275665669753117,-0.0145051080332469,-0.0143741131975254,-0.0024932908240646,-0.1581073364904235,0.2238448674601617,-0.0940889220778705
1718275665669814826,-0.0143032882604384,-0.0143778633720595,-0.0019297851762103,-0.157043096532997,0.2241845634942557,-0.094680095891881
1718275665670940280,-0.0141930621079055,-0.014409750431542,-0.0012909634853099,-0.1559254568612908,0.2243568047150304,-0.095570875357744
1718275665672149627,-0.0139505451681823,-0.0142303992684977,-0.0008553130867714,-0.1555113675571369,0.2243761791086185,-0.0970939730353942
1718275665673323273,-0.0138906993976409,-0.014259573786175,-0.0003848248457609,-0.1545723654620502,0.2244709111759069,-0.0974122005821382
1718275665674671361,-0.013800241976308,-0.0142298789983573,0.0002915102443807,-0.153279443984049,0.224439049291963,-0.097976456189313
1718275665674728978,-0.0139064487036462,-0.0139972088796914,0.0009026912917618,-0.1525959924101599,0.2244818829689719,-0.0979916549469827
1718275665675791390,-0.0141224979762803,-0.01345562932814,0.0012521690385003,-0.1528433297144842,0.2239155618717328,-0.0980759437807064
1718275665677043228,-0.0141821355876263,-0.0130692438895368,0.0016706201172543,-0.152898147772492,0.2234304230035949,-0.0980909642220029
1718275665678353534,-0.0142400067904379,-0.0126864673616439,0.0018640026171245,-0.1533894867937072,0.2236119034046492,-0.0972885200678855
1718275665679584951,-0.013962469033403,-0.0121795291577834,0.0021898677373418,-0.1539410656054478,0.2236329176395464,-0.0965984644489159
1718275665679603953,-0.0136543080713419,-0.0118148407122354,0.0029534714909682,-0.1537293796628599,0.223814171046003,-0.0959482506608821
1718275665681133957,-0.0136876964048581,-0.0113804990130471,0.0034784187695701,-0.1538814639616908,0.2233500044779416,-0.0945582118161131
1718275665682363846,-0.0134633501121824,-0.0107116737609584,0.0035378635941443,-0.1554365605680913,0.2230136881601699,-0.0932097970034288
1718275665683653363,-0.0132869047574981,-0.0101438690993189,0.0034054912371643,-0.1572244046017626,0.222616136960061,-0.0919446382928592
1718275665683671370,-0.0131505874001465,-0.0096386815684104,0.0036342752668999,-0.1584435782414099,0.2223794405790963,-0.0905727779897302
1718275665684786593,-0.0134221269543659,-0.0090838022052916,0.0034944485069977,-0.1603288902586669,0.2221314291315171,-0.0888297980969929
1718275665686009791,-0.0138321402655497,-0.0088543399008265,0.0033527110923332,-0.1618540543484742,0.2220041941789549,-0.0861466268673455
1718275665687252937,-0.0142854542761747,-0.0086220808987072,0.0032935759770681,-0.1634639606625774,0.2218587889505751,-0.0837935960966823
1718275665688476430,-0.0147400903502034,-0.0085255795611312,0.0034880064231333,-0.1642074161821179,0.2213068642835729,-0.0826005854289234
1718275665688490591,-0.0150396345910466,-0.008542275365726,0.0037814805213651,-0.1645363159172609,0.2204421129443039,-0.0820487878513246
1718275665689623593,-0.0152500370070534,-0.0084404212765315,0.0036259067811053,-0.1660251602706243,0.2198218335433554,-0.0813655621357
1718275665691601070,-0.0155908225008411,-0.0081118339698674,0.0031226438723597,-0.1688441017193007,0.219388229625543,-0.0804694472641052
1718275665692905613,-0.0155065607977593,-0.0077650647283703,0.0029424599487485,-0.1710656620786454,0.2192407913903034,-0.0796997437975553
1718275665692917957,-0.0156207974396235,-0.0074744936309908,0.0026168772384205,-0.1733210981771771,0.2185289446462741,-0.0793707242652832
1718275665694141650,-0.0154409605386111,-0.0071158668984608,0.0018092235341843,-0.1763857099178929,0.2180206660527973,-0.0793120957851152
1718275665695329995,-0.0152832120333297,-0.0069821006306248,0.0009729019974044,-0.1790884153620366,0.2170801041611559,-0.0799057120292571
1718275665696573865,-0.0153232888455961,-0.0067174130327974,0.000438908841159,-0.18157607492452,0.2164797410517912,-0.0803001740530317
1718275665696605424,-0.0152885433757763,-0.006138511426153,-0.0001334944702357,-0.1847375176455169,0.2160811326686685,-0.0801888697150724
1718275665697765934,-0.0152736013681966,-0.0056024769814853,-0.0005394469768734,-0.1875474305959373,0.2154459821757741,-0.0805333465482305
1718275665699001926,-0.0155421278198884,-0.0050668566688898,-0.0010435618106349,-0.1903663309219673,0.2146029739689086,-0.0803301005629601
1718275665700242392,-0.0158142010958624,-0.0045371685338185,-0.0017052599871219,-0.1932200002194475,0.21356684780028,-0.0801656871285558
1718275665701441643,-0.0161296429429502,-0.0041185506403027,-0.0020776196333669,-0.195250386816367,0.2124520539671321,-0.0795949948277441
1718275665702830394,-0.0165364535682974,-0.0038016842367248,-0.0023297041821676,-0.1966715122931725,0.2118618970377994,-0.0780975127556892
1718275665702845853,-0.0162701892334101,-0.0034765807832821,-0.0026392101614689,-0.1979011128196336,0.2116726619917067,-0.0775187736141014
1718275665703959063,-0.0165524088386834,-0.0032210020089218,-0.0029511261677126,-0.1992489142863318,0.2112400718598792,-0.0765750990178859
1718275665705744683,-0.0168010704186208,-0.0028523740272554,-0.0032410159805161,-0.2007423262597879,0.2106345466656624,-0.0762268717624017
1718275665705762665,-0.0168814698132582,-0.0025172793008892,-0.003258368189661,-0.2017362627262275,0.2105533520637312,-0.0768245092780217
1718275665706879731,-0.0171045272588584,-0.0022246146623261,-0.0030248013105606,-0.2022006315692877,0.2108738845540723,-0.076368841149976
1718275665708123443,-0.0172545819550046,-0.001827521469272,-0.0033123924803794,-0.2037432663323276,0.2112055517248367,-0.0759910350679538
1718275665709331787,-0.0175626252520923,-0.0015117510829988,-0.0031970148512119,-0.2044428208940412,0.2111133513218967,-0.0755502894798597
1718275665710542421,-0.0179759827579519,-0.0012944458822016,-0.0027092132474441,-0.2045313386043639,0.2113354389054706,-0.0745261780090456
1718275665710566149,-0.0181476780445134,-0.0009291232622502,-0.0025049613272362,-0.2052993035753707,0.2115243601591354,-0.0746865090818259
1718275665711870199,-0.0182882487157869,-0.0006259041036042,-0.0025146094874529,-0.2060504142643174,0.2117743672073762,-0.0748021341303537
1718275665713086307,-0.0181412693898416,-0.0004622339659624,-0.0023596566221303,-0.2061948811047261,0.2126081588683623,-0.075004722884859
1718275665714326111,-0.0176977660648295,-0.0006447806808838,-0.0019084525095548,-0.2048879952111952,0.2138006202603937,-0.0753089554484771
1718275665715597575,-0.0173767202815218,-0.0005153861835438,-0.0013457521664571,-0.2041812176228646,0.2150290322492186,-0.0758044747406437
1718275665715623267,-0.0169930332811431,-0.0002760096624598,-0.0007228673399775,-0.203645789882711,0.2158512838798955,-0.0765252752724253
1718275665716795376,-0.0167150211106852,-0.000208788207071,1.6903842365890986e-06,-0.2025752349401641,0.2165354440530044,-0.0774079841501493
1718275665717999804,-0.0165872331041965,-0.0003005451591431,0.0003607693504039,-0.2017799836499153,0.2169449089333668,-0.0775425408060555
1718275665720188593,-0.0160298676738594,-0.0005049299609437,0.0012114911752833,-0.1997843534629978,0.2177655510751279,-0.0787732803652281
1718275665720205424,-0.0154781882510606,-0.0005763887894065,0.0021332206622341,-0.1979141122603895,0.2182773283491706,-0.0802235516891871
1718275665721189026,-0.0152367883456764,-0.0006861876770268,0.0030004980446454,-0.1959798469747609,0.2185398639911377,-0.0810960166965397
1718275665722475787,-0.0150225018111903,-0.0008383874581539,0.0038089100569664,-0.1940271569158315,0.218726536061509,-0.0819428779020604
1718275665722521571,-0.0150262865086444,-0.0011588975560314,0.0046292880980403,-0.1916600812391796,0.2189048593279573,-0.0819704802222378
1718275665723665532,-0.0149378122930528,-0.0013964228182553,0.0054929357588713,-0.1892314683233365,0.2191324455223504,-0.0822913110945507
1718275665724804383,-0.0149511150912331,-0.0016490264135539,0.0065821340717781,-0.1863039267658404,0.2188797542824482,-0.0830901827035341
1718275665725998884,-0.0150335365879247,-0.0016900899827866,0.0072213078812246,-0.1844175933281197,0.2186662165185715,-0.0829874038512678
1718275665727255475,-0.0153991549527636,-0.0018599892463347,0.007785631787019,-0.1823080019685476,0.218600959276961,-0.0831093953657252
1718275665728466448,-0.0159756232645004,-0.0019198931041743,0.0083469701578891,-0.1806330391862687,0.2180171584446033,-0.0824666231166327
1718275665729806733,-0.0164610177554202,-0.0019809751947223,0.0089736907950969,-0.1789545286742933,0.2177961078243862,-0.081906293247906
1718275665729817146,-0.0171071462555793,-0.0019188395020739,0.0093901903629238,-0.1778206499203722,0.2177616952391457,-0.0806920716961923
1718275665731022165,-0.0175892011999979,-0.0018330682630624,0.0093784577603377,-0.1775153688029674,0.2171300778205887,-0.0799680472471944
1718275665735130577,-0.0178996426867636,-0.0020161958466058,0.0094936280302077,-0.1763735105846067,0.2168180360722868,-0.0789006682787243
1718275665736643714,-0.0183609593071424,-0.0023300061053451,0.0096296930271404,-0.1749162850437349,0.2163037182224062,-0.0780062800927779
1718275665736697462,-0.0191244700430486,-0.0027184732520321,0.0100932593930025,-0.1727973953237224,0.2155878074215561,-0.0775337592932787
1718275665736713888,-0.0194139064013232,-0.0030958326329615,0.0108430053422512,-0.1702740768795022,0.2152088281936243,-0.077633688478574
1718275665736740417,-0.0192630354042864,-0.0032151789479868,0.0114114928802792,-0.1686005534451092,0.2148766820205893,-0.0788489034078079
1718275665737795910,-0.0192099166251525,-0.0037278916304879,0.0119665190013571,-0.1662576230552984,0.2143672499423379,-0.0797266780790394
1718275665737810888,-0.0189048396104972,-0.0043801558057878,0.0122675276061054,-0.1640793288468076,0.2142863281632721,-0.0814037515088852
1718275665739123275,-0.0185415974608428,-0.0052303545188561,0.0126199017894073,-0.1611425805733741,0.2139419392447302,-0.0831386283848699
1718275665740357124,-0.0185250054418791,-0.0061491915068214,0.0126831614618449,-0.1588314492456019,0.2138921430978098,-0.0847748208797413
1718275665741627388,-0.0185083506239307,-0.0069365271361943,0.0127269822137599,-0.1567504959747309,0.2134644310134916,-0.0866546466550303
1718275665741638718,-0.0187888146043717,-0.0076402259575116,0.0123085459759122,-0.1556298357597301,0.2126844678602003,-0.0877349166940041
1718275665742765843,-0.018899066142561,-0.0085259445683827,0.0118591157544809,-0.1542942121790353,0.2123820461886248,-0.0879901773384295
1718275665743991918,-0.0188720620559973,-0.0094382287518609,0.0116181483862477,-0.152550778100603,0.2125081998458174,-0.0888449586190319
1718275665745203583,-0.0186047835791329,-0.0101878769392588,0.011195346637986,-0.1512178498175346,0.2128476306540894,-0.0900747962884511
1718275665746414574,-0.0179756906882636,-0.0108023395559298,0.010520308007712,-0.150692919122383,0.2132074813465925,-0.0918770536349477
1718275665747640568,-0.0173975463367051,-0.0112930254240236,0.0097547716668327,-0.1506729125756199,0.21299205797721,-0.0943232166322694
1718275665748968368,-0.0170921196029846,-0.0114802518686354,0.0088077350036236,-0.1514474660742408,0.2124220273466294,-0.09704782489903
1718275665748977998,-0.0168662299396458,-0.0117988601099394,0.007804453225708,-0.1521519508602711,0.2116862529756566,-0.0997094788837656
1718275665750186332,-0.016796481025679,-0.0122339083427081,0.0069654431986238,-0.1523782442217939,0.2109903128319482,-0.1018521005153042
1718275665751405363,-0.0164762586344147,-0.0127601638390243,0.0057822620108662,-0.1528340077316182,0.2107589996120898,-0.103248689235205
1718275665752652007,-0.016238928990922,-0.0132892343256916,0.0049327500885469,-0.1526671734242323,0.2103835057599944,-0.1055228622515543
1718275665752658584,-0.016093564853078,-0.0139712124374511,0.0044297424341663,-0.15187794132098,0.2094941894212496,-0.1076822935635034
1718275665753794086,-0.015639827155347,-0.014354413521587,0.003459630873421,-0.1525907932347988,0.2087176794123359,-0.1101132993027971
1718275665755002307,-0.0151045601742958,-0.0149097818141491,0.0026277410745791,-0.1529900633720892,0.2080740733633268,-0.1123547090280406
1718275665756207265,-0.0145351017366391,-0.0154926793893445,0.0019141336621126,-0.1532334520163706,0.207478018792299,-0.1142247411902621
1718275665757459732,-0.0140597519782649,-0.0160106494628195,0.0011940058953109,-0.153509075577865,0.2068812646406803,-0.1155103550642961
1718275665757470604,-0.0137290986897068,-0.0164557126371905,0.0006120931019717,-0.1539048767822056,0.2062498481663647,-0.1165943774077333
1718275665758629668,-0.0133777695320287,-0.0167877875808916,-4.04759030540186e-05,-0.1547341315209136,0.2057976700158105,-0.1165540277050198
1718275665759976922,-0.0130257579923345,-0.0168555073489061,-0.0006528545449126,-0.156142119377617,0.2048816998024341,-0.1163264430355486
1718275665761156329,-0.0127585321000893,-0.0170310922490417,-0.0010959740275591,-0.1569826552279659,0.2042576600434311,-0.1163410441742035
1718275665762353088,-0.0126652462681566,-0.0171195214964459,-0.0017462900461097,-0.1585085284049904,0.2036838223729812,-0.1159062437800474
1718275665763663603,-0.0125628220851111,-0.0173715527073719,-0.0023634139198555,-0.1596158476064639,0.2031921738226846,-0.115565307372151
1718275665763671697,-0.0125356064593992,-0.0173770344058157,-0.00275724349579,-0.1607691843852038,0.2028745231800902,-0.1147094841664543
1718275665764797802,-0.0128935720421729,-0.0176381696206641,-0.0028666721495731,-0.1608902475217521,0.2023436233819247,-0.1130236449678301
1718275665766083660,-0.0128281819350622,-0.0176088106775924,-0.0030544498736994,-0.1614970037526953,0.2015294942900525,-0.1126742440445475
1718275665767249023,-0.0129245787734794,-0.0176895549555868,-0.0034700394069308,-0.1623892323651961,0.2005369207411028,-0.1120961485029917
1718275665768480078,-0.0129890406324645,-0.0178741114041255,-0.003625453812139,-0.1626262099302599,0.1994202439929364,-0.1119130502562764
1718275665769715786,-0.0131243467454213,-0.0180062596527925,-0.0035655365838318,-0.1624037101280372,0.198192248229133,-0.1118704673984941
1718275665769722191,-0.0129438485083099,-0.0182406974610733,-0.0033136223231696,-0.1616310706875956,0.1976046526967313,-0.11286215111781
1718275665771229062,-0.0127353687538642,-0.0183023599298896,-0.0030819389411672,-0.1611980168380197,0.1974473498308329,-0.1133601330969361
1718275665772433252,-0.0126359924278651,-0.0180554655137656,-0.0032170611457148,-0.1621156181352084,0.1969490013642862,-0.1142524626539633
1718275665773744617,-0.0127684118414467,-0.0177625011147054,-0.0030999937147533,-0.1631172940734383,0.1966528533702272,-0.1142507493116322
1718275665773757430,-0.0130851232466847,-0.0172416139765915,-0.002668800627922,-0.1639549104883274,0.1959968064649538,-0.1137547434661044
1718275665774942723,-0.0135144292943847,-0.0167500584536264,-0.0024572001656786,-0.1649994446129663,0.1955432149226253,-0.1127678976911488
1718275665776170665,-0.0139001915152577,-0.0163260605153642,-0.0021195469795133,-0.1657614292875433,0.1952935108640173,-0.1114259238007105
1718275665777373211,-0.0141156593282047,-0.0158174302766652,-0.0017794019672227,-0.1666319303607923,0.1950590255396014,-0.1107559968418499
1718275665778639350,-0.0144006799086327,-0.0153235705662457,-0.001509876867795,-0.1674493107844404,0.1948471974366507,-0.1097363634292476
1718275665778645903,-0.0145812146633903,-0.0149149919488314,-0.0011144335466637,-0.1679963662153173,0.194350806665128,-0.1098571096686563
1718275665779771863,-0.0143927034624084,-0.0144536184820329,-0.0010216809925634,-0.1691895341936778,0.1941295790996998,-0.1098371611462347
1718275665782348223,-0.0143454909004332,-0.0139908671865031,-0.0009883171677604,-0.1705025090738385,0.1939675900416086,-0.1094270868585062
1718275665784009220,-0.0142369538057806,-0.0136430707638577,-0.0007356641843574,-0.1711992731935425,0.1940552678211784,-0.1087159921284671
1718275665784084491,-0.0143160346767661,-0.0131195175769386,-0.0007219307797508,-0.1725799797688322,0.1940026425308502,-0.1083004075362644
1718275665784119040,-0.0146452193731472,-0.0125004474591004,-0.0008340387199444,-0.1742370361388857,0.1939978455543107,-0.1072023747363224
1718275665785742355,-0.0150082152743965,-0.0119145750049346,-0.0010226061589172,-0.176138338373828,0.1939950448799,-0.1057776537531305
1718275665785760641,-0.0152501545271908,-0.0114007422057964,-0.0011319779227426,-0.1779833674651846,0.1940996629166874,-0.1046750578172505
1718275665786908606,-0.015278183318095,-0.0107218738221045,-0.0014071040476315,-0.1803137916118717,0.1943274604525205,-0.1036261011223327
1718275665788152712,-0.0154194885076477,-0.0100099206937768,-0.0014625708461308,-0.1825423201347031,0.1940208142548161,-0.1029980254125303
1718275665789339010,-0.0156088705229484,-0.0093306985168006,-0.0016603471407335,-0.1848692571103525,0.1933966751160785,-0.1032376528167301
1718275665790706539,-0.0159152766765494,-0.0086326672357004,-0.0019195688923137,-0.1872184904847044,0.192545603400024,-0.1035356863137345
1718275665790725672,-0.0163166125247208,-0.0080973049133852,-0.0020749182354059,-0.1892347372740329,0.1915170449564925,-0.1040337875281945
1718275665791806661,-0.01656117616523,-0.0074510620812997,-0.0023887251961984,-0.1917127694604319,0.1909560590260163,-0.1042712594280823
1718275665793022736,-0.0167309349609525,-0.0068042308049118,-0.0022692414797491,-0.1934520945486167,0.1901754739674137,-0.1042694157850912
1718275665794246552,-0.016841572353892,-0.006370162131451,-0.0020748630586128,-0.1946056577113608,0.1898812911123786,-0.104787790848358
1718275665795463233,-0.0167136783173659,-0.0057942117856102,-0.00181201846738,-0.1959130206335673,0.1897473372613179,-0.1050249983258972
1718275665796765018,-0.0170587163485486,-0.0053586198230167,-0.0015379881384011,-0.1965789622114543,0.1892042514797869,-0.1045553788795329
1718275665796784967,-0.0174739581166431,-0.0050512550814478,-0.001036206199328,-0.1964103246282957,0.1885671514579091,-0.1042228349353811
1718275665798005752,-0.0176854067805988,-0.0049600268077653,-0.0008770590421625,-0.1962717007161131,0.1884178652254212,-0.1034796665411527
1718275665799302173,-0.018013709767898,-0.0047424450050275,-0.0008885278869137,-0.196590232646413,0.1883421543302401,-0.1028148905143254
1718275665800704125,-0.018231919879888,-0.0047587723580151,-0.000252364601857,-0.1955520304149468,0.1885428021973536,-0.1019260779802405
1718275665801750660,-0.0184766136436194,-0.0048109675546902,0.0002182751407544,-0.194583350980259,0.1888023361253757,-0.1021328957792747
1718275665801762061,-0.0185347370164025,-0.0048459907186698,0.0005613539174811,-0.1935804364315247,0.1890964929106238,-0.1020806864012464
1718275665802936988,-0.0185674613970968,-0.0049089517290574,0.0008885037277761,-0.1927159549355797,0.1889152730024381,-0.1015274476706838
1718275665804257179,-0.0182556015877966,-0.0051105755967291,0.001510934730863,-0.1910709851299726,0.1885837776311539,-0.1027005108651041
1718275665805502474,-0.0180353895506935,-0.0051341448476034,0.0022117371879217,-0.189794660671446,0.1884592872569462,-0.1033139824858842
1718275665805528422,-0.0178612721250395,-0.0051209871393464,0.002922908390757,-0.1884077220725886,0.1879667759905195,-0.1039530653795146
1718275665806736615,-0.0177872801883892,-0.0053213100839713,0.0038451859770759,-0.1860863800966933,0.1868756406192405,-0.1050107024191117
1718275665808131456,-0.0176926824880198,-0.0053535012392231,0.0045260345873439,-0.1845658281179817,0.186015952775099,-0.1053094620173516
1718275665809425351,-0.0176317120056806,-0.0055417581143918,0.0050045188515491,-0.1830852634558707,0.1852721270091993,-0.1062044362114283
1718275665810746747,-0.018017311349827,-0.0057818068732757,0.0055138160748477,-0.1812300036527619,0.1839977636035293,-0.1063910075933141
1718275665810752813,-0.0182458619401311,-0.0057717283278411,0.0057228511718587,-0.18035780881676,0.1823251212224388,-0.1070740321507162
1718275665812000926,-0.0184220304367984,-0.0060518541857411,0.0063204878674717,-0.178338162495662,0.1812630607056768,-0.1075865765883535
1718275665813244126,-0.0182593371102728,-0.0059862225503959,0.0064850898220375,-0.1780293142003984,0.1799243155588709,-0.1084597390702642
1718275665814614529,-0.0180082735035315,-0.0057829710927135,0.0063595394531002,-0.1785969017512415,0.1790478801643302,-0.1100157932522753
1718275665814635347,-0.0179374075551048,-0.0057973948786508,0.0064393838333388,-0.1781435972850561,0.1780359059785426,-0.1116352862057775
1718275665816072080,-0.0179107697192176,-0.0060032891611545,0.0064172606190746,-0.177350875542557,0.1764850358048797,-0.1137394737952368
1718275665817260858,-0.0179631723989252,-0.0062481322715793,0.0065372319586421,-0.1759810145900691,0.1746095432369684,-0.115925526656274
