%time,field.linear.x,field.linear.y,field.linear.z,field.angular.x,field.angular.y,field.angular.z
1718275665381446589,0.1676145608301416,0.5000884251893367,-0.0786938078775927,-2.253438088375289,1.1650864972553825,1.3878071405313717
1718275665382627951,0.1261058352774354,0.5152994998300655,-0.1021218273662167,-2.3464428182840664,1.1722979977967236,1.4333960436305957
1718275665383886743,0.0800284763342397,0.5240317237975122,-0.1132238473244428,-2.356006946306277,1.322301722524025,1.644559662504317
1718275665385109073,0.11471990187998,0.5472654471133562,-0.11672268904619,-2.370532365587351,1.288102967633512,1.4312057092406971
1718275665386351042,0.0943001893822112,0.5516286300390142,-0.0825159757473134,-2.344824299523914,1.1270876755528128,1.373398952903999
1718275665386361105,0.0840556778444445,0.4880352361984713,-0.0784765971688552,-2.211269497526774,1.1852638374501974,1.3542305466874005
1718275665387577643,0.0613721616998226,0.502797510536462,-0.0335587120615769,-2.0877649144617743,1.1407006211383104,1.385732791475835
1718275665388802045,-0.0099228638102814,0.4589239213385291,0.0560275765510445,-1.8509961280033589,1.159927610225557,1.5950153474820403
1718275665390027017,0.0060642378030223,0.4911012306409513,0.0248474844527607,-1.955598835201196,0.9619949105632246,1.4391878890047836
1718275665391217733,-0.0798803388327403,0.5524225543958434,-0.0522898250541256,-2.231155562234615,1.022792156973604,1.5170833216666737
1718275665392507113,-0.0300413090469754,0.5121320499904906,-0.0928485007824342,-2.148419746258582,1.038715079378977,1.2746089440853572
1718275665392523078,-0.0245819100051269,0.4715776864618126,-0.0517011578146644,-1.9779408730464427,1.0424883679576764,1.3488140010872185
1718275665393683330,-0.0056676693805054,0.4501014036449993,0.0128830212172149,-1.7928549881470508,1.180897983156075,1.406471310563974
1718275665394904086,-0.0008251674054574,0.492604082360776,-0.0776884540474205,-2.047333384458413,1.1268245972530064,1.2716091273163397
1718275665396135232,-0.0275056683261295,0.4731603947252238,-0.0423154372603918,-1.8762985251810087,1.102185533928271,1.3538676950093915
1718275665397376396,0.0613114089280166,0.456642038147852,-0.0387149487751882,-1.7815948605060747,1.3676627881736736,1.1463858224835315
1718275665397382339,0.0044707360540259,0.4843711245516806,0.0002622565380155,-1.780197069430936,1.3475407848841692,1.2907065096397825
1718275665399114896,0.0765786362332533,0.4965923613472863,0.0510718631550508,-1.6437219834779002,1.3522155547967634,1.1276990892114762
1718275665400350095,0.151360415046317,0.4213704042410243,0.1374884896868339,-1.2963582026665377,1.3296282613233483,1.0030922507804687
1718275665401543335,0.0594516054757664,0.4016639335100243,0.1062561087158106,-1.238340312771893,1.330362601893586,1.1562982883148607
1718275665401554738,0.0470725930433682,0.4171453699152226,0.0654063778020578,-1.2206633521722132,1.3263078452285082,1.1369539698403892
1718275665402761110,0.0221542030557526,0.3562081024641462,0.1192306209905418,-1.0227168751298068,1.137869615656689,1.097193057578561
1718275665403983160,0.0111294505333758,0.3786236865417884,0.066536899369096,-1.1756837333076957,1.13094597402137,0.9913178216998728
1718275665405192697,0.022354477498153,0.385951627482634,0.0579707136086958,-1.1957865769477098,1.1096026163533408,1.0419650588763134
1718275665406454147,0.0536267424532322,0.329172908852915,0.0060239197606593,-1.1403608278188675,1.0971437941808275,0.910998623671418
1718275665406476401,0.1034573584808611,0.2761184792127534,0.0445883830077926,-0.9341156420190508,1.2055981574391763,1.1123231800761602
1718275665407593910,0.0035585498685271,0.3312270745176934,-0.0408378319770043,-1.2332659402035668,1.166663610243959,1.3933420846511742
1718275665408826319,0.0011466414200518,0.3066229853837778,0.0101075276057403,-1.0962343771078928,1.110231498618507,1.4404486974089503
1718275665410032047,-0.0826903283773891,0.2644988857426381,0.1205885953432227,-0.7174248579501001,1.0708666790952068,1.5807488740711084
1718275665411219023,0.0237722645790491,0.3321658376213324,0.0493609528655238,-0.9317335059794274,1.1406198557132612,1.3921169527014
1718275665411960610,0.0068726751117677,0.3343408484726695,0.0665188249309203,-0.9242243171821048,0.9112047812291156,1.1458879888004794
1718275665413625414,0.0717475785474283,0.3275731409530309,0.0861968643852212,-0.938904345831842,0.8822762560701247,1.1666058973070002
1718275665413633689,0.065654617353924,0.2487624066951751,0.0992918217199996,-0.6883033165077733,0.8792064520715481,1.125431590382343
1718275665414907716,0.0379832808398837,0.2207940768877805,0.1436555134007145,-0.5405304152410624,0.8513451140690032,1.2370415642676118
1718275665416035081,0.0936450403012856,0.2269916171933869,0.1096231271619608,-0.6405094216182279,0.8367211747446287,1.0012728483872757
1718275665417252797,0.1821745589370651,0.2014908394839442,0.1549038585147046,-0.5252143443994202,0.8240031779032848,0.662316757756402
1718275665418516498,0.1796933082686848,0.1369095887578931,0.0492646247402132,-0.5537142345337254,0.8049889669403966,0.559045349051886
1718275665418525901,0.177259272778871,0.0634586014698387,0.0831963421425298,-0.2747043723650973,0.8081620389740414,0.5956005165187208
1718275665419700879,0.1262961204458298,-0.0452623318071741,0.1473665697568599,0.033539502087985,0.790209579545019,0.5509652693291737
1718275665420905890,0.1081520771364668,-0.0406296743864375,0.1114535191480702,-0.0599559918863725,0.6197434992867896,0.5385533019112934
1718275665422128218,0.1326920871286817,-0.01140280659227,-0.0321181123414442,-0.376802753644497,0.6268509217055186,0.184354463852789
1718275665423319580,0.1368310250033709,-0.0782377495232682,-0.040020958830432,-0.1594664700250555,0.6507671530851054,0.2218407142845727
1718275665427995734,0.1268978259550026,-0.0756614282989246,-0.0292395188294322,-0.1377995103244523,0.651713549198964,0.3058409202532794
1718275665429688366,0.1262066873014867,-0.1836167313160542,-0.0098521528435089,0.1809857389058416,0.6619852163714818,0.2717306988745941
1718275665429705338,0.1910196397863362,-0.1463424100095922,-0.0554308420196229,0.0540014248531099,0.6323588222235017,0.1701100383020722
1718275665429716566,0.2156832636123618,-0.1327029642419155,-0.030663558897636,0.0485012541173079,0.590389719485103,0.1446036380262214
1718275665429730199,0.2333501782209582,-0.1612069568007635,-0.0638394540250235,0.0875429970662262,0.5590827355445077,0.06695565583659
1718275665429739841,0.2504883677851025,-0.0891609967033321,-0.1095508802381063,-0.1690015376826587,0.6736315323889625,0.1249783375988663
1718275665430726221,0.239794107270751,-0.1402152493112443,-0.0459141252822822,0.0837398317982947,0.6198117793758087,0.1678896151333956
1718275665430752167,0.2028852609161642,-0.2051833378592511,0.0076447835945182,0.3199172303112351,0.5536510504213196,0.3214802660796188
1718275665432177076,0.112064332530015,-0.1683235175113217,-0.0341265083413805,0.185964935461949,0.507120354543329,0.53598885235345
1718275665433323301,0.1190289511405366,-0.1938102960221499,-0.0666854864215964,0.1065261448897377,0.579358337891173,0.4658820180980437
1718275665434600413,0.2345575023203169,-0.1951003615048762,0.0261336559645944,0.2247979185757937,0.7066602669937161,0.4808008305961537
1718275665435893594,0.2766785929856891,-0.2310659646683348,0.0394346559231002,0.3340480535752232,0.5941685957933368,0.3962268872263098
1718275665435922783,0.2095855543663281,-0.2269598774663146,-0.0561951058400862,0.1978197023597906,0.4076410522307024,0.5989344571776248
1718275665436762225,0.1434390587026159,-0.2093630519150744,-0.0370948016175545,0.176720886769712,0.2459722578832641,0.7099728577381677
1718275665437979293,0.1300776492736738,-0.2118296528328132,0.018864100192379,0.2461455022021191,0.3322295183655186,0.907887280593967
1718275665439165980,0.0616644827679376,-0.1452854840564477,-0.0092966791099388,0.1347481423883809,0.1930882976413034,1.0043098528005916
1718275665441389938,0.1418653242338454,-0.1747721888376918,0.1037891474812376,0.4316725034857681,0.1199001953015803,0.6406503214926026
1718275665441411877,-0.0101479381596325,-0.1815217891438803,0.0812719094984313,0.4350754339965292,0.0751844977334422,0.9378579440892348
1718275665442660121,-0.0349770174075349,-0.1315581582074675,0.0147300372509081,0.2037523078169086,0.0647522860400274,1.1088746835874457
1718275665442671031,0.0080742422353448,-0.0995240688790401,-0.0145160119035953,0.0837088715181066,0.1542550656299989,1.174278265244188
1718275665443889709,0.0733789952171945,-0.0917793466477554,0.010360431087824,0.1194643688750268,0.2185190665743531,1.1148587263808272
1718275665444998244,0.0790664288241982,-0.1390316143924976,0.0008931299545419,0.2230441251932909,0.2536468573316084,1.0216868949980202
1718275665446172863,0.0141508802839435,-0.1389207019281662,-0.0918505913640455,0.1088640040083112,0.1865682658419392,1.1336177430567922
1718275665447328817,-0.1017456992100539,-0.0981148274036897,-0.1278733576570699,-0.0935098251403473,0.0886981855031776,1.2536565326311448
1718275665448621234,-0.1159388924451724,-0.0612440501095069,-0.1326586398857737,-0.2613897647777599,0.1720480873189791,1.3719839408586776
1718275665448633611,-0.0044267508029029,-0.0838103743750851,-0.1307538579227359,-0.143193508667251,0.2463675679168147,1.124790400257513
1718275665449814246,-0.0010102066181562,-0.0811442585099119,-0.119783484299205,-0.0723889209091358,0.2666653648740238,1.1621168040340328
1718275665451077285,0.0382348938428188,-0.1623237093906362,-0.0560793117550056,0.2753770223480126,0.5186643447539272,1.0199828563304036
1718275665452259926,0.0500207350247753,-0.1516442085921407,-0.1040938102885183,0.2038512645392279,0.46343138055595,1.0010899409050305
1718275665453576993,0.0595321143091398,-0.1601927722604684,-0.0716817568562867,0.2765763156015738,0.4068572815572618,0.7761898858234958
1718275665453586424,0.0875785993824889,-0.1486915889929916,-0.060769968053319,0.2521904004610222,0.3751315521116163,0.8464689951944889
1718275665454768159,-0.0436469804858795,-0.1424279080233186,-0.1248811169666721,0.057990791657328,0.1684245826559521,1.0828484828313725
1718275665456067456,-0.0625353043021762,-0.1951040971765476,-0.0648328864605891,0.2687377607504789,0.1761679633585627,1.230166320632828
1718275665457236739,-0.134574938756802,-0.2427526747514088,-0.0800789025475996,0.3464409682636609,0.1900733231345266,1.2520513642224476
1718275665458527709,-0.0643698967255334,-0.2091634788700489,-0.0841988626366747,0.2828869171243233,0.1693554794102648,1.0634003731136716
1718275665459779823,-0.1207600535465681,-0.2159066126469926,-0.0483367414260101,0.3326071695576625,0.1683577467462296,1.0759023100363465
1718275665459795169,-0.0599763266332646,-0.1910257814077971,-0.0855661429714663,0.1606594218258427,0.1839662590232931,1.0329764735516984
1718275665461014617,0.0323496626730332,-0.1802680117388221,-0.0459355895901809,0.1450935636692765,0.1627259611230259,0.7759957115117653
1718275665462236956,-0.0241381381577404,-0.2083195677758045,0.0050576263632308,0.2192141182862816,0.1752750116257324,1.0454252335148542
1718275665464093418,-0.059411085035228,-0.1911071058506702,-0.0175456662706461,0.1721437741034122,-0.021646984584677,0.912554865335672
1718275665465414029,-0.144330505442004,-0.1664171701753749,0.0297199663554403,0.1725733646961215,0.0465099871695777,1.1674992412778686
1718275665465424345,-0.1250955177042637,-0.0998222452761815,0.0267213312732493,0.0108932569992754,-0.0691916770304387,0.9384681909079862
1718275665466699951,-0.1395800363938726,-0.1125401929166788,-0.005765660022578,-0.0013949419670334,0.0099131022728899,1.142371229702063
1718275665466715713,-0.207591816291267,-0.1460370945889495,0.0631745524121882,0.1649786462056372,-0.0700736474628154,1.0530617861449645
1718275665467799001,-0.2608213072945813,-0.0927399776266388,0.0500266865473359,0.0326199282479302,-0.1390514715603261,1.0965373622024874
1718275665469074951,-0.2927659451936812,-0.0253004843968491,-0.0799864106897489,-0.3618072292043728,-0.1680181123962687,1.0379550257074417
1718275665470262842,-0.2031436618450846,-0.0460163938996352,-0.1178954238690644,-0.4069814643247099,-0.0449237593430406,0.8959429195862936
1718275665471475589,-0.0796371750742425,-0.0452898943720833,-0.1995566419275889,-0.5616920116465719,0.056960263672637,0.6788900712748511
1718275665472715210,-0.1226841840053305,-0.0032378372037161,-0.169970704731878,-0.6052416127561442,-0.0313511756792366,0.6456916771640411
1718275665472723648,-0.158761292934277,0.007173845751049,-0.1675619323783278,-0.6059271218263254,-0.0876083702742277,0.5876246831615275
1718275665473895915,-0.2150531917696164,-0.0173522670861241,-0.1243359377486397,-0.5852600631159536,-0.1175724689612332,0.7273018634925694
1718275665475395107,-0.1631195206434689,0.0072729863936699,-0.141292925529325,-0.6715721110555128,-0.1570748506043012,0.600186229210247
1718275665476690390,-0.2228391460283143,0.0211981928370296,-0.17484884222511,-0.6608208234655049,-0.2074461038623778,0.7317790449270376
1718275665476701667,-0.1569967184127756,-0.0293312944436349,-0.1148252943111962,-0.4371158014440723,-0.0654277939070386,0.6141027797802614
1718275665478145074,-0.1233298323138697,0.0415116362515014,-0.0559857769783196,-0.4988520612427363,-0.100476705405645,0.536353836086592
1718275665479149221,-0.1633156528945096,0.0688567718924283,-0.1221574453472973,-0.6837235518758833,-0.1752157646532949,0.5350894363485921
1718275665480384893,-0.0696360002614389,0.0919155733979782,-0.1703826727112391,-0.8340107568184905,-0.0788970597783527,0.4973105210773815
1718275665481722645,-0.0967582020297796,0.1128406985822781,-0.1213946157951239,-0.7745388945537077,-0.1699173773011847,0.3926783943396997
1718275665481731324,-0.1453173901618224,0.1358809334159564,-0.1869192384850124,-0.9200240671416656,-0.2302970840164107,0.4202689846544213
1718275665482854944,-0.0955426778293722,0.1579258867753919,-0.2246079200966795,-1.0893547350218526,-0.2903967668642541,0.2919802321099793
1718275665484045792,-0.0748291454623176,0.1528288787027202,-0.1723898191017658,-0.9584604904537604,-0.3090075799037171,0.27640188921005
1718275665485268385,-0.1368897145041359,0.1435358008773614,-0.2507460739095203,-0.9892985491532256,-0.4439205503188244,0.2586817997082935
1718275665486481875,-0.1753601756829269,0.1275731486768949,-0.2350084581486889,-0.960070245623032,-0.4383156168388137,0.4265536809543928
1718275665486494779,-0.1684364991039537,0.1209599354140112,-0.1962488348959407,-0.9915031821719784,-0.3759853348336839,0.4317377626597306
1718275665487706339,-0.1727326456355608,0.1310275308233241,-0.2382957664549526,-1.0557535504469544,-0.5046070937890469,0.3815840472109064
1718275665488968646,-0.1113976584239434,0.1596693127162864,-0.188871942837361,-0.983197075421946,-0.4511962703598609,0.1463914680431928
1718275665490219173,-0.1583658337371355,0.1477431249876193,-0.0977567059376872,-0.7692264839271334,-0.4055645197696075,0.433162027158361
1718275665491435134,-0.20164101611409,0.1667637341432489,-0.1050596015799647,-0.8632998613192818,-0.4106133260475103,0.4418669570635112
1718275665492792738,-0.1601282532992152,0.1711312982949703,-0.0519983445893722,-0.8056203853529473,-0.3646805029893341,0.4524542457557359
1718275665492804325,-0.1904581915063328,0.1770863571736321,-0.1147623958379854,-0.9574758911339528,-0.4486529323027495,0.4399379391558979
1718275665494009904,-0.1082431327680876,0.1382864370916192,-0.0180012778120718,-0.68764956231844,-0.4066597599029975,0.0947767804634873
1718275665495288728,-0.0714072534038129,0.1712765595716471,0.0096017582457713,-0.6528738442474669,-0.3471573445934132,-0.0060168903738471
1718275665496527603,-0.0558181240183002,0.241861571907801,-0.0708736549037144,-0.9827338878754718,-0.2959627799387576,-0.0881558078035543
1718275665496538125,-0.0244131183774696,0.2587199208968721,-0.1263966433064713,-1.1384648252116452,-0.2573313070550127,-0.2652939278580265
1718275665497764974,-0.002121589872246,0.2417733707128752,-0.1378764446334046,-1.1038200474643864,-0.3771589278654393,-0.2727794307910287
1718275665499259170,0.0197058043597824,0.2593329342169317,-0.1749391560349475,-1.1485576740099672,-0.3386521868787161,-0.360289563794509
1718275665500191782,-0.0124146191949169,0.2390828589100768,-0.1050893091182926,-1.0109117790503708,-0.1738704178856531,-0.1152958169546848
1718275665501544885,-0.076521317985454,0.2542248261143741,-0.1400595851269242,-1.0833724025575155,-0.1898426405979514,0.1394286569061776
1718275665501555829,-0.1224983759768995,0.2619416943447047,-0.1707457018894712,-1.078756177399714,-0.1866554121553774,0.0309589019246135
1718275665502760343,-0.1191355838293556,0.2416946476419263,-0.0863960329480711,-0.8479736818867118,-0.1677385910022097,0.0256206352336871
1718275665503982985,-0.1916174334199598,0.253527781879243,-0.1706855969833299,-0.9724654645564969,-0.325076393589198,0.0742390703443771
1718275665505177217,-0.2275172202651799,0.2047505903957671,-0.075388561400779,-0.6983079519783694,-0.3979616109269773,-0.0680289982391516
1718275665506381625,-0.1985903569035826,0.1262458121161446,0.0251102379284182,-0.356748770065462,-0.3033996594850837,-0.242503706598277
1718275665507610258,-0.1802670442853556,0.1180085074819187,0.0132666485853399,-0.3082719176482756,-0.27112498162256,-0.4782075823516768
1718275665507623068,-0.2808385188773316,0.1668264447644383,0.0743652893904509,-0.2468763067594921,-0.3783506956251882,-0.3968127374271225
1718275665508826938,-0.232802851701466,0.1018377248857354,0.1103981242078207,-0.0778834754619609,-0.3213069036392963,-0.2411509639773105
1718275665510056699,-0.2148543959382468,0.1237318702171177,0.086669406384381,-0.1945484806201344,-0.271994760527134,-0.2569153709774378
1718275665511322072,-0.1371287612790035,0.0944322715684727,0.128225180816898,0.0085576480792519,-0.0856769561558263,-0.1167103429438858
1718275665512566772,-0.1902167054479709,0.0896462146359651,0.1194511956267024,0.0001429407097383,-0.0901925744274498,-0.0261115559689068
1718275665512595504,-0.2319160803385972,0.0788826084617027,0.1202223968144624,0.0317165209838452,-0.0961835879800862,0.120896617853658
1718275665513875144,-0.2039911763036328,0.1845800264814128,0.1028207961467799,-0.2078608427213907,-0.1572443574567242,0.0388497338357654
1718275665515838669,-0.1159763086534597,0.1811034689038236,0.1823756490418313,-0.0160675793094697,-0.148606570771027,-0.0366946623673351
1718275665515847967,-0.0698986410166101,0.1744059749494004,0.177536482172986,-0.0019475871326062,0.0027824300231743,-0.0798160893424744
1718275665517036806,-0.0936902594779625,0.1537550178355375,0.150692964229871,-0.0216446593550526,-0.0593727211256454,0.1881919511314008
1718275665518239539,-0.0448376987839382,0.1890479956190628,0.1267054396179993,-0.1129150258927604,0.1286587585922517,0.0940155917319796
1718275665519450953,0.0091601000245604,0.1931169704212565,0.1709632016849794,-0.0621007134718218,0.2027950490503127,0.2101724586026654
1718275665520747157,0.0558854190068155,0.1368530505923212,0.2282236321423638,0.1366736294612313,0.2690434367855094,0.2333481012415537
1718275665520771491,0.0404214724307277,0.0858363054432422,0.2204982410748451,0.1990022956980399,0.3259380663364183,0.4241043150842108
1718275665521945020,0.0523298308306706,-0.0056162123525389,0.1277647823048127,0.230034053159512,0.2020880937921048,0.3357489123852885
1718275665523166537,0.0768777409163346,-0.064707962804491,0.1621530661902525,0.3533578863604004,0.0860010540493895,0.1939295962580936
1718275665524388280,0.0765322190774698,-0.0866445673125895,0.2002722869089881,0.5515711217539012,0.0492356128729878,0.2815618724597148
1718275665525670388,0.0073665626102004,-0.0919427227329717,0.1479219620851266,0.5451431472421118,0.005128603959839,0.3979643061866363
1718275665525682246,-0.0160837518198914,-0.1303424641645368,0.1664280887498011,0.6545990538257103,0.1342334555111216,0.7015213261862372
1718275665530288954,-0.0889683223487084,-0.1057073611290397,0.1627776097304593,0.5861427792294683,0.0930956620539342,0.7562433777849688
1718275665531594864,-0.112116198738441,-0.0781044246357449,0.1487625928008129,0.5212070275134859,0.0373841582673701,0.8150210877816713
1718275665531630342,-0.0795835851588422,-0.1246631698820111,0.1880167285950961,0.6758478192741822,0.1640709444444495,0.9065523294728086
1718275665531648244,-0.0526700690449166,-0.0952804882204688,0.2349480359955296,0.7374779775036294,0.128362390918945,0.7805249535609953
1718275665531664176,0.0001601250458524,-0.1585993066615423,0.183743093355824,0.8057042733424251,0.1116137181939176,0.5886615704278958
1718275665531678178,0.0205885688884057,-0.1714536063461788,0.1978257936962778,0.8695081051648561,0.0343250188726446,0.6305170782135048
1718275665532800131,0.0819128824068416,-0.1645188524599305,0.0985850789199626,0.5889935600360008,0.0261315325151339,0.3016850532079163
1718275665534289066,0.0509559796202356,-0.1202983383404521,0.101669859687681,0.5662032587626309,-0.0068166009827245,0.5030042325075528
1718275665535561267,-0.017282415857785,-0.1647346331513504,0.0442119536980344,0.5309659958864035,-0.0355447622841148,0.6631780909299461
1718275665535569661,0.0544422128165445,-0.2774280286241728,0.1499420958572985,0.9312831968487574,0.1506146866760667,0.6976514578935389
1718275665536834092,-0.0250344737026582,-0.3097082870493943,0.0329184553503127,0.7535076431189265,0.1079552390582722,0.7969478305378368
1718275665538045193,-0.0347981840981477,-0.2567837161952314,-0.0029291046928107,0.5635954517896515,0.0416098204179168,0.5796055587712078
1718275665539294595,-0.0705672580318793,-0.243145753737369,0.0550798792149338,0.6013649071913048,0.0049374423923006,0.4859695983831765
1718275665540580074,-0.0529222561963955,-0.2593682867759495,0.0602177692277526,0.6501014547607277,-0.0593540163391434,0.5637909349918607
1718275665540593432,0.0503586956741322,-0.2778887334811622,-0.0339705408218114,0.5907067177941246,0.0731273921585802,0.4935706641915834
1718275665541869868,0.0121538835829198,-0.3161803353217304,-0.0357905398276671,0.6888074462794294,-0.0096330198479023,0.4553930887431942
1718275665543108620,-0.0308650950399391,-0.3401479765455135,-0.0697929618284898,0.7144236759859868,-0.0383319389376248,0.511783590684024
1718275665544366074,-0.0198634134344708,-0.2291664471228872,-0.1756834770510379,0.2960916182842729,0.0492699342063423,0.6696962515364779
1718275665544377743,0.0263449423036361,-0.2082130211713458,-0.2087078515534798,0.1472511443172744,0.0998963278393282,0.5792160209187996
1718275665545539808,0.0408106217209119,-0.3338152174870672,-0.1923876307015775,0.4386304883321139,0.0130450752030217,0.4082273822840111
1718275665546754922,-0.021861290783501,-0.3584593051103128,-0.2273265255797146,0.4302656581042377,-0.0423916920837557,0.3767314572282236
1718275665547949957,-0.1789238680873577,-0.3317676787104733,-0.2785387284371465,0.2520613047990524,-0.0882162658313453,0.6686279757376401
1718275665549192729,-0.1124815610121627,-0.3608477207707178,-0.2098463110696039,0.3410192913843334,0.0428407492393621,0.7297989567860343
1718275665550417717,-0.1099060316986109,-0.2658409714544991,-0.2563082250982473,0.0678648143744569,0.0914356044696957,0.6312761834242968
1718275665550425895,-0.0856575679836833,-0.2151297485272294,-0.3448249220101867,-0.1142593141974265,0.1318569294299428,0.5549522048773105
1718275665551596452,-0.032803086419086,-0.2768427189889202,-0.2704417709661044,0.1545293464604263,0.0813410326098115,0.379826349300696
1718275665552780703,-0.1089348363253982,-0.2863895220270975,-0.2884308427863184,0.1743892612438134,-0.1269353956411312,0.4654958940261781
1718275665553976085,-0.0478622987187624,-0.3195316735989587,-0.219567323499893,0.3394735491252267,-0.1100242279211545,0.421551108946577
1718275665555231170,0.04776777869463,-0.3280798502164471,-0.2285382326449356,0.3399725800055544,-0.0974553592735274,0.2179980293716119
1718275665556502962,0.1105656017300221,-0.2660521896539467,-0.1868609116819263,0.2950281903289964,-0.1359988972889369,-0.3025166180177395
1718275665556511042,-0.0402391217631826,-0.2985016093099395,-0.0366847685662534,0.7078822392279748,-0.2293314114161524,-0.0055641181683755
1718275665557698873,-0.0398561006610383,-0.3071713063774519,-0.1213249478017351,0.6359035991449534,-0.1764733657215748,-0.0301440726449504
1718275665558959171,-0.0141354050036516,-0.3301943205994728,-0.1498095546376206,0.6291280814210508,-0.121403110138834,-0.1240660730792504
1718275665560176208,0.001071619461435,-0.2947593565271281,-0.0733352755698769,0.6688884428221974,-0.0956208137852444,-0.0930006763830968
1718275665561669873,0.001919488184862,-0.2335703198631188,-0.0994240216526823,0.508415326131004,-0.0763016840377274,-0.2137405972107421
1718275665561683459,0.0046492059212113,-0.2162074821072823,0.0376868230577948,0.6277199058280494,-0.0616959149872852,-0.2723555526850417
1718275665562575449,0.0030409174186455,-0.1807947918691916,0.0426768646324975,0.5211163946592636,-0.0671529401722952,-0.3115601682724586
1718275665563812981,0.0170068857403404,-0.1604292811181758,-0.0645487445430198,0.3426699800364742,-0.0441590146634111,-0.3869725879912343
1718275665565125438,0.0535103069027857,-0.1628640342046779,-0.0157792617973486,0.4701297127101364,-0.0645081962119413,-0.3677884568497214
1718275665566811111,0.0546084991502689,-0.1844965095921552,0.0852117543085232,0.6673611267428551,-0.0909163315728787,-0.4327580569386277
1718275665566820200,0.0736862745958172,-0.1383493619454398,0.0902715754280956,0.5806159753464021,-0.000127900756868,-0.4708542394964868
1718275665567983215,0.0848079483407821,-0.1307931537750717,0.0687125632087435,0.4946585270291793,-0.1715321623700987,-0.3898730963130753
1718275665569212522,-0.0012886445784313,-0.1646221762179106,0.1189687985709096,0.6372091502654206,-0.1382614832848417,-0.3789969207221911
1718275665570480894,0.0761469340872267,-0.1386890252893351,0.0903568946562974,0.536547888488225,-0.1485279685614033,-0.3769671737456653
1718275665570491853,0.0683766284811115,-0.1231653588834053,-0.0048598619464637,0.2989350741608919,-0.1441028105603211,-0.3193418575298574
1718275665571598278,0.0904488143372603,-0.1152813703269041,0.1419835463082037,0.4300573327381633,-0.1427633183059393,-0.3040483141226139
1718275665572813438,0.0653139157238484,-0.0765595693852084,0.0440814997360465,0.1455940171455733,-0.1304189845689377,-0.2447451939851392
1718275665573989615,0.0319737867707063,-0.0869895648589522,0.0021600566449198,0.0993649596589124,-0.271253963177556,-0.4327289123855142
1718275665575214550,-0.1520152268969152,-0.1786697192816255,0.0674570558768003,0.3851216374122212,-0.3119473810836862,0.0152072249885079
1718275665576431970,-0.1065634783200446,-0.1520807047023943,0.0357624520152448,0.2976001334301299,-0.3853600760325489,-0.0364227508773185
1718275665576450779,-0.1192901204513592,-0.1211290048339837,0.0331959416698182,0.2480068569966086,-0.393846743485866,0.0309485619336066
1718275665577916192,-0.0450141013652492,-0.0471798365647721,0.0009514060696984,0.0157740236300101,-0.3082285359638815,-0.1273256639813237
1718275665579199652,-0.0357578497540351,-0.073286643524564,0.0483286237623935,0.1254001120394273,-0.2486323100607739,-0.2280403906357842
1718275665580398167,-0.1099991579221336,0.0178236911955772,0.0402968386390406,-0.0404366749375102,-0.3346071493921473,-0.0646731784225418
1718275665581629419,-0.0926539498246857,0.0440412463691186,0.0138568726502735,-0.1655340375437023,-0.2750712968424996,-0.0447894182299886
1718275665581636321,-0.0526304835635388,0.028019627873738,0.1092392451102215,0.0519357671763664,-0.1574512393381315,-0.21114541539061
1718275665582828845,-0.0553941723310001,-0.0023621995111503,0.1091086396213282,0.1005017042392666,-0.1213051317634729,-0.1545537576514062
1718275665584054806,-0.101115505843871,0.0376695302613971,0.0531466028745762,-0.1161447144980954,-0.116820870342467,-0.3059287519374234
1718275665585269002,-0.1469326063684375,-0.0009400388298878,0.1037906436774128,0.0262287963144854,-0.2168412899142168,-0.2224507544515693
1718275665586539863,-0.1304411713856192,-0.0181781519474152,0.1322516808931961,0.0997225461143296,-0.1589238203119226,-0.1503419554730063
1718275665586552274,-0.0177486406267341,0.0120848366334069,0.0938360373896702,0.0275200735515034,-0.1624877511433864,-0.3533404313654634
1718275665587720068,-0.0480759457321732,0.049979317404146,0.1170141177843524,-0.1071554905729454,-0.1465765187002967,-0.2737737168174455
1718275665588948034,-0.0832878782615052,0.1019293452585281,0.1105695360273655,-0.2538048414390309,-0.1711138382214664,-0.2476243297002049
1718275665590255680,-0.096064726911093,0.1251170555881547,0.1546650611954111,-0.2623065169272676,-0.1289007659874767,-0.2918910923534793
1718275665591542595,-0.0148330341961305,0.116109489554402,0.1941758228853073,-0.2215166057541817,-0.1062714219332409,-0.5820138272511844
1718275665591557987,-0.0977712452151532,0.1733054376613753,0.0991288133222293,-0.508236920134124,-0.1172089446123645,-0.2243435683890875
1718275665592803166,-0.1824062309928992,0.25309096922802,0.0110107407860471,-0.888586494074411,-0.1188927357075842,-0.4066877724555346
1718275665594043924,-0.1417577945832074,0.188606607456341,0.0894409140309682,-0.671378374740252,-0.1166166400455295,-0.4197350287325134
1718275665595469463,-0.0447452024668037,0.1988079117093572,0.0769087509283618,-0.76756611079614,-0.1513380125843607,-0.7807403797541781
1718275665595479958,-0.0315694465246018,0.1538264984533003,0.0173089508929472,-0.74813438355567,-0.1298763300585041,-0.7131714487760988
1718275665596715851,-0.0459930756950675,0.2294186549276194,0.0023457893582105,-1.001726408910072,-0.1381956013593457,-0.5344369113840362
1718275665598067356,-0.0240593858474193,0.2081693295726001,0.0262278624615074,-0.9054400478418928,-0.077434803642007,-0.4497809982156902
1718275665599113255,-0.1581495620575735,0.2768741503740093,-0.0474441519508195,-1.1648759270251403,-0.2128263946929989,-0.1471767758095127
1718275665600350929,-0.2096202167097297,0.2570241392519305,-0.0105948164467188,-1.0848530309580948,-0.1649268009940743,0.083990743636733
1718275665601591711,-0.1176258761229824,0.2818616242149956,0.1169581809376539,-0.9209116441865388,0.0395267282417694,0.0982674661194011
1718275665601609078,-0.1228221943041478,0.3115496214292282,0.0087637286824314,-1.1585401992819648,-0.0320643309214958,0.1063469583698369
1718275665603156206,-0.1574913493489834,0.312887380960297,0.0538608733588712,-1.0091972409941343,-0.0313395351054298,0.219886049564605
1718275665604432713,-0.1564429952747436,0.2833574955232689,0.1373880711320009,-0.8242289070473485,-0.0369600130704711,0.14986782950552
1718275665605785359,-0.1377728385548249,0.2855800442516565,0.0896576126884355,-0.897792749117893,0.1015731626241533,0.1939727948535006
1718275665605820860,-0.077242443518554,0.2730026071665942,0.0797095674646808,-0.8729843603219654,0.2304456605088434,0.2355660816625532
1718275665606990445,-0.1421169698149734,0.2280324119019987,0.150009181515178,-0.5930949876221285,0.1846509836241417,0.5682691849844212
1718275665608211336,-0.0784946972692891,0.1737286981091265,0.2350804393360169,-0.357116312477683,0.1355841647568275,0.494227181516168
1718275665609581362,-0.1083440174631703,0.107853280852234,0.2782777014634136,-0.0572767309335748,0.1333000223563823,0.5333334758491846
1718275665609637088,-0.1484948865764145,0.1461089417891125,0.2116405773459703,-0.2660958241017563,0.0066580075901874,0.4097541571943471
1718275665610936910,-0.2118364193622584,0.184717764391658,0.0086064550674453,-0.6780286301323017,-0.018814373681965,0.4666998188702459
1718275665612192787,-0.2072941840677605,0.2497255262057824,0.0946391539971546,-0.6560946514877498,-0.0493174843610338,0.3595052032738275
1718275665613529470,-0.1855999161709177,0.1833635541060752,0.0866393052619929,-0.5450653415903274,-0.0588624406657822,0.3956478968030812
1718275665613544839,-0.0921345949415846,0.1783589232515816,0.0666469762436564,-0.5106562817919384,0.0513919299829305,0.2081972546726482
1718275665614613173,-0.133889898220458,0.1864462962124605,0.0449352611279517,-0.5609031837260079,0.0073534128285068,0.4406982891348695
1718275665615903670,-0.0891419386063669,0.1899388493086225,0.1215255875927386,-0.4273017518767672,0.0751781338991747,0.4583404290376349
1718275665617898795,-0.105744551636704,0.153884296248103,0.1587204072082269,-0.2335010843787948,-0.0274837748258531,0.3237454147099097
1718275665617906903,-0.0382307117952885,0.078229949844235,0.253913340290248,0.0863383784115801,-0.039255830764292,0.0761706444875346
1718275665619083437,-0.0116213421694294,0.0715370172176126,0.2101752043003703,0.0287995929647507,-0.0881257878332753,-0.1498007049655751
1718275665620300344,0.0087086657828825,0.1362359881334344,-0.0101137728012248,-0.555359044014621,-0.1724860426841727,-0.2627638029885013
1718275665621701246,-0.0422221744291188,0.0678183113841663,0.0991440615971679,-0.3136124448177035,-0.1424088472234996,-0.2773628335660361
1718275665621723374,-0.029139295456525,0.0537886720892091,0.0925071406374612,-0.2168969888668215,-0.1037742640337338,-0.1645712368832292
1718275665622866378,-0.050512232865037,0.0172122021747191,0.0633947079503841,-0.1459114499993463,-0.1139310751207198,-0.2103327695152031
1718275665624164069,-0.0317884818688703,-0.0208474794640826,0.04469396743784,-0.0763168283622322,-0.1125609398157224,0.042258450376586
1718275665625640218,-0.0380849667782475,-0.1062407639994389,0.051585718234508,0.1363230321046259,-0.2059568058650735,-0.0517285530105872
1718275665625650154,0.0214209465267177,-0.1258467120950812,0.1043911828430824,0.2994725052293873,-0.1458802599502305,0.045286295300579
1718275665626755994,-0.0443476334720337,-0.1525785569494853,0.1343996284123924,0.4295695688192371,-0.2289363418708183,0.0014937730157844
1718275665629001160,0.039877241491415,-0.1440531819621365,0.0753718806857522,0.3588830476219989,-0.3063410516654887,-0.1369756409814133
1718275665632698057,0.0278115203234027,-0.1257949489765056,0.0433313023228763,0.2644841766215002,-0.3522737845511128,-0.2582067943088632
1718275665632711988,-0.0336512781762974,-0.0536544308409571,-0.0280078192545336,0.0417490440227476,-0.3802022593393707,-0.0892338144505903
1718275665634077320,-0.0509107682709129,-0.1601836654755585,0.0630038787355468,0.4213819468866253,-0.3529155143510957,-0.052009327982667
1718275665634093225,-0.0378816885873172,-0.1829735129564619,0.0445558456459911,0.4781305811100412,-0.355074529454893,-0.025009524504483
1718275665634103712,-0.0409837583267871,-0.2245613013849419,0.0140974461003884,0.5210079154462725,-0.3879110398008863,-0.1376834023552314
1718275665634115585,-0.0469000197078202,-0.2172396690251934,-0.0338660410956506,0.3675500730088148,-0.533723279818356,-0.3796413509236932
1718275665635030411,-0.1452897002373333,-0.2535196546902065,-0.0787743390695265,0.4082079177785008,-0.5897953578839408,-0.1444126743915349
1718275665635958479,-0.0317534893388304,-0.2785326923913424,-0.0860568610634503,0.459681309319118,-0.5468030468813662,-0.5413377390218519
1718275665637194414,-0.0880423530486873,-0.3468294469058902,-0.1081993087855796,0.5783322331057105,-0.497433032750102,-0.2603362293887987
1718275665638431322,-0.0534722160043454,-0.3699012460746385,-0.1386090618257707,0.6047296942301251,-0.4603971152918562,-0.3933809583271989
1718275665639636900,-0.0663187737277897,-0.3811743887880099,-0.1259849387447481,0.5698417512536398,-0.4657210923369217,-0.3449984166621316
1718275665640874382,-0.0725485453778521,-0.4307820591189529,0.0015530135552328,0.8864070417088614,-0.4287606541573364,-0.4203707618625526
1718275665640890831,-0.149796204755824,-0.4468832393465252,-0.0400265845549667,0.903657731574708,-0.4247120225704664,-0.1215378977836758
1718275665642112254,-0.1262195195117882,-0.480365274634197,-0.0719132053025464,0.9500012366757664,-0.4236225768279657,-0.1887173478895353
1718275665643310361,-0.0767376138999939,-0.503881435247645,0.0135692567022471,1.1251841649178436,-0.3829075806030888,-0.2473249107099469
1718275665644558052,0.0084078255735491,-0.4665080275187704,-0.0805327499104536,0.881716929330971,-0.3651205122447239,-0.5290500727223524
1718275665644588921,-0.0312850707759446,-0.4589618117793492,-0.1228087705130019,0.7770719873254053,-0.5144479295411135,-0.7059878554967044
1718275665645750555,0.047918716419579,-0.3930327888212976,-0.2548444835018243,0.3989187726744609,-0.516744975077275,-0.9313277506750008
1718275665646985927,0.054845053760254,-0.4743672136119979,-0.2549372322710279,0.573960769267075,-0.3014744684070107,-0.7363663453951158
1718275665648221712,0.0610872568386965,-0.4800725876225536,-0.320576353109409,0.5410131392505134,-0.2705020810508762,-0.7122580185879845
1718275665649446610,0.0627469779517955,-0.4844541983797654,-0.2517614950980673,0.6075574399856937,-0.2511852887178563,-0.8892659513362169
1718275665650701228,0.0564899217412069,-0.4701156786127907,-0.2516551987351662,0.5545604916320336,-0.4157153128599296,-0.8880275642221389
1718275665650747811,0.0118263739767737,-0.4086372263852856,-0.2845965267993944,0.3987202968560785,-0.3896274582955563,-0.753092125144164
1718275665651889937,-0.1210804748782772,-0.4032530396274451,-0.1977869277887027,0.4956007068924832,-0.3627814301285293,-0.3053265305439551
1718275665653143162,-0.1259518939773943,-0.4079564071451339,-0.1535584161977259,0.6413245135897372,-0.2638960416868409,-0.1412255987441359
1718275665654331881,-0.1318305936460053,-0.4099748500381175,-0.1559196299854011,0.7174460848214463,-0.3798251202631938,-0.2302347828733224
1718275665655647393,-0.0981914810704771,-0.4045194974991205,-0.128016305321177,0.8135245616579634,-0.3197737324972241,-0.2081698452916428
1718275665655665217,-0.051743006745411,-0.3977259084863507,-0.0839245455200053,0.8997071865565122,-0.258860559974651,-0.1169885412875698
1718275665656877575,-0.0409224147645581,-0.3434794177362945,-0.1449844942195486,0.7146923861619191,-0.246752400032091,-0.2528665819188647
1718275665658043953,-0.0223155663262168,-0.3466070062448338,-0.0808936089621973,0.8030718626428175,-0.1905090501680955,-0.2446656934619853
1718275665659239844,-0.0974021659920931,-0.3600327401237131,-0.0600511841866157,0.8420582462856693,-0.3288863096754392,-0.2284989059538153
1718275665660482820,-0.0411279637577846,-0.2796807719422551,-0.0672657266175464,0.6865556372977478,-0.2608087166668205,-0.2248367098753728
1718275665661859919,-0.0867118626162193,-0.244926425978377,-0.0344886393943099,0.6817786391662966,-0.1886803606842984,-0.0307742911277326
1718275665661877037,-0.1877704987350936,-0.2384092208255226,-0.069137364715867,0.6184492403283645,-0.1796425162325669,-0.1343356185079839
1718275665662988725,-0.1773778674087924,-0.1835873349180734,-0.0785467261518755,0.4840007919358092,-0.1871932559868484,-0.0303070706306098
1718275665664257526,-0.1303898062148159,-0.1767799087408555,-0.097188668946804,0.4663432573144058,-0.2207550522359429,-0.0410076684428434
1718275665665432612,-0.1457844760609866,-0.174502115385539,0.0611603450241046,0.6728347534311999,-0.0868500814813093,0.06388811259172
1718275665666713691,-0.1433635595946113,-0.1487644252521129,0.0456635641530668,0.6182881463777883,-0.2233533645203598,-0.2204756069264388
1718275665666732398,-0.1878888391945325,-0.1415630901496624,0.1414573296317146,0.7646955056562077,-0.2159532847942573,-0.3118710658721593
1718275665668453554,-0.063498510361026,-0.1884632260701935,0.1747193435941684,0.9331719054054004,-0.1607774245403016,-0.4642841806590554
1718275665669829034,0.0037438708632774,-0.1596697722845408,0.0517282922238148,0.6390959874855954,-0.0258208116723957,-0.4120882354329832
1718275665669843706,-0.011394371266927,-0.1785168560375052,0.1435528596885364,0.7842152230946897,-0.0602221552254629,-0.3512266788701928
1718275665670946035,-0.0298626650616313,-0.1806669507358488,0.1766448414092301,0.8072254767379213,-0.0937015352498818,-0.4408281220958613
1718275665672161819,0.0105603255813936,-0.1185459992148614,0.1354041252234771,0.6250358271799574,-0.1273356927134847,-0.6270910905135985
1718275665673327465,-0.0320580865631501,-0.1663205339635062,0.153980655617654,0.7606764534550832,-0.1027986306455506,-0.3256080808094997
1718275665674730526,-0.0210956303640906,-0.1461280728874623,0.2197376703338914,0.8638070764562293,-0.1311818356249633,-0.3921092262417932
1718275665674739621,-0.0710208513408763,-0.0854852968254997,0.2161238465002557,0.7097891233718671,-0.108716528047239,-0.2482606169331346
1718275665675800565,-0.1017722672408787,0.0087116900802957,0.1569196653723079,0.455596982985282,-0.2685611175304693,-0.2608972316422858
1718275665677053086,-0.0625371408407666,-0.0172710295351042,0.1813491363666776,0.4856150840245731,-0.2559578078984415,-0.2367074574831072
1718275665678348157,-0.0617550100452738,-0.0058991879029,0.1273048769891538,0.3502989278711272,-0.0807002718234699,-0.0072596247772355
1718275665679615654,0.0297999491902837,0.0398534533666837,0.1652695259835221,0.3078155419532141,-0.1165639701412246,-0.0129978074746141
1718275665679633293,0.0458292279916217,0.0151894261865863,0.2897266447230428,0.4906284859530435,-0.0686415339528081,-0.0026998509665096
1718275665681133071,-0.0391553127750054,0.0449926670500541,0.2389308025687511,0.3816675601128578,-0.2367941267481512,0.2187417965914501
1718275665682352448,0.0315581545351098,0.1208819043358466,0.1207370943443719,-0.017268940042152,-0.2087788672484709,0.2425628099884495
1718275665683671949,0.0245421104894314,0.1101097428800205,0.0664972571996267,-0.1282149512108071,-0.2286968112185629,0.25329764684429
1718275665683750971,0.0183200035944924,0.1070093905821962,0.1588958517134878,-0.0236966556673603,-0.1903111233322472,0.3127974923125336
1718275665684798595,-0.0893855469279727,0.1326736337566052,0.0604131526057942,-0.2414138319763707,-0.1945040404910795,0.4466620334574467
1718275665686016915,-0.1324549152607904,0.056778363940249,0.0539814856722511,-0.1935043820810844,-0.1625409757890027,0.7420587493771742
1718275665687257048,-0.1527018524912875,0.0629388902115841,0.0704645134538087,-0.2571541033458384,-0.1662532727897733,0.7108082142213779
1718275665688497861,-0.1620485398873193,0.0310939413590573,0.1359348529080893,-0.0615429084161013,-0.2754198726900183,0.4441422353420788
1718275665688527110,-0.1286463515576152,0.0023724726458065,0.164580475592854,0.0304077834485184,-0.3693740202980417,0.2918393886754472
1718275665689634503,-0.1096773535253602,0.0341601606022354,0.0458299925643657,-0.2970791493410422,-0.3182540530716875,0.3358896645153462
1718275665691628514,-0.1480072337867443,0.0981108377829698,-0.0548317988318799,-0.6962992034045119,-0.2754373361876684,0.4037571228848617
1718275665692929738,-0.0378173117070245,0.1100758510938743,0.0196960525861215,-0.5988890696348805,-0.2021817145443157,0.3839703468500009
1718275665692938119,-0.0883258620600932,0.1021219663956028,-0.0262671827511734,-0.6567685264458573,-0.3538589010108598,0.2756188684426374
1718275665694139514,-0.0087036875538204,0.1264142524330479,-0.166742301440218,-0.9268516408605592,-0.308622077531737,0.2033763353000884
1718275665695335797,-0.0093428465893483,0.0721210210305913,-0.1944296744593839,-0.8922859263883115,-0.4326165101189602,0.0219235669478468
1718275665696587643,-0.0578617515581086,0.1097058790705474,-0.1311934925997065,-0.8895395179730087,-0.3549617168678762,0.0564608413622212
1718275665696624954,-0.0366790990368017,0.2000929348512976,-0.153692033060038,-1.1225564558140873,-0.3068066334183162,0.1801261193139474
1718275665697766417,-0.0400248147246416,0.1999445685546135,-0.1211948007429908,-1.0878830443362035,-0.3741894980476305,0.0541127872911312
1718275665699014716,-0.1156793859954272,0.2100678337492285,-0.1567456380035294,-1.143552500347938,-0.4390014757751267,0.1916983138938794
1718275665700249069,-0.1212694991178223,0.2182288129390567,-0.2101542963888472,-1.203982060669711,-0.5035860901824688,0.1818599047503651
1718275665701473572,-0.1375699936254917,0.1975262067195423,-0.1449776229100547,-1.0299034109624112,-0.540966467386709,0.2919109313334178
1718275665702909996,-0.1677904097643762,0.1765377379632558,-0.1189860690348694,-0.894213828296248,-0.4145095582231252,0.5528682512998893
1718275665702921212,0.0085051169857931,0.1829096107249063,-0.1386484768098067,-0.8583162427102953,-0.3109365197772143,0.3314156039803591
1718275665703968274,-0.1333168985197457,0.1684457458960541,-0.1447023726485305,-0.9011998567805256,-0.3727399522503228,0.4385398796395253
1718275665705749134,-0.1286723702322399,0.2018184529180691,-0.1437038274200746,-0.9550096628090656,-0.4226185456589805,0.2915529209854026
1718275665705786602,-0.0860715352258374,0.1978419231549757,-0.073413119945413,-0.8345057680713014,-0.2830944389231096,0.03463098944559
1718275665706887047,-0.1249339622819196,0.190393434429919,-0.0034633501160455,-0.6956286226847523,-0.1689615596927492,0.3030406479766389
1718275665708134561,-0.1080096631215852,0.2220377622043282,-0.1384120456581712,-0.9817041513103614,-0.1502764768385045,0.2866017931410636
1718275665709332547,-0.152375453269122,0.2051995274324486,-0.0330660511276048,-0.7692277610812426,-0.2512219240370998,0.3065956203627649
1718275665710582507,-0.1858045399878943,0.1817342959536619,0.0730666278202913,-0.6001420057271262,-0.1608074169131407,0.469627733393162
1718275665710599721,-0.126538445529403,0.2233450678238739,0.0084735689127838,-0.7702579012753403,-0.1577480360076233,0.1626697563665369
1718275665711879655,-0.1193251170335618,0.2106582581062173,-0.0437364299278525,-0.7650999213876098,-0.1301832600838182,0.1653467523449311
1718275665713105978,-0.0416974280724328,0.1753188266008916,0.0020406110836483,-0.5990951125136877,0.0400358002756598,0.1333276314301241
1718275665714340844,0.0448917824252208,0.0804406439820608,0.0874692218057077,-0.1891008372747313,0.1618347446308769,0.0956035145523348
1718275665715625219,0.0237761246899006,0.1576780831290958,0.1290131961548601,-0.306587049518,0.2039982022447459,0.030761462637292
1718275665715637784,0.0501027810325539,0.1868372219741615,0.158655935445572,-0.3230655663779236,0.1236754003895115,-0.0476538198515096
1718275665716805648,0.0314037050710082,0.1415328230902825,0.2004231870840729,-0.1499111355465021,0.1080332314146534,-0.1120670881185325
1718275665718013464,-0.0020834501574544,0.0957465598841393,0.1167111224497552,-0.1879209194864579,0.0499433205578174,0.0689303514548424
1718275665720219074,0.1191517871293059,0.0593131480727597,0.2583027428398757,0.1701856687559936,0.1730833756644413,-0.2364872764598768
1718275665720239787,0.1309054576499977,0.0877003456473354,0.2954373242291915,0.1912624038834744,0.1081968355842488,-0.3268685645627761
1718275665721190099,0.0591778057638701,0.0723954211189964,0.2996771917576005,0.2598084691390596,0.0525020456504153,-0.2035435072936399
1718275665722534057,0.0573324768307626,0.0553154513005658,0.3007793874025598,0.3151046817461084,0.0373058010443542,-0.2169758580088684
1718275665722547252,0.0025738647431916,0.0031237520380174,0.3194297471184462,0.4790136308501057,0.039898546965147,-0.0125494370479615
1718275665723664594,0.0277589288077101,0.0157746368678322,0.3468271939302136,0.5528568800213409,0.0573165057177902,-0.0931958660221036
1718275665724812778,0.0018200547674477,0.0041578439070872,0.4239591241180083,0.747162032208295,-0.0676989285793339,-0.2307663445111021
1718275665726014939,-0.0174403971917288,0.0541699583523815,0.3213365668501738,0.5284967241606399,-0.0638611126631982,-0.0021562224448579
1718275665727270697,-0.096691796424763,0.0162447445664415,0.3105004984985945,0.6306267385211795,-0.0277328027648446,-0.0602406361038252
1718275665728485271,-0.1626738012814678,0.0405381289434808,0.317253250143732,0.5571828414628622,-0.170849162524125,0.1472364984246819
1718275665729828389,-0.1503334376433078,0.0371124623676298,0.3427095563688995,0.5925450224919632,-0.0850561633032402,0.1395798382374378
1718275665729841113,-0.2040438927150495,0.0678939459938636,0.2943490902916655,0.4771304794002814,-0.0368791128749256,0.3303083323084516
1718275665731049471,-0.1728302918242264,0.0742314776424882,0.1811358303354211,0.2710328953079217,-0.2002907615875588,0.2236093969391447
1718275665735126889,-0.1356196632773273,0.0011669754155878,0.2097374798320875,0.499382167159964,-0.1269487344711158,0.3332966322045299
1718275665736717784,-0.1822900166648642,-0.0401093762549317,0.2125001559490262,0.6058796242505912,-0.1875596366803631,0.3087953974527407
1718275665736736766,-0.2733738879812489,-0.0688097392607363,0.2995475180763826,0.8133108146866734,-0.2524938593405267,0.2119104733652032
1718275665736785574,-0.1588534516576822,-0.0753613746312463,0.3827115143971806,0.9626484481903492,-0.1744964862752169,0.0631468378386106
1718275665736797481,-0.0426487861617612,-0.0140839729759858,0.3445627065280472,0.7793250334653827,-0.1676879622518799,-0.246179522461404
1718275665737821899,-0.0634898963296821,-0.1246794442399284,0.3476227007458846,0.9880761575834236,-0.2213214747288827,-0.1832143838528573
1718275665737831210,0.008588416574189,-0.1744514687475323,0.2844530771444827,0.98563606122015,-0.1129906918036043,-0.4223762601175287
1718275665739142234,0.0332566614265111,-0.2431133106808742,0.2987961721530594,1.2281246282935032,-0.1848645616107895,-0.475707938712697
1718275665740381417,-0.0513945492224545,-0.2803152248153659,0.221528955925858,1.109950153370089,-0.1089207084335165,-0.486984797803237
1718275665741653648,-0.049393750631141,-0.263958894022313,0.2114807872638795,1.083824269353166,-0.21038911258101,-0.5887806961678538
1718275665741662607,-0.1285378723782279,-0.2569928009271142,0.0802248337973846,0.852186053997347,-0.3131026843104852,-0.4098696504304571
1718275665742799458,-0.0870605403351073,-0.3203085167974394,0.0564517549508348,0.9188387411858352,-0.1969367324399495,-0.2044798474211644
1718275665743994680,-0.0505937309256558,-0.3448264199072882,0.0978975217682621,1.0437997872978642,-0.0836134233487367,-0.3693220779027463
1718275665745240151,0.0171116338907095,-0.3177817280474528,0.037911607242003,0.9528037174991744,-0.0191258543536958,-0.4860248298853385
1718275665746438495,0.1231748829719859,-0.2941762293786206,-0.0449858929508638,0.7444112797618022,-0.002862415390802,-0.6644732929339034
1718275665747655842,0.1245630476658023,-0.2701703463920298,-0.0889362606054736,0.6001305352360972,-0.1484617656302494,-0.8750038885146583
1718275665749006012,0.0639619745167996,-0.1941139797223656,-0.1590775071250126,0.3647669755070922,-0.2467259364195172,-0.9988209270111964
1718275665749011401,0.0492946124251131,-0.2299334256578782,-0.1986842061192671,0.3485584359007666,-0.3030816294067662,-1.0333994756053486
1718275665750196855,0.0117138063027555,-0.2644595490730623,-0.1786025791271193,0.4471944682471745,-0.3052257443561388,-0.9407195158998596
1718275665751414062,0.0816552401217319,-0.2946065626121102,-0.292623218726779,0.3640191361153189,-0.1898769147108872,-0.7734289626105094
1718275665752675241,0.066062971153728,-0.30261449874588,-0.2287517014613617,0.5087825966846367,-0.230717605573044,-1.031333336064936
1718275665752688816,0.045958986968513,-0.3511825037410502,-0.1533512123583481,0.6680282555421762,-0.3755306982686687,-1.0378467242335012
1718275665753799833,0.133100908367436,-0.2798323455303844,-0.2914155986708062,0.2608297123670093,-0.3609155402007769,-1.1460979821641415
1718275665755008851,0.1650930748195726,-0.3300365134136211,-0.274258473911808,0.3166885578310322,-0.3365536021116257,-1.1334154448677896
1718275665756230428,0.1853332584779602,-0.3443927564538874,-0.2594492182624129,0.3366859270804395,-0.3336183489732895,-1.065421890211443
1718275665757487317,0.1711197754208151,-0.3340914843382562,-0.2751406084984035,0.3105549046734407,-0.3421751173171585,-0.929959192761893
1718275665757495768,0.140892108723393,-0.319899929323224,-0.2510266920709146,0.2586262218875722,-0.3598839465522673,-0.8855879641091001
1718275665758631518,0.1521220290491091,-0.2929533868669793,-0.2804700382668723,0.1207976126185542,-0.3193887048375328,-0.5845878297789652
1718275665760000404,0.1584647313863396,-0.2219854135486181,-0.2808937239194004,-0.0669786693354383,-0.4500945537749428,-0.5150415899119924
1718275665761155347,0.1413159847220474,-0.2466367160818862,-0.2446751187756508,0.0474441885356507,-0.3834554915973976,-0.5586604419840632
1718275665762363397,0.097355626714951,-0.2207672380625481,-0.3076675123974816,-0.1670671415270733,-0.3782590382258995,-0.4186580360839732
1718275665763685171,0.0996821845619933,-0.2612988666456428,-0.309140746912463,-0.0943581168495422,-0.3615678986298247,-0.4182675613496436
1718275665763706238,0.0791730209018516,-0.1939978312218884,-0.2574239808245211,-0.1378368291393507,-0.3178025764962537,-0.2542996061350026
1718275665764820964,-0.0276331458641742,-0.2580272042162722,-0.1842407881888877,0.1123627802213755,-0.3771892963011295,0.0062934549857522
1718275665766075964,0.0778842734668046,-0.1786545580313913,-0.2032115073534595,-0.026724478964961,-0.4576826867869406,-0.3076585060232839
1718275665767267578,0.0335902647389063,-0.2024175303376432,-0.2647081334604766,-0.1229518028705507,-0.5177227571234935,-0.22562330331182
1718275665768547674,0.0381151578388743,-0.226972850130066,-0.1985263601430535,0.0327910576600073,-0.5656060426471657,-0.3085820913161106
1718275665769736210,0.0156277664403864,-0.2113288154924781,-0.1386515016730231,0.1488712272343821,-0.6137888163498967,-0.3316501257932642
1718275665769777305,0.0970704108609036,-0.2368845248656416,-0.080154047949477,0.3021349220000807,-0.4574282273903673,-0.6021945713978436
1718275665771257938,0.1074436953778303,-0.1896989308274511,-0.0753446557895578,0.2232549433935541,-0.3441401282648085,-0.4795135849559709
1718275665772437067,0.08075632664888,-0.1015083681196085,-0.1661347870541258,-0.1383413917739685,-0.4311992033509038,-0.5881122706633102
1718275665773767164,0.0184310771277822,-0.0782975744991613,-0.0961343262908629,-0.1859531652723007,-0.3779572566601162,-0.3539542346418493
1718275665773787600,-0.0364045663552495,-0.0047428393254368,-0.0039989744637075,-0.1658269862373729,-0.4736570299063011,-0.2086130005990807
1718275665774956760,-0.0756192127460276,0.0033117246318096,-0.050709772608677,-0.2428423197389465,-0.4243728740323349,-0.0529207013826854
1718275665776177055,-0.0743554198820404,-0.0002902711716347,-0.0082113391699475,-0.1907632987568107,-0.3701554933390622,0.0757605129525151
1718275665777391162,-0.0374247854223514,0.035754394447028,0.0030280280825158,-0.236753207589976,-0.361609315424291,-0.0688837034397282
1718275665778672243,-0.0613969144792576,0.0462013656802837,-0.0057159369548584,-0.242339702415465,-0.3516322029881233,0.048208678466336
1718275665778691468,-0.0393869796822688,0.0367119820740814,0.037370563052286,-0.185044970632612,-0.4235531502877277,-0.234185733614499
1718275665779795412,0.0570362735404809,0.0624536480310415,-0.0344857609704251,-0.3733308818114759,-0.351503987689772,-0.1922140556354682
1718275665782357205,0.0225128359676415,0.0751069794007497,-0.0469447450152301,-0.4309565126395246,-0.3309820935000736,-0.0792742181072489
1718275665784125413,0.0400394709430932,0.0554415330022671,0.0153472503253593,-0.2897060344101615,-0.2579849621539685,0.0178275359673618
1718275665784143073,-0.008916480521899,0.1124112404512798,-0.0425276505632186,-0.4881240145487311,-0.2849607575665686,-0.0420540699010269
1718275665784153052,-0.0790744071714506,0.1511559289508726,-0.075111074227494,-0.5909646410465348,-0.2644116762338478,0.1576030282759787
1718275665785773579,-0.0958643457171032,0.1563713535011847,-0.0972006903226092,-0.6907105461528579,-0.2565787128803927,0.2754463957491787
1718275665785804681,-0.0708748599967712,0.149838814436259,-0.0782987499969972,-0.711778930062183,-0.2187409514695482,0.2222331743904101
1718275665786924377,-0.0175378927170556,0.2060236330233112,-0.124401775110271,-0.87905712517205,-0.1752050147693907,0.2340828328027476
1718275665788158140,-0.0486989560873977,0.2295130619923699,-0.0691058748201291,-0.8950177638288485,-0.3083274896768066,0.1438633103038893
1718275665789355719,-0.0644843856007879,0.235376194692681,-0.1074564228068904,-0.9623374361544524,-0.3938461452171746,-0.0783131116344789
1718275665790735737,-0.1002159705824978,0.2540060806141677,-0.1269801591744206,-1.009768441158572,-0.4623247015781132,-0.0987792382870033
1718275665790803565,-0.1323331863215963,0.2232321615464297,-0.1027771395441481,-0.9601894255074674,-0.522758262395619,-0.1594102724756214
1718275665791823091,-0.0976673339213703,0.2631096851273032,-0.1476510648669571,-1.1185527662972714,-0.4101784220070254,-0.0987920267113734
1718275665793029194,-0.0816186608688821,0.2749459179643342,-0.0344399611658283,-0.9582745176519584,-0.4743158551863818,-0.0379399868770234
1718275665794249378,-0.067893415396248,0.2283410107052399,-0.0091529268382313,-0.8224159406067386,-0.350106438696294,-0.1791014646824158
1718275665795491644,-0.0042935106344937,0.2732559764979125,0.0154811771976333,-0.8747129774746139,-0.3056802816785043,-0.1118654796234609
1718275665796792632,-0.1291959804903178,0.244266765599892,0.0259871131150542,-0.7131328240923085,-0.4123303844832541,0.0772143603117887
1718275665796818511,-0.1549018689917097,0.2152702874083041,0.095664087582177,-0.4830779117664739,-0.4404365918033124,0.051817599872274
1718275665798018607,-0.1071833825624402,0.1590456964005737,0.0145391868306821,-0.4720956974452341,-0.3148423828570873,0.1724897636730258
1718275665799309152,-0.14211560640258,0.1915958304314448,-0.0274635509506932,-0.5776832410366471,-0.2882402089988042,0.1682781922896847
1718275665800710719,-0.1177252845659716,0.1286202092523738,0.1496431083414781,-0.1998440734673704,-0.2070821994116873,0.2443119710359517
1718275665801762204,-0.1280816037001462,0.1144398991302524,0.1192450900272674,-0.180928764919125,-0.1786865003570432,-0.0346576955285312
1718275665801775210,-0.0807293539704888,0.1140738039760494,0.0951211443482451,-0.1371831295192024,-0.1562449618318907,0.0309913675412512
1718275665802942492,-0.0731691595179123,0.1019519897194144,0.0981763996308829,-0.1403660931690474,-0.2731785606800784,0.1683129983215801
1718275665804260440,0.0223376567513069,0.0591413755500856,0.1860368962736899,0.1035024366398709,-0.3101427849328426,-0.2915639393796285
1718275665805528783,0.0060506253658125,0.0998525786434,0.220475830036481,0.0494546125972984,-0.2551969829248893,-0.1655131431376783
1718275665805546308,-4.070127440404872e-05,0.1061339733612731,0.2378469987464405,0.1172802754169088,-0.3517554733693427,-0.1860026698641056
1718275665806792849,-0.0221573627757177,0.0451995750675112,0.3096368260927057,0.4109132285528329,-0.5192829704091606,-0.3136207651604471
1718275665808158313,-0.0133626265436986,0.0835536180738364,0.2626460503085368,0.2499714008248859,-0.474513946697676,-0.1297283731052909
1718275665809441416,-0.019270339076454,0.0376408181690536,0.2200230129804038,0.2779512018991705,-0.4544450967571928,-0.2975214150574474
1718275665810775770,-0.1387607672566022,0.0167556550456376,0.2361353133991307,0.4164967193935547,-0.6080461299501093,-0.1220793522324369
1718275665810782701,-0.103509768716684,0.0772264105417668,0.1624815467543487,0.1920309275175791,-0.7373476978777105,-0.2592745353023366
1718275665812026957,-0.0931146305862996,-0.0039729976923729,0.2698036033696549,0.525355740407067,-0.5998512167479475,-0.2253083338091272
1718275665813237517,-0.0031437652091199,0.0820997303138004,0.1616530471138763,0.1038133393185462,-0.6892298960524066,-0.3326283956963038
1718275665814637610,0.0260414712575697,0.1191922959029793,0.0825699359558493,-0.1290766631056818,-0.5826009677013955,-0.5353093767257314
1718275665816097811,-0.0163285398351048,0.0623810110679499,0.1321538360454301,0.1361429162108891,-0.6285116681550863,-0.5833785063552208
1718275665816105909,-0.0259596079329582,0.0077912198300609,0.1025286442426499,0.2386611917618204,-0.7873711165899174,-0.7465105291247573
1718275665817268573,-0.0459412675468991,-0.0093414412885581,0.1374662071700601,0.4120504225423467,-0.8995876775585957,-0.80999083927688
1718275665818416478,-0.0597881377786874,-0.0625671359001959,0.1641670565850083,0.541297112695657,-0.8161702979147379,-0.5766365324425299
1718275665819798659,-0.114045270833742,-0.052929090345898,0.2164523612900173,0.557192990131307,-0.9283101981272136,-0.6256090460771604
1718275665819809957,-0.1644565041777107,-0.078965327221528,0.2009091841245688,0.7221689751040813,-0.995251255474126,-0.6342073951582146
