%time,field.force.x,field.force.y,field.force.z,field.torque.x,field.torque.y,field.torque.z
1718276884373081308,-0.1066844429999932,0.0654804379999904,7.446166777000056,-0.0393601139999984,-0.0002343860000014,-0.0009907969999999
1718276884374769684,-0.106860442999993,0.0555794379999901,7.423456777000055,-0.0383851139999984,-0.0013593860000015,-0.001128797
1718276884375712146,-0.0983624429999937,0.0507534379999899,7.416690777000056,-0.0386801139999984,-0.0013303860000014,-0.0005987949999999
1718276884376926257,-0.0852194429999937,0.0585924379999901,7.416671777000057,-0.0412451139999984,-0.0007293860000014,-0.0002137949999999
1718276884378185222,-0.0803464429999936,0.0665984379999899,7.408736777000057,-0.0446731139999984,0.0004856179999985,0.000169205
1718276884378203618,-0.0799784429999934,0.0768144379999903,7.407703777000059,-0.0467451139999984,0.0004816139999985,-0.0001107949999999
1718276884379640822,-0.0882384429999935,0.0918174379999899,7.392078177000059,-0.0480901139999984,-0.0003103860000014,-0.0001257949999999
1718276884380683420,-0.0838674429999933,0.1092244379999906,7.3698801770000575,-0.0492131139999984,-0.0011373860000015,0.000393205
1718276884381965317,-0.0709824429999938,0.1315284379999901,7.355074177000056,-0.0505081139999984,-0.0014433860000014,0.000780205
1718276884383272600,-0.0535244429999935,0.1662684379999901,7.323913177000059,-0.0529781139999984,-4.438600000146757e-05,0.000638205
1718276884383284181,-0.0233744429999934,0.2032834379999904,7.314683177000059,-0.0549961139999984,0.0027096179999985,-0.0001547949999999
1718276884384597149,0.0065875470000063,0.2204704379999904,7.307246227000057,-0.0559391139999984,0.0062386179999985,-6.796999999999793e-06
1718276884385670197,0.0533115570000063,0.2276704379999898,7.300632177000057,-0.0559331039999984,0.0099466139999985,0.000414205
1718276884386906700,0.0914345570000067,0.2249414379999905,7.287010177000057,-0.0551571039999984,0.0135156139999985,0.001105205
1718276884388095907,0.1211875570000069,0.2222724379999905,7.294693177000059,-0.0547971039999984,0.0171916139999985,0.000997205
1718276884388107618,0.1466715570000065,0.2169614379999906,7.309901177000059,-0.0538011039999984,0.0223076139999985,0.000772205
1718276884389306159,0.1676605570000061,0.1991134379999901,7.303621177000056,-0.0511971039999984,0.0274846139999985,0.001090205
1718276884390549084,0.1883605570000069,0.1711954379999903,7.312725177000058,-0.0471741039999984,0.0320366139999985,0.001279205
1718276884391780949,0.2089985570000062,0.1434384379999901,7.306589177000058,-0.0433721039999984,0.0341936139999985,0.001448205
1718276884393178336,0.2341165570000064,0.1331724379999901,7.314741177000058,-0.0413401039999984,0.0356526139999985,0.001337205
1718276884393202870,0.2553965570000062,0.1355474379999899,7.314459177000058,-0.0413451039999984,0.0376616139999985,0.001083205
1718276884394249030,0.2767165570000066,0.1477664379999899,7.314308177000059,-0.0416721039999984,0.0396586139999984,0.000961205
1718276884395502604,0.2936315570000062,0.1624090379999897,7.306900227000056,-0.0415260989999984,0.0399356139999985,0.000963205
1718276884396783544,0.297587557000006,0.1695900379999901,7.292113227000056,-0.0403520989999984,0.0382296139999985,0.000957205
1718276884398050852,0.2888615570000061,0.1744100379999905,7.246643177000059,-0.0391891039999984,0.0356746439999985,0.000812205
1718276884398059458,0.2887735570000068,0.1892450379999902,7.239003177000056,-0.0394531039999984,0.0331326439999985,0.000793205
1718276884399194181,0.2805155570000062,0.2141340089999903,7.200155177000058,-0.0409011039999984,0.0311946439999984,0.000503205
1718276884400429471,0.2724255570000062,0.2440790379999904,7.183569177000057,-0.0433831039999984,0.0296316439999985,7.720500000000011e-05
1718276884401641111,0.2729305570000064,0.2839230379999902,7.1519181770000575,-0.0464231039999984,0.0285856439999984,-0.0002167949999999
1718276884402825673,0.281924557000006,0.3139570379999904,7.128939177000059,-0.0495961139999984,0.0284556439999985,0.000159205
1718276884404181715,0.2909335570000064,0.3390350379999902,7.113162177000056,-0.0526071139999984,0.0289646439999985,0.000274205
1718276884404204275,0.3085375570000067,0.3788374379999897,7.081548777000059,-0.0558941139999984,0.0303606439999984,-4.794999999999821e-06
1718276884407771173,0.3303305570000065,0.4063024379999899,7.049672777000058,-0.0586771139999984,0.0320986439999985,-0.0005467949999999
1718276884409221827,0.3433175570000065,0.4432754379999906,7.025988777000057,-0.0600131139999984,0.0326606439999985,-0.000952795
1718276884409228930,0.3643855570000063,0.4603934379999898,6.996126777000056,-0.0596291139999984,0.0317456439999985,-0.0008257949999999
1718276884409237563,0.3810835570000068,0.4749544379999901,6.943495777000058,-0.0583941139999984,0.0301286439999985,-0.0008337949999999
1718276884409276420,0.393601557000006,0.4821354379999902,6.912932777000055,-0.0572351139999984,0.0293286439999985,-0.0012337949999999
1718276884410219268,0.4019485570000064,0.4819864379999905,6.874708777000056,-0.0561571139999984,0.0290966439999985,-0.001630795
1718276884411785780,0.4018925570000068,0.4819894379999899,6.843829777000057,-0.0557221139999984,0.0280886439999985,-0.002037795
1718276884413045782,0.3931895570000061,0.4819564379999899,6.829433777000056,-0.0550541139999984,0.0257906439999985,-0.001649795
1718276884413058384,0.3845225570000061,0.4768994379999907,6.814709777000059,-0.0540061139999984,0.0250136439999985,-0.001515795
1718276884414200902,0.3805125570000061,0.4794454379999904,6.798875777000058,-0.0546281139999984,0.0264546439999985,-0.0017777969999999
1718276884415445006,0.3767865570000063,0.4823054379999903,6.798345777000058,-0.0570021139999984,0.0284056439999985,-0.0016457969999999
1718276884416501043,0.3689255570000068,0.5025324379999903,6.789527777000059,-0.0602591139999984,0.0290026439999985,-0.0017957969999999
1718276884417676472,0.3567875570000068,0.52535743799999,6.773835777000059,-0.0639221139999984,0.0278836439999984,-0.0014287949999999
1718276884418862698,0.3441335570000068,0.5378584379999904,6.766326777000057,-0.0648511139999984,0.0258816439999985,-0.0011807969999999
1718276884420244703,0.3270335570000064,0.5379214379999904,6.758694777000058,-0.0646031139999984,0.0231866439999984,-0.0011967949999999
1718276884420252476,0.2887045570000068,0.5256424379999904,6.734864777000056,-0.0635901139999984,0.0202626439999985,-0.0018757969999999
1718276884421394799,0.2544185570000069,0.5254134379999906,6.719338777000055,-0.0617811139999984,0.0171386439999985,-0.002281797
1718276884422724727,0.2241825570000069,0.5178064379999902,6.712823777000058,-0.0596301139999984,0.0127076439999985,-0.001896797
1718276884423955217,0.2065625570000063,0.4979154379999898,6.707325777000056,-0.0572121139999984,0.0081336439999985,-0.000980795
1718276884425285950,0.1850615570000062,0.48065243799999,6.692168777000056,-0.0558481139999984,0.0052576439999985,-0.0011257949999999
1718276884425292838,0.1724725570000065,0.4734894379999904,6.698804777000056,-0.0565691139999984,0.0045436439999984,-0.0015337969999999
1718276884426403607,0.1686865570000066,0.4861924379999898,6.698476777000058,-0.0590461139999984,0.0053456439999985,-0.0012777969999999
1718276884427620336,0.1692255570000066,0.5063854379999899,6.713140777000059,-0.0623151139999984,0.0058376439999985,-0.001028797
1718276884428846500,0.1741315570000061,0.53411043799999,6.749681777000058,-0.0665941139999984,0.0058926439999985,-0.001185797
1718276884430213441,0.1705605570000061,0.5765944379999904,6.748849777000059,-0.0709101139999984,0.0051506439999985,-0.0009507969999999
1718276884430227592,0.1711275570000064,0.6215134379999903,6.771058177000056,-0.0752001139999984,0.0035946439999985,-0.0005867969999999
1718276884431370512,0.1760885570000062,0.6590814379999897,6.777421177000057,-0.0795861139999984,0.0037656439999985,-0.0006137969999999
1718276884432583147,0.1682495570000061,0.6843294379999905,6.799813177000058,-0.0836591139999984,0.0038516439999985,-0.0001037949999999
1718276884433809809,0.1518405570000062,0.6898664379999904,6.797955177000058,-0.0866371139999984,0.0033106439999985,-0.0006587949999999
1718276884435794674,0.1266835570000067,0.7049654379999903,6.796629177000056,-0.0883881139999984,0.0017186439999985,-0.0010777949999999
1718276884435821288,0.1182405570000067,0.7100434379999904,6.805003177000058,-0.0891921139999984,0.0005556439999985,-0.0004237949999999
1718276884436992855,0.1269985570000062,0.7102680379999904,6.790762177000058,-0.0905281139999984,0.0022226439999985,0.000374205
1718276884438378057,0.1488415570000065,0.7228480379999904,6.812661177000057,-0.0932621139999984,0.0068786439999985,0.000256205
1718276884438402029,0.1838335570000062,0.7479360379999901,6.818128177000056,-0.0976241139999984,0.0138956439999984,-0.0003917949999999
1718276884439532495,0.2231595570000065,0.7853330379999905,6.846628177000058,-0.1027201139999984,0.0216026439999985,-0.000769797
1718276884440767220,0.2709555570000062,0.8081970379999899,6.861155227000055,-0.1082321139999984,0.0283426439999985,-0.000362797
1718276884442006128,0.3014905570000062,0.8112570379999902,6.884385177000057,-0.1124181039999984,0.0336676439999985,0.000575203
1718276884443209175,0.3230475570000065,0.80414703799999,6.892262177000055,-0.1140761039999984,0.0363256439999985,0.000980205
1718276884443225944,0.3271805570000063,0.7965610379999899,6.906478177000058,-0.1130691039999984,0.0371636439999985,0.000195203
1718276884444409128,0.3141415570000063,0.7741180379999901,6.906361177000059,-0.1109001039999984,0.0369616439999985,-0.0001907969999999
1718276884445608830,0.3008455570000067,0.7465920379999897,6.900455177000056,-0.1076991039999984,0.0361286439999985,0.000356203
1718276884446816517,0.2876205570000069,0.7241440379999905,6.909289177000058,-0.1053140989999984,0.0342826439999985,0.000759203
1718276884454018033,0.2747545570000067,0.71187043799999,6.923464177000057,-0.1047760989999984,0.0323096439999985,8.520300000000028e-05
1718276884455900560,0.2663285570000067,0.7071904379999904,6.937312777000056,-0.1054710989999984,0.0302786439999984,-0.0005977969999999
1718276884455915592,0.2579215570000064,0.7025374379999906,6.937835777000059,-0.1063941039999984,0.0288776439999985,-8.079699999999986e-05
1718276884455927895,0.2452915570000067,0.7003114379999904,6.961266777000058,-0.1074960989999984,0.0279026439999985,0.000572203
1718276884455938652,0.2411805570000068,0.7127184379999904,6.968991777000058,-0.1084380989999984,0.0278156439999985,0.000833203
1718276884455948001,0.2414435570000068,0.7227514379999903,6.990288777000057,-0.1098481039999984,0.0281886439999985,0.000164203
1718276884455955042,0.2462065570000062,0.7355524379999906,7.003791777000056,-0.1127710989999984,0.0286376439999985,-0.0003837969999999
1718276884455978071,0.2637485570000062,0.7607394379999899,7.003706777000058,-0.1164530989999984,0.0291696439999985,0.000127203
1718276884455989557,0.2898645570000067,0.7810644379999905,7.033465777000056,-0.1206391039999984,0.0306146439999985,0.0003752029999999
1718276884456361324,0.3116975570000063,0.8084220379999907,7.047716777000058,-0.1236361039999984,0.0342436439999985,0.0002492029999999
1718276884457640652,0.3291375570000061,0.8234250379999903,7.0623577770000585,-0.1258971039999984,0.0371796439999985,0.0002542029999999
1718276884458454686,0.3462795570000064,0.8431550379999899,7.0771437770000585,-0.1270041039999984,0.0382116439999985,0.000122203
1718276884459785850,0.3589855570000062,0.8408154379999905,7.099659777000056,-0.1274881039999984,0.0373036439999985,-2.079699999999992e-05
1718276884462283287,0.3546555570000064,0.8237174379999903,7.1152357770000565,-0.1274650989999984,0.0359886439999985,0.000237203
1718276884462299261,0.3501815570000067,0.7917804379999905,7.130426777000057,-0.1265221039999984,0.0343126439999985,9.820300000000028e-05
1718276884463655593,0.3413735570000068,0.7523244379999902,7.152762777000056,-0.1247791039999984,0.0329466439999985,-0.0004327969999999
1718276884463671501,0.3283335570000067,0.7251404379999902,7.176068777000057,-0.1233241039999984,0.0316166439999985,-0.0002977969999999
1718276884464928978,0.3155375570000064,0.7128934379999905,7.198986777000059,-0.1232271139999984,0.0306506439999985,-0.0001687969999999
1718276884464941182,0.3198245570000065,0.7055834379999903,7.207148777000058,-0.1235421139999984,0.0312396439999985,0.000232205
1718276884466093800,0.298545557000006,0.7130394379999898,7.222748777000058,-0.1238561039999984,0.0289656439999985,0.000617205
1718276884467361072,0.2513115570000065,0.7008064379999905,7.246436777000057,-0.1226071039999984,0.0212186439999985,0.001109205
1718276884468503365,0.2297285570000065,0.6981624379999907,7.246537777000058,-0.1210661039999984,0.0180676439999985,0.000967205
1718276884469757880,0.1913735570000066,0.7006604379999903,7.245366777000056,-0.1205301039999984,0.0139886439999985,0.000281205
1718276884470991818,0.1832125570000066,0.7353694379999903,7.245121777000056,-0.1227361039999984,0.0132996439999985,0.000530205
1718276884472213267,0.0759315570000061,0.7275114379999903,7.223717777000057,-0.1178281039999984,0.0009596439999985,0.000884205
1718276884472227275,0.0327215570000066,0.7174934379999902,7.201916777000058,-0.1150291039999984,-0.0072253560000014,0.001114205
1718276884473386572,-0.0103004429999931,0.70263543799999,7.179526777000057,-0.1127261039999984,-0.0138883560000015,0.001084205
1718276884474631909,-0.044474442999993,0.7076884379999906,7.157057777000057,-0.1123941039999984,-0.0191573560000014,0.001318205
1718276884475863088,-0.0696534429999934,0.7180284379999902,7.164035777000056,-0.1146431039999984,-0.0220043560000014,0.001419205
1718276884477533568,-0.0860524429999933,0.7480304379999899,7.155423777000057,-0.1177690989999984,-0.0220733560000014,0.001400205
1718276884477541651,-0.0814384429999932,0.7655464379999904,7.170215777000056,-0.1199790989999984,-0.0212573560000015,0.001526205
1718276884478479489,-0.0728404429999937,0.7804614379999901,7.147883777000058,-0.1209180989999984,-0.0217553560000014,0.001913205
1718276884479752610,-0.0559044429999935,0.79045543799999,7.1328887770000575,-0.1214890989999984,-0.0236133560000014,0.002028205
1718276884480937291,-0.0514004429999937,0.8127774379999905,7.140669777000058,-0.1232050989999984,-0.0230573560000014,0.002421205
1718276884480967854,-0.0508964429999937,0.8131004379999903,7.155191777000057,-0.1253940989999984,-0.0202723560000014,0.002426205
1718276884482269039,-0.0381054429999937,0.8105844379999902,7.146874777000057,-0.1252250989999984,-0.0187833560000014,0.001903203
1718276884483473577,-0.0551244429999936,0.8106734379999899,7.161888777000057,-0.1254130989999984,-0.0207213560000014,0.001891203
1718276884484625975,-0.0600604429999932,0.7834434379999899,7.140104777000055,-0.1226641039999984,-0.0259443560000015,0.002003203
1718276884485863751,-0.0650384429999932,0.7608114379999906,7.141733777000058,-0.1191971039999984,-0.0285283560000014,0.002407203
1718276884487195531,-0.0654454429999931,0.7406454379999902,7.127574777000057,-0.1163681039999984,-0.0275053560000014,0.002564203
1718276884487206498,-0.0782654429999931,0.7327724379999903,7.141921777000058,-0.1144571039999984,-0.0241913560000014,0.001805203
1718276884488286371,-0.086907442999993,0.7323864379999905,7.149262177000058,-0.1129071039999984,-0.0227053560000014,0.0014282029999999
1718276884489544338,-0.0788854429999932,0.7172084379999903,7.150676177000056,-0.1104711039999984,-0.0228023560000014,0.001841203
1718276884490757132,-0.0668584429999936,0.6995494379999906,7.145149177000056,-0.1074141039999984,-0.0250953560000015,0.0025082029999999
1718276884492017579,-0.0716424429999932,0.6820364379999904,7.129857177000056,-0.1047630989999984,-0.0281843560000014,0.001971203
1718276884492028328,-0.0973724429999934,0.6720924379999904,7.114062177000057,-0.1033041039999984,-0.0310183560000015,0.0014292029999999
1718276884493184185,-0.1274974429999936,0.6643770379999903,7.106317177000057,-0.1009311039999984,-0.0335553560000014,0.001030203
1718276884494396261,-0.1622224429999932,0.6392170379999905,7.099481177000055,-0.0967851039999984,-0.0371623560000015,0.000902203
1718276884496292797,-0.1971504429999936,0.6188490379999904,7.069942177000058,-0.0917061039999984,-0.0422923560000014,0.000634203
1718276884496305152,-0.2234444429999931,0.5939160379999902,7.017555177000056,-0.0878001039999984,-0.0486493560000015,0.000479203
1718276884497600055,-0.2537844429999933,0.5863950379999899,6.980742227000057,-0.0854351039999984,-0.0552263560000014,0.000848203
1718276884498844093,-0.2919794429999932,0.5990240379999906,6.942125177000059,-0.0861041039999984,-0.0605733560000014,0.000674203
1718276884500141975,-0.3172094429999931,0.6093020379999906,6.940998177000058,-0.0879141039999984,-0.0636733560000015,0.000377205
1718276884500147882,-0.3338634429999937,0.6243920379999899,6.916372177000056,-0.0894611039999984,-0.0649893560000015,-0.0004407969999999
1718276884501431640,-0.3292074429999939,0.6420300379999905,6.891918177000056,-0.0916741039999984,-0.0654293560000014,-0.001125797
1718276884502805251,-0.3204004429999939,0.6620280379999901,6.853303777000058,-0.0934301039999984,-0.0656773560000014,-0.001274797
1718276884504276803,-0.3073124429999933,0.6895300379999905,6.8530427770000575,-0.0961971039999984,-0.0666133560000015,-0.001033797
1718276884504283025,-0.2984564429999936,0.70465800799999,6.852452777000058,-0.0984461039999984,-0.0663483560000015,-0.0010477969999999
1718276884505546116,-0.2898484429999935,0.70962200799999,6.8369987770000575,-0.0988411039999984,-0.0654463560000015,-0.0011787969999999
1718276884510269199,-0.2774914429999936,0.6769760079999899,6.836587777000059,-0.0952971039999984,-0.0617883560000014,-0.0020637969999999
1718276884511865852,-0.2654024429999932,0.6442980379999901,6.8224847770000565,-0.0911011039999984,-0.0605313560000015,-0.002163797
1718276884511883634,-0.2578284429999933,0.6139370379999903,6.816440777000058,-0.0859901039999984,-0.0612493560000014,-0.002136797
1718276884511946852,-0.2544134429999936,0.5763400379999901,6.810846777000056,-0.0814021039999984,-0.0619033560000014,-0.001714797
1718276884511967134,-0.2459314429999936,0.5665120379999901,6.818299777000056,-0.0813121039999984,-0.0613633560000014,-0.0018447969999999
1718276884511979168,-0.2170984429999934,0.5188890379999903,6.804054777000059,-0.0757851039999984,-0.0599213560000014,-0.0023357969999999
1718276884513489897,-0.1883114429999935,0.4760140379999906,6.813100777000057,-0.0699781039999984,-0.0573523560000014,-0.002549797
1718276884513497334,-0.1548694429999938,0.4359600379999899,6.806622777000055,-0.0661241039999984,-0.0534423560000014,-0.002634797
1718276884514740176,-0.0871224429999938,0.4202900379999903,6.793399177000056,-0.0631341039999984,-0.0430383560000014,-0.002150797
1718276884516131850,-0.0783724429999939,0.4352580379999903,6.807548177000056,-0.0647211039999984,-0.0426493560000014,-0.0025567969999999
1718276884516139274,-0.0314094429999939,0.4327810379999905,6.807420177000059,-0.0654861039999984,-0.0375353560000015,-0.002663797
1718276884517403166,0.0197535570000061,0.4229070379999901,6.806776177000058,-0.0659071039999984,-0.0324653560000014,-0.0031687969999999
1718276884518817794,0.0623545570000063,0.4128420379999902,6.784191177000059,-0.0654421039999984,-0.0265373560000014,-0.003264797
1718276884520310872,0.1007085570000064,0.4151080379999904,6.754347177000056,-0.0652651039999984,-0.0215813560000015,-0.003101797
1718276884520338632,0.1391055570000069,0.42244403799999,6.739884177000056,-0.0659031039999984,-0.0176403560000015,-0.002683797
1718276884521573254,0.1731015570000065,0.4468920379999901,6.7017661770000565,-0.0658911039999984,-0.0159413560000014,-0.002941797
1718276884522888641,0.207297557000006,0.45686703799999,6.670909177000059,-0.0669291039999984,-0.0139653560000015,-0.003206797
1718276884524332191,0.2415745570000065,0.4619470379999903,6.625051177000058,-0.0680301039999984,-0.0109743560000015,-0.003333797
1718276884524340853,0.2938215570000062,0.52170703799999,6.608374177000057,-0.0744271039999984,-0.0038233560000014,-0.003329797
1718276884525625604,0.2981395570000063,0.52420103799999,6.623040177000057,-0.0748401039999984,-0.0033723560000014,-0.003594797
1718276884526999684,0.3163725570000061,0.5596890379999904,6.627956227000059,-0.0814651039999984,-0.0003153560000015,-0.004149797
1718276884528899560,0.3300555570000065,0.5875920379999902,6.635131177000058,-0.0868621039999984,0.0020376439999984,-0.003502797
1718276884528933710,0.3345875570000062,0.5855230379999898,6.659630177000059,-0.0890941039999984,0.0027506439999984,-0.0020487969999999
1718276884530423108,0.3173795570000066,0.5706104379999901,6.675668177000055,-0.0879251039999984,0.0019616439999985,-0.0016457969999999
1718276884530456112,0.2999965570000062,0.5505984379999903,6.6758171770000585,-0.0855011039999984,0.0006716439999984,-0.001902797
1718276884531577687,0.2573205570000069,0.5355514379999905,6.690590177000056,-0.0836290989999984,-0.0001843560000014,-0.002290797
1718276884532885536,0.2189475570000062,0.5330244379999903,6.706137777000055,-0.0829360989999984,-0.0026213560000014,-0.002032797
1718276884532905397,0.1890085570000063,0.5453054379999902,6.736813777000055,-0.0827350989999984,-0.0065663560000014,-0.0017857969999999
1718276884534101180,0.2015915570000063,0.5625774379999899,6.752842777000056,-0.0832090989999984,-0.0088903560000014,-0.0012717969999999
1718276884535347217,0.2062885570000067,0.57530443799999,6.767694777000057,-0.0859161039999984,-0.0080643560000014,-0.0010167969999999
1718276884536559686,0.2241005570000068,0.6005424379999906,6.826731777000057,-0.0906801039999984,-0.0051313560000014,-0.0012897969999999
1718276884537791321,0.2335375570000064,0.6306234379999903,6.8633747770000575,-0.0953781039999984,-0.0005873560000014,-0.001285797
1718276884539280820,0.251075557000006,0.6553184379999903,6.909148777000056,-0.0979571039999984,0.0048576439999985,-0.0007287969999999
1718276884539293367,0.2766245570000066,0.6501844379999904,6.932978777000056,-0.0978401039999984,0.0094706439999985,-0.0001647969999999
1718276884540266852,0.2848695570000065,0.6349714379999903,6.948790777000055,-0.0958381039999984,0.0121526439999985,-0.000132797
1718276884541499446,0.2846665570000068,0.6297714379999904,6.934247777000058,-0.0943661039999984,0.0127836439999985,1.320300000000026e-05
1718276884542753688,0.2845365570000069,0.6393524379999904,6.9422937770000575,-0.0935911039999984,0.0133976439999985,0.000158203
1718276884544024853,0.3017245570000061,0.6443204379999902,6.949539777000057,-0.0944361039999984,0.0157106439999985,3.420300000000001e-05
1718276884544033740,0.3149085570000061,0.6568294379999904,6.9412767770000565,-0.0962841039999984,0.0187026439999985,-9.17969999999998e-05
1718276884545278490,0.3324835570000063,0.6768984379999904,6.946656777000058,-0.0991401039999984,0.0210066439999985,-0.001026797
1718276884546471117,0.3502185570000065,0.72176443799999,6.944900777000055,-0.1034591039999984,0.0222736439999985,-0.001444797
1718276884547667448,0.3682355570000069,0.7766914379999904,6.951116777000055,-0.1094151039999984,0.0245436439999985,-0.001333797
1718276884548980345,0.3738035570000061,0.8342770379999906,6.971619777000056,-0.1166321039999984,0.0274756439999985,-0.001490797
1718276884556367893,0.3751705570000061,0.8896330379999903,6.991681777000059,-0.1245261039999984,0.0285746439999985,-0.001797797
1718276884556376103,0.3508985570000063,0.93509003799999,7.019812777000058,-0.1316191039999984,0.0279736439999985,-0.0018427969999999
1718276884558109572,0.3263225570000064,0.97547403799999,7.040941777000059,-0.1374571039999984,0.0256076439999985,-0.001758797
1718276884558131389,0.2845735570000066,1.00589003799999,7.077211777000057,-0.1422851039999984,0.0220696439999985,-0.001808797
1718276884558145058,0.2213305570000069,1.0188720379999898,7.106037777000059,-0.1453121039999984,0.0174196439999985,-0.001984797
1718276884558151374,0.1532395570000062,1.0140740379999906,7.136227777000059,-0.1450321039999984,0.0120716439999985,-0.001878797
1718276884558171049,0.0845685570000065,0.98910203799999,7.1751127770000585,-0.1417001039999984,0.0058516439999984,-0.0016257969999999
1718276884558193563,0.0242615570000062,0.9493314379999902,7.199701777000056,-0.1376861039999984,-0.0002023560000014,-0.0009697969999999
1718276884558209279,-0.0359784429999934,0.8998854379999902,7.230278777000056,-0.1340021039999984,-0.0071233560000014,-0.0012537969999999
1718276884558947507,-0.0835784429999934,0.8527454379999904,7.268886777000056,-0.1298720989999984,-0.0131973560000014,-0.001396797
1718276884560169959,-0.1226974429999938,0.8053864379999902,7.323498777000058,-0.1253190989999984,-0.0166023560000014,-0.0011187969999999
1718276884560181005,-0.1448444429999931,0.7480624379999906,7.385102777000056,-0.1202511039999984,-0.0180583560000014,-0.001357797
1718276884561258015,-0.1712274429999933,0.6833494379999898,7.417039777000057,-0.1148311039999984,-0.0189493560000015,-0.001192797
1718276884563037357,-0.1892874429999935,0.6234524379999902,7.458431777000058,-0.1091531039999984,-0.0200813560000014,3.620299999999941e-05
1718276884563048153,-0.1901844429999932,0.5735054379999907,7.483465777000055,-0.1042611139999984,-0.0204183560000014,0.000598203
1718276884564273797,-0.1992954429999935,0.5285924379999899,7.515509777000058,-0.1003901139999984,-0.0192653560000015,0.0010322029999999
1718276884565496030,-0.1997904429999932,0.4985354379999898,7.538543777000058,-0.0972311139999984,-0.0184833560000014,0.000660203
1718276884566719118,-0.2086934429999933,0.4687194379999904,7.538553777000057,-0.0947201139999984,-0.0194863560000014,0.0002702029999999
1718276884567926455,-0.2093144429999932,0.4681954379999903,7.540053777000056,-0.0918731139999984,-0.0213923560000014,0.0006752029999999
1718276884567931391,-0.2013384429999936,0.4532404379999906,7.526164777000057,-0.0898761039999984,-0.0242623560000015,0.0010652029999999
1718276884569229889,-0.1974614429999936,0.4554094379999906,7.518071777000055,-0.0880991039999984,-0.0260883560000015,0.0003982029999999
1718276884570476108,-0.1934964429999935,0.4527804379999903,7.494274777000056,-0.0866001039999984,-0.0280333560000014,-0.000538797
1718276884571671264,-0.2148224429999932,0.4404704379999898,7.447198777000056,-0.0853981039999984,-0.0300283560000014,-0.0016117969999999
1718276884572930557,-0.2280384429999933,0.4426264379999903,7.433395777000059,-0.0833801039999984,-0.0330403560000014,-0.0010867969999999
1718276884574049550,-0.2411954429999936,0.4351714379999904,7.397710777000058,-0.0819231039999984,-0.0367933560000014,9.22029999999999e-05
1718276884575736375,-0.3103944429999939,0.3609954379999902,7.372467777000056,-0.0754481039999984,-0.0483773560000014,-0.002339797
1718276884577057225,-0.2931694429999939,0.3661394379999901,7.341048777000056,-0.0765161039999984,-0.0477003560000014,-0.002878797
1718276884577069866,-0.3194904429999934,0.3310814379999902,7.334203777000058,-0.0718441039999984,-0.0510213560000014,-0.0031377969999999
1718276884577951485,-0.3209874429999934,0.2856574379999906,7.292213777000057,-0.0640561039999984,-0.0547823560000014,-0.0023187969999999
1718276884579376023,-0.3182564429999931,0.2230744379999903,7.263990777000059,-0.0560361039999984,-0.0588243560000015,-0.0024317969999999
1718276884580548085,-0.3153024429999934,0.1802164379999898,7.227080777000055,-0.0488751039999984,-0.0620023560000015,-0.003077797
1718276884581766634,-0.3119774429999936,0.1473894379999902,7.220205777000058,-0.0435661039999984,-0.0630433560000015,-0.003582797
1718276884583093861,-0.3040834429999937,0.1221614379999899,7.221102777000057,-0.0399291039999984,-0.0623733560000015,-0.0036897969999999
1718276884583117081,-0.2835434429999937,0.1042564379999901,7.222764777000057,-0.0362290989999984,-0.0618693560000014,-0.003396797
1718276884584572194,-0.2715704429999938,0.08621643799999,7.208160177000057,-0.0316351039999984,-0.0617683560000015,-0.0039007969999999
1718276884585451123,-0.2680954429999933,0.0730974379999903,7.194527177000057,-0.0271911039999984,-0.0619483560000014,-0.0037397969999999
1718276884586641227,-0.2642764429999933,0.07008043799999,7.165443177000058,-0.0243861039999984,-0.0611253560000014,-0.003452797
1718276884587959598,-0.2727314429999938,0.07484243799999,7.158942177000058,-0.0240981039999984,-0.0593913560000014,-0.002771797
1718276884587973599,-0.2893024429999933,0.0849824379999898,7.1578541770000585,-0.0259231039999984,-0.0588093560000015,-0.003044797
1718276884589198415,-0.3059434429999936,0.0952314379999898,7.127046227000057,-0.0277541039999984,-0.0599923560000014,-0.002932797
1718276884590347754,-0.314548442999993,0.1052350379999906,7.089237177000056,-0.0278471039999984,-0.0638113560000014,-0.002827797
1718276884591582378,-0.3233094429999937,0.1200200379999903,7.029941177000057,-0.0272311039999984,-0.0680193560000015,-0.002057797
1718276884592815413,-0.3318554429999932,0.1594220379999902,6.977530177000056,-0.0276341039999984,-0.0712453560000014,-0.0015517969999999
1718276884594063403,-0.3615204429999937,0.1718640379999903,6.946039177000057,-0.0278771039999984,-0.0741743560000014,-0.0021047969999999
1718276884594073386,-0.3134044429999939,0.2591120379999898,6.881265177000058,-0.0356951139999984,-0.0722963560000015,-0.003479797
1718276884595175279,-0.3342154429999932,0.2818990379999899,6.8347721770000565,-0.0384691139999984,-0.0758373560000014,-0.003523797
1718276884596421579,-0.3077614429999936,0.3420490379999902,6.795762177000056,-0.0450461139999984,-0.0770813560000014,-0.0031807969999999
1718276884597715930,-0.2770734429999935,0.4094420379999903,6.733518777000056,-0.0511041139999984,-0.0776283560000015,-0.003228797
1718276884599000762,-0.2420394429999937,0.4646144379999902,6.693527777000055,-0.0575321139999984,-0.0770763560000015,-0.003538797
1718276884599011222,-0.2238264429999936,0.5196724379999902,6.667950777000058,-0.0639271139999984,-0.0742973560000014,-0.004227797
1718276884600241515,-0.1969894429999936,0.5699674379999902,6.635474777000056,-0.0710561139999984,-0.0707293560000014,-0.004386797
1718276884601400882,-0.1960634429999939,0.60527043799999,6.619824777000058,-0.0763481139999984,-0.0697433560000015,-0.003749797
1718276884602632230,-0.199633442999993,0.6330684379999902,6.596273777000059,-0.0804041139999984,-0.0704663560000014,-0.003515797
1718276884603864460,-0.1994784429999931,0.6529554379999903,6.572347777000056,-0.0814841139999984,-0.0719993560000014,-0.004066797
1718276884605205897,-0.2121494429999932,0.6556624379999904,6.548881777000057,-0.0820921139999984,-0.0744923560000015,-0.004355797
1718276884605218902,-0.2207424429999935,0.6654614379999904,6.549734777000055,-0.0819631139999984,-0.0759173560000015,-0.003830797
1718276884606382377,-0.2293554429999933,0.6801174379999901,6.557987777000056,-0.0817741139999984,-0.0770973560000015,-0.003436797
1718276884607623375,-0.2463854429999932,0.6850334379999898,6.558329777000057,-0.0816871139999984,-0.0784103560000014,-0.0031757969999999
1718276884608804770,-0.2593294429999933,0.6824374379999902,6.557708777000059,-0.0805971139999984,-0.0801473560000014,-0.003712797
1718276884612890930,-0.2810094429999934,0.6697784379999903,6.573630777000057,-0.0782961139999984,-0.0820273560000015,-0.0035737969999999
1718276884612904216,-0.2985864429999938,0.65461143799999,6.560467777000059,-0.0753811139999984,-0.0845903560000014,-0.0027737969999999
1718276884614843382,-0.3245344429999939,0.63947743799999,6.585012777000056,-0.0731041139999984,-0.0861643560000014,-0.0019667969999999
1718276884614861216,-0.3458414429999936,0.6319524379999906,6.585733777000056,-0.0722831139999984,-0.0859003560000015,-0.0015587969999999
1718276884614875368,-0.3501384429999938,0.6342664379999903,6.616364777000057,-0.0720231139999984,-0.0852233560000014,-0.001416797
1718276884614895850,-0.3500874429999934,0.6490194379999902,6.608071177000056,-0.0722851139999984,-0.0854933560000015,-0.001818797
1718276884615950939,-0.3330534429999938,0.6835044379999899,6.608969177000058,-0.0734391139999984,-0.0861203560000014,-0.0011647969999999
1718276884615966884,-0.3070564429999938,0.7331774379999902,6.609144177000059,-0.0772811139999984,-0.0857253560000014,-0.000521797
1718276884617217378,-0.2804434429999931,0.7980104379999902,6.629960177000058,-0.0840071139999984,-0.0830653560000014,-0.000677797
1718276884618650881,-0.2577454429999932,0.8607074379999898,6.650062222000056,-0.0922881139999984,-0.0799633560000015,-0.000975797
1718276884619966357,-0.2223734429999935,0.9112244379999898,6.678004177000059,-0.1007361139999984,-0.0775063560000015,-0.0011467969999999
1718276884619984502,-0.182828442999994,0.95441443799999,6.699059177000058,-0.1090631139999984,-0.0757233560000015,-0.000924797
1718276884621056088,-0.1475434429999935,0.9950974379999906,6.720564177000058,-0.1171951139999984,-0.0735083560000014,-0.0004317969999999
1718276884622267012,-0.1248604429999937,1.0332954379999904,6.734154777000058,-0.1253361139999984,-0.0698713560000014,-6.179700000000015e-05
1718276884624421595,-0.1149824429999932,1.0738324379999902,6.769511777000055,-0.1329801139999984,-0.0668403560000015,-0.000354797
1718276884624439816,-0.1011174429999934,1.1067804379999902,6.797086777000056,-0.1391861139999984,-0.0644883560000015,-0.0010417969999999
1718276884625620608,-0.0790184429999933,1.1394634379999906,6.825111777000057,-0.1440911139999984,-0.0622453560000014,-0.001722797
1718276884626879270,-0.0400154429999934,1.1624174379999903,6.846685777000055,-0.1491461139999984,-0.0604503560000015,-0.0017457969999999
1718276884626892444,-0.0266294429999938,1.19496343799999,6.8755617770000566,-0.1531631139999984,-0.0596213560000014,-0.002029797
1718276884628087036,-0.0220364429999939,1.21252543799999,6.9054777770000575,-0.1555891139999984,-0.0594343560000015,-0.001909797
1718276884629271856,-0.0348354429999933,1.2098674379999903,6.935727777000058,-0.1549351139999984,-0.0586493560000015,-0.002028797
1718276884630471932,-0.0395734429999936,1.1919594379999905,6.943452777000059,-0.1514051139999984,-0.0571993560000015,-0.002525797
1718276884631696709,-0.0614324429999932,1.1544130379999902,6.944499777000056,-0.1472091139999984,-0.0572883560000015,-0.002498797
1718276884632933738,-0.0833204429999934,1.1170630379999895,6.960549777000058,-0.1436661139999984,-0.0595193560000014,-0.0024887969999999
1718276884632951097,-0.1048894429999938,1.0848900379999895,6.968354777000056,-0.1416001139999984,-0.0608673560000015,-0.002617797
1718276884634093987,-0.117915442999994,1.0478060379999907,7.007927777000058,-0.1400451139999984,-0.0605463560000015,-0.001803797
1718276884635297356,-0.1139764429999936,1.0105910079999905,7.016790777000058,-0.1378631139999984,-0.0587953560000014,-0.0013807969999999
1718276884636509947,-0.1102844429999938,0.9731630379999904,7.0178137770000575,-0.1343671139999984,-0.0580563560000014,-0.001353797
1718276884637789636,-0.0898434429999932,0.93544503799999,6.989032777000056,-0.1293701139999984,-0.0566473560000014,-0.001316797
1718276884638931021,-0.0609044429999938,0.9074410379999904,6.976326777000056,-0.1244901139999984,-0.0537173560000014,-0.000736797
1718276884640240979,-0.0316364429999933,0.8845914379999904,6.962968777000058,-0.1210851139999984,-0.0496493560000014,-0.0002907969999999
1718276884640265240,-0.0019264429999936,0.8722384379999903,6.947042777000057,-0.1206231039999984,-0.0478513560000014,-0.000945797
1718276884641389934,0.0071325570000062,0.87287343799999,6.922187777000057,-0.1234851039999984,-0.0475613560000014,-0.001764797
1718276884642624457,0.0164905570000069,0.8837654379999901,6.928473777000056,-0.1288591039999984,-0.0477823560000014,-0.001669797
1718276884643822595,0.0218445570000065,0.90205743799999,6.935135777000056,-0.1350151039999984,-0.0456863560000014,-0.001164797
1718276884645087295,0.0400415570000063,0.9375194379999904,6.934384777000057,-0.1416491039999984,-0.0421283560000015,-0.000518797
1718276884645119424,0.0372855570000065,0.9657904379999904,6.938921777000056,-0.1489831039999984,-0.0384193560000015,-0.001072797
1718276884646241442,0.0301015570000067,1.00623343799999,6.959173777000058,-0.1559441039999984,-0.0360673560000015,-0.001365797
1718276884647471742,0.0097115570000068,1.0290834379999902,6.965353777000058,-0.1602450989999984,-0.0351873560000014,-0.001384797
1718276884648659188,-0.0070964429999933,1.0196344379999902,6.996185777000057,-0.1618661039999984,-0.0366033560000015,-0.0007377969999999
1718276884649964670,-0.015934442999993,0.9950144379999905,6.988741777000056,-0.1603911039999984,-0.0397533560000015,-0.000884797
1718276884651084320,-0.0419784429999932,0.9553624379999904,6.980410777000055,-0.1570891039999984,-0.0430603560000014,-0.001816797
1718276884651145696,-0.0812404429999935,0.9029524379999904,7.012119777000056,-0.1515011039999984,-0.0468403560000015,-0.0018027969999999
1718276884652751615,-0.1335244429999937,0.8379494379999901,7.021128777000056,-0.1438501039999984,-0.0512123560000014,-0.002045797
1718276884653671981,-0.1816984429999939,0.7752504379999903,7.037538777000056,-0.1355151139999984,-0.0557683560000014,-0.0025507969999999
1718276884654933950,-0.2256744429999932,0.6954254379999905,7.061984777000057,-0.1271751139999984,-0.0604813560000014,-0.002791797
1718276884656261855,-0.2567644429999935,0.6231634379999903,7.078633777000057,-0.1198651139999984,-0.0652283560000015,-0.003041797
1718276884656269065,-0.2876214429999931,0.5658824379999904,7.118831777000058,-0.1143511139999984,-0.0696113560000015,-0.002500797
1718276884657357567,-0.3267544429999933,0.5037734379999901,7.150786777000058,-0.1093191139999984,-0.0726193560000015,-0.002219797
1718276884659045198,-0.3657444429999937,0.4416044379999903,7.174496777000057,-0.1042881139999984,-0.0736073560000014,-0.002324797
1718276884659057872,-0.4088724429999936,0.4113844379999899,7.197575777000056,-0.0999621139999984,-0.0749603560000014,-0.002698797
1718276884660198002,-0.4433604429999939,0.3914474379999906,7.205858777000059,-0.0975091139999984,-0.0788203560000014,-0.002573797
1718276884661416600,-0.4862884429999933,0.3963264379999905,7.207021777000056,-0.0962851139999984,-0.0855053560000014,-0.0019417969999999
1718276884662638115,-0.5249174429999933,0.4037794379999906,7.207027777000058,-0.0954741139999984,-0.0930013560000014,-0.001984797
1718276884664925458,-0.5634784429999933,0.4110804379999905,7.198918777000055,-0.0942241139999984,-0.0984773560000015,-0.002410797
1718276884666153209,-0.6019364429999935,0.4085004379999901,7.174839777000056,-0.0926541139999984,-0.1021743560000014,-0.003354797
1718276884666185675,-0.6233384429999933,0.4208294379999899,7.151843777000056,-0.0922551139999984,-0.1060943560000015,-0.0035117969999999
1718276884666242117,-0.6488314429999936,0.4407784379999904,7.144873777000056,-0.0932961139999984,-0.1106003560000015,-0.0028817969999999
1718276884667332449,-0.6614024429999938,0.45363443799999,7.1376277770000565,-0.0955401139999984,-0.1148683560000015,-0.0022607969999999
1718276884668551266,-0.6698824429999934,0.4587764379999899,7.115059777000056,-0.0961291139999984,-0.1174183560000014,-0.002016797
1718276884669749048,-0.6738944429999933,0.4515984379999898,7.098967777000056,-0.0968681139999984,-0.1167213560000015,-0.0024177969999999
1718276884671027346,-0.6864114429999935,0.4491494379999901,7.090343777000058,-0.0970941139999984,-0.1149183560000014,-0.002938797
1718276884671075696,-0.6863474429999936,0.4540464379999898,7.083132777000055,-0.0972571139999984,-0.1140413560000014,-0.0026677969999999
1718276884672271026,-0.6781144429999935,0.4588074379999898,7.092078777000057,-0.0965571139999984,-0.1150403560000015,-0.002003797
1718276884673434699,-0.6616284429999932,0.4437774379999902,7.077665777000058,-0.0943531139999984,-0.1168773560000015,-0.002005797
1718276884674725533,-0.6412194429999936,0.4159614379999901,7.062924777000058,-0.0896711139999984,-0.1172453560000015,-0.002647797
1718276884676012900,-0.6333704429999938,0.3856844379999905,7.0408467770000565,-0.0852201139999984,-0.1158143560000014,-0.003009797
1718276884676026265,-0.6296324429999938,0.3628294379999902,7.041931777000056,-0.0815481139999984,-0.1135803560000015,-0.0029717969999999
1718276884677185592,-0.6258974429999935,0.3499194379999906,7.058850777000057,-0.0786351139999984,-0.1123693560000015,-0.002409797
1718276884678405484,-0.6179744429999936,0.3394704379999898,7.060266777000057,-0.0754821139999984,-0.1120963560000014,-0.002121797
1718276884679595626,-0.6015404429999935,0.3094604379999902,7.061281777000058,-0.0723571139999984,-0.1115213560000014,-0.002099797
1718276884680795234,-0.5807764429999935,0.2917364379999904,7.054446777000058,-0.0695321139999984,-0.1105083560000015,-0.0022107969999999
1718276884682035209,-0.5723074429999933,0.2769464379999904,7.069744777000059,-0.0692811139999984,-0.1093333560000015,-0.002200797
1718276884682049605,-0.5763704429999934,0.2745374379999901,7.069351777000056,-0.0697421139999984,-0.1077613560000014,-0.002326797
1718276884683251174,-0.5721744429999935,0.2914794379999899,7.084919777000058,-0.0693231039999984,-0.1061983560000014,-0.002176797
1718276884684546350,-0.5513524429999936,0.2983784379999906,7.078733777000056,-0.0673021039999984,-0.1055943560000014,-0.0017607969999999
1718276884685740575,-0.5305784429999938,0.3003774379999904,7.049448777000059,-0.0649041039999984,-0.1057403560000015,-0.0016177969999999
1718276884687042325,-0.5097394429999935,0.3171894379999906,7.050925777000057,-0.0634231039999984,-0.1060303560000015,-0.001077797
1718276884687051541,-0.4886884429999936,0.3195544379999906,7.051429777000056,-0.0629910989999984,-0.1062963560000014,-0.0009447969999999
1718276884688259203,-0.4802214429999933,0.3145354379999903,7.042991777000059,-0.0624051039999984,-0.1055103560000014,-0.0016017969999999
1718276884689415419,-0.4806284429999934,0.3043404379999906,7.028265777000057,-0.0601141039999984,-0.1063893560000015,-0.001727797
1718276884690672023,-0.3878474429999934,0.2987344379999905,6.985782177000056,-0.0570561039999984,-0.1026183560000015,-0.000761797
1718276884691960529,-0.3882664429999938,0.29349443799999,6.963852177000058,-0.0549271039999984,-0.1041343560000014,-0.000626797
1718276884691972588,-0.3840934429999936,0.2909604379999901,6.948022177000057,-0.0543061039999984,-0.1043103560000014,-0.001158797
1718276884693198585,-0.3451304429999935,0.3135424379999902,6.945974177000057,-0.0578281039999984,-0.0998683560000014,-0.0019517969999999
1718276884694401108,-0.3061794429999938,0.3361264379999905,6.930024177000057,-0.0613551039999984,-0.0951763560000014,-0.001946797
1718276884695655560,-0.2674684429999934,0.3635304379999899,6.930494177000058,-0.0643871039999984,-0.0922613560000014,-0.001283797
1718276884697058567,-0.2333004429999936,0.3784934379999903,6.900606177000058,-0.0658091039999984,-0.0910503560000014,-0.0008907969999999
1718276884697115611,-0.2078014429999937,0.39804343799999,6.868997177000057,-0.0656181039999984,-0.0901223560000015,-0.001817797
1718276884698144463,-0.2034444429999935,0.4152124379999903,6.8300021770000585,-0.0656421039999984,-0.0895623560000015,-0.002481797
1718276884699369030,-0.1990524429999938,0.4324764379999903,6.807284177000057,-0.0663241039999984,-0.0888763560000015,-0.0023487969999999
1718276884700588791,-0.2071964429999937,0.4671604379999905,6.784323177000059,-0.0683141139999984,-0.0891873560000014,-0.002097797
1718276884701834604,-0.2023544429999937,0.5096124379999902,6.767854177000058,-0.0722051139999984,-0.0905383560000015,-0.002265797
1718276884701862072,-0.1846614429999935,0.5596200379999903,6.758134177000056,-0.0771231139999984,-0.0921763560000014,-0.0028417969999999
1718276884703045200,-0.1582194429999937,0.6147010379999907,6.756118177000055,-0.0833111139999984,-0.0921523560000014,-0.003148797
1718276884704265359,-0.1319244429999937,0.6693330379999899,6.762778177000057,-0.0879681139999984,-0.0892353560000015,-0.003025797
1718276884705487257,-0.1099004429999936,0.7263380379999905,6.769698777000056,-0.0923681139999984,-0.0858923560000015,-0.0027627969999999
1718276884706707013,-0.1135164429999935,0.7439490379999902,6.791754777000058,-0.0954411139999984,-0.0832023560000015,-0.002628797
1718276884707997137,-0.1089484429999934,0.76144203799999,6.7920677770000575,-0.0974351139999984,-0.0825123560000014,-0.002104797
1718276884708006061,-0.1131364429999934,0.7591550379999903,6.7998577770000574,-0.0981151139999984,-0.0833393560000014,-0.0018477969999999
1718276884709177614,-0.1131654429999937,0.7444830379999905,6.800497777000056,-0.0980731139999984,-0.0836993560000014,-0.001451797
1718276884710403121,-0.1133714429999936,0.7246360379999905,6.801071777000056,-0.0967751139999984,-0.0833003560000014,-0.001308797
1718276884715460001,-0.1135914429999938,0.6997230379999905,6.824739777000057,-0.0950951139999984,-0.0813843560000015,-0.001017797
1718276884716872554,-0.1012124429999932,0.6868820379999898,6.833345777000058,-0.0926341139999984,-0.0790123560000014,-0.000852797
1718276884717020962,-0.0845384429999933,0.6814530379999899,6.841885777000057,-0.0905311139999984,-0.0766993560000015,-0.0006897969999999
1718276884717034626,-0.054836442999993,0.6740410379999904,6.8509217770000586,-0.0906711139999984,-0.0745313560000014,0.0001202029999999
1718276884717047635,-0.0332544429999932,0.6865140379999904,6.866139777000056,-0.0925311139999984,-0.0716463560000014,0.0003932029999999
1718276884717063568,-0.0156384429999931,0.6918420379999902,6.895507777000057,-0.0955641139999984,-0.0678113560000014,0.000267203
1718276884718253265,-0.0192064429999931,0.6995050379999906,6.932607777000057,-0.0983121139999984,-0.0630903560000014,0.000286203
1718276884718263645,-0.0316644429999934,0.6923020379999905,6.962524777000057,-0.0994701139999984,-0.0615333560000014,0.0002922029999999
1718276884719455309,-0.0570824429999938,0.68755543799999,6.970011777000056,-0.0999231139999984,-0.0632323560000015,0.000413203
1718276884720342804,-0.0868944429999931,0.67058343799999,6.985360777000058,-0.1000761139999984,-0.0668853560000014,0.0006552029999999
1718276884721550081,-0.1250884429999932,0.6634514379999904,6.969828777000057,-0.1003201139999984,-0.0703173560000015,0.0006312029999999
1718276884722761788,-0.1591494429999931,0.6733364379999905,6.9849947770000576,-0.1003631139999984,-0.0735753560000014,0.000746203
1718276884724080582,-0.1930204429999931,0.6784244379999905,6.984385777000057,-0.1009041139999984,-0.0758123560000015,0.000597203
1718276884724092559,-0.1887604429999931,0.6710794379999906,6.976208777000057,-0.1007791139999984,-0.0757273560000015,0.000198203
1718276884725251093,-0.1927634429999938,0.6885464379999898,6.975315777000057,-0.1023181139999984,-0.0764483560000014,-8.27969999999999e-05
1718276884726493783,-0.2006494429999932,0.7238844379999902,6.957966777000056,-0.1067121139999984,-0.0806583560000015,-0.0006727969999999
1718276884727707859,-0.1959244429999935,0.7563964379999905,6.950306777000058,-0.1100651139999984,-0.0813703560000015,-0.0001677969999999
1718276884728987015,-0.1953374429999932,0.7619224379999898,6.9567297770000565,-0.1132911139999984,-0.0807313560000014,-0.0003167969999999
1718276884728996842,-0.2031994429999939,0.7771114379999898,6.962769777000057,-0.1161661139999984,-0.0788673560000015,-0.0007197969999999
1718276884730188385,-0.2069314429999931,0.76524343799999,6.945894777000058,-0.1180581039999984,-0.0770233560000015,-0.0013877969999999
1718276884731418276,-0.2239224429999931,0.7455994379999897,6.931549777000056,-0.1176111039999984,-0.0769183560000015,-0.0008527969999999
1718276884732639120,-0.2200004429999933,0.7232274379999903,6.9099897770000585,-0.1156961039999984,-0.0769493560000015,-0.000444797
1718276884733874696,-0.2203564429999935,0.6934224379999901,6.8960857770000565,-0.1134231039999984,-0.0766683560000014,-3.1797000000000075e-05
1718276884735135304,-0.2291674429999932,0.6635544379999905,6.881544777000059,-0.1109151039999984,-0.0759043560000014,-1.1797000000000024e-05
1718276884735143954,-0.2250934429999935,0.6461904379999905,6.858951777000058,-0.1095971039999984,-0.0755593560000014,-0.000136797
1718276884736377917,-0.2419754429999934,0.6315004379999903,6.865136777000059,-0.1095201039999984,-0.0754573560000014,-0.000932797
1718276884737599240,-0.2502764429999935,0.6269224379999906,6.872478777000058,-0.1108781039999984,-0.0766033560000015,-0.000815797
1718276884738810095,-0.2754554429999938,0.6076944379999905,6.879631777000055,-0.1123841039999984,-0.0775223560000014,-0.000697797
1718276884739972716,-0.3093244429999933,0.5932764379999899,6.886739777000056,-0.1131581139999984,-0.0802383560000015,-0.000720797
1718276884739996029,-0.3433344429999938,0.5739224379999901,6.901769777000057,-0.1135511139999984,-0.0842123560000015,-0.0006147969999999
1718276884741152985,-0.3985484429999939,0.5471324379999905,6.900983777000056,-0.1133411139999984,-0.0880443560000015,-0.000902797
1718276884742407281,-0.4538954429999935,0.5201854379999904,6.931342777000056,-0.1126901139999984,-0.0916273560000014,-0.000784797
1718276884743610040,-0.5053254429999936,0.5003224379999903,6.939447777000057,-0.1104271139999984,-0.0964143560000014,-0.000665797
1718276884744856645,-0.5528214429999936,0.4875564379999899,6.940420777000057,-0.1067701139999984,-0.1022773560000015,-0.0005447969999999
1718276884746227744,-0.5918464429999937,0.4503434379999899,6.933659777000058,-0.1029831139999984,-0.1084653560000014,-0.000562797
1718276884746244230,-0.6181304429999936,0.4350884379999902,6.949732777000057,-0.0993891139999984,-0.1133223560000014,-0.000567797
1718276884747385669,-0.6440884429999936,0.4250734379999902,6.948687777000059,-0.0972671139999984,-0.1183043560000015,-0.001517797
1718276884748642904,-0.6615134429999934,0.4298684379999905,6.962699777000059,-0.0958571139999984,-0.1236593560000014,-0.002473797
1718276884749856012,-0.6702764429999934,0.4396264379999898,6.978234777000058,-0.0952851139999984,-0.1268523560000015,-0.002356797
1718276884751191409,-0.6620994429999936,0.44427043799999,6.978497777000057,-0.0939261039999984,-0.1277243560000014,-0.002486797
1718276884751200104,-0.6411614429999934,0.4463204379999898,6.994504777000056,-0.0923971039999984,-0.1263553560000014,-0.002333797
1718276884752405069,-0.6159314429999934,0.4409534379999905,7.017513777000056,-0.0907421039999984,-0.1236403560000014,-0.002569797
1718276884753690422,-0.5863494429999934,0.4233414379999906,7.0261567770000575,-0.0892461039999984,-0.1191933560000014,-0.002266797
1718276884761084707,-0.5482974429999934,0.4008144379999901,7.050231777000056,-0.0878201039999984,-0.1143403560000014,-0.0018267969999999
1718276884761096370,-0.5188514429999935,0.3831554379999902,7.065961777000058,-0.0858821039999984,-0.1111573560000014,-0.001926797
1718276884763191214,-0.4980524429999935,0.3654114379999898,7.074884777000058,-0.0832761039999984,-0.1092613560000015,-0.0016317969999999
1718276884763207070,-0.4773844429999938,0.3426554379999901,7.068431777000058,-0.0798521039999984,-0.1078663560000014,-0.0016027969999999
1718276884763217565,-0.4653744429999935,0.3295164379999901,7.063021777000055,-0.0756421039999984,-0.1067633560000014,-0.001036797
1718276884763228556,-0.4532314429999935,0.3067434379999901,7.048986777000058,-0.0719871039999984,-0.1058953560000014,-0.0010087969999999
1718276884763249563,-0.4622364429999934,0.3061024379999899,7.041028777000059,-0.0686841039999984,-0.1064343560000014,-0.001787797
1718276884763283572,-0.4627364429999936,0.3154494379999903,7.026185777000057,-0.0661581039999984,-0.1080973560000014,-0.002048797
1718276884763325088,-0.4586274429999937,0.32773243799999,7.0045727770000585,-0.0660241039999984,-0.1096803560000014,-0.001394797
1718276884763612064,-0.4497164429999936,0.3528204379999905,7.004630777000058,-0.0690340989999984,-0.1101843560000014,-0.0008857969999999
1718276884764913756,-0.4530634429999935,0.39061643799999,7.011253777000058,-0.0745031039999984,-0.1102853560000014,-0.000521797
1718276884766562024,-0.4688564429999935,0.42139743799999,7.016082777000056,-0.0813491039999984,-0.1109693560000014,-0.0009697969999999
1718276884766572848,-0.4891944429999932,0.4592784379999904,7.021314777000057,-0.0867861039999984,-0.1131313560000014,-0.0014147969999999
1718276884767615776,-0.5100234429999937,0.4870624379999902,7.005454777000056,-0.0901541039999984,-0.1175613560000014,-0.001200797
1718276884768860140,-0.5269084429999933,0.5120804379999899,6.998091777000056,-0.0920261039999984,-0.1221733560000014,-0.000711797
1718276884770180920,-0.5437234429999938,0.5371944379999902,6.981788177000056,-0.0941141039999984,-0.1274133560000014,-0.001025797
1718276884770193502,-0.5603244429999934,0.5722974379999901,6.979895177000056,-0.0973961039999984,-0.1321563560000014,-0.0016097969999999
1718276884771385234,-0.5599004429999936,0.6025054379999906,6.970067177000056,-0.1007651039999984,-0.1358363560000015,-0.002456797
1718276884772615832,-0.5085104429999936,0.6420404379999906,6.947174177000056,-0.1032351139999984,-0.1323363560000015,-0.002319797
1718276884773780049,-0.5429644429999936,0.6372854379999903,6.940485177000058,-0.1023611139999984,-0.1404991560000015,-0.001835797
1718276884774989168,-0.5180474429999935,0.6515390379999906,6.9337942270000585,-0.1000391139999984,-0.1418491560000014,-0.001831797
1718276884776260101,-0.4889084429999935,0.6582000379999906,6.911584177000059,-0.0967171139999984,-0.1411001560000014,-0.002206797
1718276884776267387,-0.4512114429999936,0.6598310079999902,6.904220177000056,-0.0932441139999984,-0.1380491560000014,-0.002830797
1718276884777476353,-0.4347194429999936,0.6491340379999904,6.9045871770000575,-0.0894451139999984,-0.1344741560000014,-0.003312797
1718276884778709457,-0.4139904429999936,0.65071603799999,6.905982177000059,-0.0859481139999984,-0.1309671560000014,-0.003132797
1718276884779900561,-0.4053404429999936,0.6655990379999901,6.897549177000059,-0.0868821139999984,-0.1309591560000014,-0.003538797
1718276884781144065,-0.3677054429999933,0.6179650379999904,6.907719177000056,-0.0824671139999984,-0.1246991560000014,-0.0028067969999999
1718276884781155322,-0.3468324429999934,0.6051570379999902,6.916960177000057,-0.0802411139999984,-0.1220521560000015,-0.002241797
1718276884782336459,-0.3425224429999933,0.6175054379999902,6.925450177000057,-0.0809801139999984,-0.1218671560000015,-0.0015787969999999
1718276884784189575,-0.3346364429999935,0.6020334379999903,6.9347751770000565,-0.0774461139999984,-0.1205801560000015,-0.0011477969999999
1718276884784200521,-0.3352354429999935,0.5765934379999903,6.913086177000059,-0.0729241139999984,-0.1182941560000014,-0.0012367969999999
1718276884785393554,-0.3442334429999936,0.5611234379999905,6.898294177000057,-0.0691421139999984,-0.1171761560000015,-0.001603797
1718276884786630309,-0.3658144429999936,0.5583300379999903,6.898517177000056,-0.0671641139999984,-0.1188141560000014,-0.0017327969999999
1718276884787831407,-0.3913994429999934,0.56346003799999,6.861429227000057,-0.0672891139999984,-0.1231771560000015,-0.001098797
1718276884789381860,-0.4124304429999934,0.5715570379999904,6.861785177000056,-0.0700151139999984,-0.1285951560000014,-0.000354797
1718276884789395224,-0.4457774429999936,0.6070020379999905,6.846065177000058,-0.0748101139999984,-0.1340101560000014,0.0002442029999999
1718276884790231945,-0.4785444429999934,0.6429030379999905,6.843454177000057,-0.0822291139999984,-0.1373921560000015,4.120300000000007e-05
1718276884791409978,-0.5025434429999935,0.7035270379999905,6.833112177000055,-0.0911221139999984,-0.1396431560000015,-2.979699999999981e-05
1718276884792636649,-0.5095394429999938,0.7690690379999898,6.854152177000058,-0.1006421139999984,-0.1407211560000014,0.000570203
1718276884793845200,-0.5250434429999937,0.8344870379999905,6.852546777000056,-0.1094941139999984,-0.1413181560000014,0.0011762029999999
1718276884795215439,-0.5484224429999933,0.9302300379999904,6.849026777000057,-0.1225781139999984,-0.1444801560000015,0.001339203
1718276884795231173,-0.5783324429999934,0.9276350379999904,6.871646777000056,-0.1216771139999984,-0.1463891560000015,0.001203203
1718276884796362794,-0.6117304429999937,0.9480840379999904,6.870137777000058,-0.1253271139999984,-0.1497691560000014,0.0010252029999999
1718276884797620626,-0.6537874429999933,0.95843103799999,6.891474777000059,-0.1277621139999984,-0.1522801560000015,0.0007322029999999
1718276884798812273,-0.6834804429999934,0.9610650379999904,6.906501777000057,-0.1283381139999984,-0.1548201560000015,0.0008482029999999
1718276884800034561,-0.6967124429999936,0.9435400379999904,6.899960777000058,-0.1258941139999984,-0.1571771560000015,0.0011132029999999
1718276884800079736,-0.6976194429999933,0.90822300799999,6.908658777000057,-0.1206061139999984,-0.1576591560000014,0.000879203
1718276884801230942,-0.6858294429999938,0.86042703799999,6.895131777000056,-0.1143951139999984,-0.1556331560000015,0.000796203
1718276884802622584,-0.6739524429999932,0.8125580379999902,6.918855777000058,-0.1083961139999984,-0.1519681560000014,0.000328203
1718276884803757099,-0.6533544429999936,0.76990703799999,6.950802777000056,-0.1041071139999984,-0.1481551560000014,0.0005152029999999
1718276884805056722,-0.6370334429999938,0.7200130379999905,6.944793777000058,-0.0996861139999984,-0.1459201560000015,0.0006892029999999
1718276884805066975,-0.6166624429999934,0.6675874379999904,6.953333777000059,-0.0946381139999984,-0.1451241560000015,0.0003242029999999
1718276884806217262,-0.6006254429999935,0.6175824379999901,6.946378777000057,-0.0891161139999984,-0.1455401560000015,-0.0003117969999999
1718276884807437101,-0.6099174429999936,0.5627274379999901,6.962087777000056,-0.0840461139999984,-0.1456381560000015,-0.0008117969999999
1718276884808685898,-0.6233124429999934,0.52520143799999,6.939837777000056,-0.0796461139999984,-0.1462081560000014,-0.001187797
1718276884809995006,-0.6578764429999935,0.4951384379999898,6.932474777000058,-0.0757771139999984,-0.1479141560000014,-0.0015717969999999
1718276884810013944,-0.6923474429999936,0.4704064379999899,6.924481777000056,-0.0733821039999984,-0.1530271560000015,-0.002121797
1718276884811259894,-0.7223664429999936,0.4583454379999898,6.908833777000057,-0.0728201039999984,-0.1595871560000014,-0.0024297969999999
1718276884813285599,-0.7728954429999937,0.4591894379999906,6.869700777000057,-0.0755881039999984,-0.1651331560000014,-0.002485797
1718276884813294294,-0.8229474429999937,0.4849654379999901,6.883066777000057,-0.0813401039999984,-0.1693133560000015,-0.002414797
1718276884817314972,-0.8809244429999936,0.5258154379999906,6.879885777000057,-0.0893141039999984,-0.1712523560000015,-0.0027407969999999
1718276884819030763,-0.9131374429999936,0.5815994379999905,6.876419777000058,-0.0989070989999984,-0.1712443560000014,-0.003066797
1718276884819044932,-0.9199754429999932,0.6275424379999901,6.888758777000056,-0.1084410989999984,-0.1706543560000015,-0.003122797
1718276884819061322,-0.9184194429999936,0.6830324379999898,6.863127777000058,-0.1167811039999984,-0.1687943560000014,-0.003431797
1718276884819093368,-0.9001454429999938,0.7382604379999903,6.860717777000057,-0.1240511039999984,-0.1667703560000014,-0.003731797
1718276884820022547,-0.8735164429999935,0.7834284379999903,6.859706777000056,-0.1303601039999984,-0.1629503560000015,-0.0033477969999999
1718276884820033393,-0.8344524429999935,0.82078543799999,6.858749777000056,-0.1345861039999984,-0.1577713560000014,-0.0033427969999999
1718276884821179602,-0.8041454429999935,0.8382734379999903,6.8426157770000575,-0.1370621039999984,-0.1533503560000015,-0.003596797
1718276884822371029,-0.7743274429999936,0.8308514379999903,6.8497207770000585,-0.1371971039999984,-0.1504223560000015,-0.0039797969999999
1718276884823481503,-0.7491714429999936,0.81083243799999,6.857610777000056,-0.1352811039999984,-0.1489493560000015,-0.004225797
1718276884824807664,-0.7283414429999935,0.7833344379999903,6.866272777000058,-0.1327921039999984,-0.1470393560000014,-0.0040657969999999
1718276884826045610,-0.7032454429999935,0.7386134379999901,6.875432777000059,-0.1300771139999984,-0.1436463560000014,-0.0036297969999999
1718276884826085790,-0.6992514429999936,0.7110714379999902,6.906041777000056,-0.1277721139999984,-0.1403933560000014,-0.0038567969999999
1718276884827182109,-0.6952814429999934,0.6836624379999904,6.921409777000055,-0.1256901139999984,-0.1387793560000015,-0.004097797
