%time,field.linear.x,field.linear.y,field.linear.z,field.angular.x,field.angular.y,field.angular.z
1718276884378042075,0.0110781536947491,0.0079797506790964,-0.0004571689527657,-0.1811604445494198,0.2598451143863902,-0.1055882495321676
1718276884379341691,0.0109375017524897,0.0083025188349434,-0.0004398885205932,-0.1815169772688063,0.259452804292293,-0.1042820559687469
1718276884380508427,0.0106436465942401,0.0085291885951255,-0.0001201384343338,-0.1811645709239475,0.2591380171701032,-0.103065796018525
1718276884381787424,0.0100765879221612,0.0087136791725421,0.0002065090468498,-0.1806292105023035,0.2587312681047577,-0.1015662584361194
1718276884383094125,0.0094803187259382,0.0089012972045736,0.0003375068873057,-0.1806343925211548,0.2585378889876621,-0.09990342019754
1718276884383110040,0.0091174047774642,0.0090159270405007,0.0005284163231392,-0.1807126176106977,0.2575906382313281,-0.0991199137431629
1718276884384260603,0.0082999759888128,0.0090261648036801,0.0004663117279138,-0.1810217502037464,0.2563662844823449,-0.0978174100291169
1718276884385510290,0.0079911662539205,0.0090946106779624,0.0002014692964069,-0.1816355247578829,0.255672202101308,-0.0973238716328141
1718276884386727240,0.0076559167475855,0.0090778089590287,0.0001291948106316,-0.1817082720305765,0.2551597466700514,-0.0968577340886714
1718276884387899544,0.0072878981985895,0.0089680212016503,-1.9014010525300609e-06,-0.1817757980919258,0.2544833818037214,-0.0963156391342923
1718276884387952906,0.0067756624166899,0.0090698827927165,-0.0002628303985777,-0.1825370521535547,0.2536505945359893,-0.0957339306114989
1718276884389146651,0.0064599429700665,0.0090103592249322,-0.0001939382069876,-0.1823078356116582,0.2530508096280571,-0.0953634109344215
1718276884390404940,0.0062400200279301,0.0090162160460393,-0.0001853312080766,-0.1822129568660976,0.2532762073237387,-0.095257405720676
1718276884391612917,0.0058568995514703,0.0091129115511372,9.527258656271896e-05,-0.1819686368817727,0.2532550945627828,-0.0954788302441848
1718276884392896248,0.0056777249780674,0.009139205868231,0.0002731559588822,-0.181673429290329,0.2533963336334048,-0.0962834102684973
1718276884392905317,0.0057426732154334,0.0092161655595262,0.0004178481055933,-0.1817520866512149,0.2535550484602489,-0.0978408552460542
1718276884394082488,0.005701789305205,0.0091471798830593,0.0006823527546646,-0.1812853839493485,0.2540626428871931,-0.0986456090003859
1718276884395324929,0.0056732743411257,0.0090527127333254,0.0007512714250593,-0.1810803646144891,0.2548792399292889,-0.0992936121904209
1718276884396609009,0.0051581749357586,0.0087310977319763,0.0008769985874885,-0.1806211907729658,0.2552487441412326,-0.0986731377913585
1718276884397842094,0.0046403210725882,0.0086264145748381,0.000955453403714,-0.1807101695683353,0.2551848050853266,-0.0983776677445242
1718276884397852133,0.0042907895413542,0.0086888734986644,0.0007327306823604,-0.181639634382842,0.255637052243538,-0.0974997446353473
1718276884399051613,0.0037850565453615,0.0086588870872661,0.0005400517502639,-0.1822349349790207,0.2556494205130162,-0.096692695946447
1718276884400273150,0.0036718408049083,0.0088793584735574,1.0082605699523324e-05,-0.1841057387411656,0.2561963928386395,-0.0967643906415768
1718276884401460986,0.0035012032666261,0.0090958099743598,-0.0004371931791395,-0.1858149399384515,0.2568342898734503,-0.0965392378873366
1718276884402670775,0.0034925709994324,0.0094632444597269,-0.0008992875200239,-0.1876237628772042,0.257023665499718,-0.0966270404503724
1718276884403947196,0.0032912010811686,0.0098110255621406,-0.0013482064433365,-0.1893262599425114,0.2572407104468616,-0.095224867548598
1718276884403960584,0.0030631916709819,0.010038401352076,-0.0016783649505986,-0.1907234148404877,0.2571079571061629,-0.0941164858326448
1718276884407619527,0.0029241256562714,0.0103674606666103,-0.0024305259691403,-0.1928948401931586,0.2575194836883088,-0.0927204433528263
1718276884408852065,0.0026574982802178,0.0105216822073169,-0.0025530933790232,-0.1937507721958635,0.2574965163593798,-0.0913281759863886
1718276884408868736,0.002268166312593,0.0107771543787105,-0.0025586521196109,-0.1947443202008978,0.2578468457981773,-0.0892181659676207
1718276884408883092,0.0017761169917905,0.0108964755800491,-0.0026642890321837,-0.195296865207049,0.2580085049377389,-0.0866338174020966
1718276884408892592,0.0008729865249322,0.0109487289642604,-0.002930089130416,-0.1961327321699239,0.2578911719324013,-0.0833882353769837
1718276884410045890,0.0002598655306775,0.0108183912812545,-0.002891993227452,-0.1963235216111806,0.2581522827161366,-0.0804164010482616
1718276884411612750,-0.0001198602082532,0.0107555965155161,-0.0033790382335339,-0.1976209996234787,0.2582567719421114,-0.0778273580337737
1718276884412842239,-0.0003277485853075,0.0107942493427771,-0.0040802475651362,-0.1997831362978769,0.2586593174845779,-0.0750605397590881
1718276884414020272,-0.0001046529829452,0.0107502280095371,-0.0045549994980502,-0.2013888986728304,0.2593435700553101,-0.0735939681069995
1718276884414043285,-0.0003781235761022,0.0104801684005063,-0.0049898637266776,-0.2026734757834571,0.2594711170378866,-0.0713394773838566
1718276884415264378,-0.0011014384180737,0.0103831725189917,-0.0054729084556937,-0.2042615667239542,0.2586522069119564,-0.0692991908653051
1718276884416311844,-0.0015791104280116,0.0104972374203812,-0.006274356868229,-0.2066853534917695,0.2580371748622267,-0.0674105405340227
1718276884417509701,-0.0019855495606106,0.0107145653515611,-0.0068963374025304,-0.2089305691323984,0.2573153468457737,-0.0661294041278045
1718276884418732202,-0.0023466043741411,0.0110761876188903,-0.0074564263310741,-0.2111354533410571,0.2567740047407648,-0.0651880940739305
1718276884419982818,-0.0029304065553857,0.0114176368026554,-0.0080083121211277,-0.2132237021548023,0.2560473049329081,-0.0636370586167053
1718276884420013316,-0.0036901556706165,0.0119921174768356,-0.0084399264954704,-0.2156699025837583,0.2552223208281252,-0.0615768891968178
1718276884421206372,-0.004284386571148,0.0124653096278708,-0.0087384984260489,-0.2175238701283059,0.2546853820972316,-0.0596471600927761
1718276884422515893,-0.0046863230770123,0.012885715591701,-0.0090117631827588,-0.2191325036573759,0.2535400860739512,-0.0580388087512948
1718276884423781933,-0.0050146421923183,0.0132950428709222,-0.0091468626745085,-0.2204763139844195,0.2528405837612111,-0.0567597062841963
1718276884425003411,-0.0053263695643001,0.0137264371313776,-0.009411147862043,-0.2222350431763953,0.2524325890959866,-0.0555104893511346
1718276884425022202,-0.0057133173206135,0.0144682582559269,-0.0097666183718553,-0.2246772255751056,0.2513304985747616,-0.0549000879154769
1718276884426212767,-0.006280282508382,0.015196228648027,-0.0099173429828669,-0.2267303577077713,0.2506241583578948,-0.0537754234394007
1718276884427455771,-0.0071711152429448,0.015734439769537,-0.0096522296828461,-0.2279442378704264,0.2493735072164869,-0.0522116079728342
1718276884428659598,-0.0076992600296847,0.0163895849909424,-0.0095675658397016,-0.2295051055556377,0.248269683155991,-0.0516642839949891
1718276884429969360,-0.0081746512043764,0.0171534757476791,-0.0096027183384994,-0.2316211072654692,0.2476961279107963,-0.0503224517724129
1718276884429980682,-0.0084078058761913,0.0175801155912398,-0.0093346368256014,-0.2324232459154443,0.2473273864161818,-0.0495270320204147
1718276884431184707,-0.0086918388888271,0.0182190787266861,-0.0090587418889603,-0.2334925618371808,0.2467528511490307,-0.0489583718245276
1718276884432403840,-0.0090427427960915,0.018462417484206,-0.0086583323023245,-0.2335529527036755,0.2464117143706349,-0.0474751065581252
1718276884433617608,-0.0096405103942958,0.0185999919655109,-0.0082002804132906,-0.2331293402248954,0.2456458303152266,-0.0459882821360341
1718276884435591578,-0.0099155735445558,0.0186679630114481,-0.0076624701204751,-0.2323794844133952,0.2453949938069583,-0.0444903278405836
1718276884435600492,-0.0102453477915312,0.0186094423938349,-0.0072992383555827,-0.231850970663477,0.2447587802137795,-0.0427544785993757
1718276884436783377,-0.0099901380635724,0.018370519962483,-0.006888938158536,-0.2306550697289286,0.244823114861563,-0.0422305158807367
1718276884438064398,-0.0097148633001886,0.0180499732552976,-0.0064120998538597,-0.2292205296115688,0.2442927322702985,-0.0423666509080498
1718276884438115249,-0.009560366090923,0.0177354999079415,-0.0061241657096028,-0.228042170728061,0.244045509841682,-0.0421247602735292
1718276884439337049,-0.0091958764231295,0.017308601385422,-0.0059764852502861,-0.2268552107707686,0.244152800059005,-0.0420071305981055
1718276884440573516,-0.0086404843317864,0.0168968805497435,-0.0057736886348414,-0.225671441383955,0.2438997893526778,-0.0420587331330552
1718276884441772227,-0.0081564472519976,0.0164038327026451,-0.005697780798621,-0.2243779563074562,0.2436068132253271,-0.0420663234393451
1718276884443022556,-0.0079875492453724,0.0158013295479709,-0.0053446043317797,-0.2225870037277947,0.2431132063690123,-0.0423077970277159
1718276884443043551,-0.0080591362426147,0.0153202501371778,-0.0051601355800548,-0.2212231585814257,0.2422025895185102,-0.0426716858787301
1718276884444230529,-0.0078067187775812,0.014789080564513,-0.0050581479638685,-0.2198591732629239,0.2419390115641262,-0.044042758275981
1718276884445453879,-0.0076138432114475,0.0137778839877996,-0.0043082323585291,-0.2165242143693412,0.2419263523367911,-0.0444338749877556
1718276884446636570,-0.00734584749039,0.0129438860187962,-0.0036002999408244,-0.2133820145390478,0.241479388545778,-0.0451745486605042
1718276884453788568,-0.0072320407893513,0.0122552891461946,-0.0027968713091992,-0.2102493976386762,0.2410310846293661,-0.0460845445103627
1718276884453794719,-0.0073423730913464,0.0116649737470128,-0.0023934004868951,-0.2080812600065866,0.2408634363026925,-0.0463071214779693
1718276884455161144,-0.0074840134031349,0.0110648860770884,-0.0018716206354883,-0.2058238685002333,0.2411354980044888,-0.0464227590584355
1718276884455189351,-0.0077481973155023,0.0105336203445321,-0.0014089924136718,-0.2038350668638663,0.2408316007419144,-0.0470996471051868
1718276884455221802,-0.0077051547817031,0.0099553140725162,-0.0007561138055924,-0.2011989027800231,0.240786234749006,-0.0479385546445869
1718276884455243252,-0.0073712437761176,0.0093020074374808,-0.0001999981561418,-0.198622375113642,0.2411086351150876,-0.0491180271981404
1718276884455256422,-0.0073980133270072,0.0087833856336622,-0.0001454596243503,-0.1974661004868653,0.2416014374792394,-0.049466957003007
1718276884455266276,-0.0073705664585474,0.0083966435006483,-0.0002089469317916,-0.1966003198605732,0.2425104998552205,-0.0490842557840492
1718276884455282564,-0.0072558164400505,0.0079541660389949,-0.0001687501373224,-0.1953032570209315,0.2430954350181241,-0.0493243865933092
1718276884456393990,-0.0072776841752711,0.0075256484023834,-0.0002043819088687,-0.1939912082023714,0.2431055001514609,-0.0499209841058987
1718276884457681622,-0.0075317464701998,0.0071180684641406,-0.0003887532928482,-0.1930772704141088,0.2433266801548201,-0.0503272604251446
1718276884458490475,-0.0077355794556825,0.0066047249405155,-0.0005687275014986,-0.1918324214189165,0.243551034362133,-0.0505074046778797
1718276884459821919,-0.0080610685459865,0.0058569021467136,-0.0007691376316505,-0.1903352473846521,0.2437939659364224,-0.0502616149647199
1718276884462387704,-0.00801991362703,0.0052515519291752,-0.0008922172792537,-0.189056463248936,0.2444331370030222,-0.050596565518285
1718276884462392802,-0.0078872279890044,0.0046112595025535,-0.0008682964041348,-0.1875277224142814,0.2449604797201841,-0.0510428876466117
1718276884463741346,-0.0079048179434876,0.0039144899321237,-0.0011315868643018,-0.1863086827283112,0.2456293015595427,-0.0516418087385303
1718276884463749875,-0.0083013126369831,0.0029572396725329,-0.001872403058996,-0.1854301317886226,0.245455397752554,-0.051532309062729
1718276884464972005,-0.0083436515286756,0.0020215441156713,-0.0021970974272424,-0.1840080360693788,0.2460238211211708,-0.0520715119477262
1718276884464980455,-0.0084586019272798,0.0010436960031778,-0.0023796122114577,-0.1823180855760322,0.2466742181748286,-0.052290196399106
1718276884466141014,-0.0085779630744292,0.0004459601262394,-0.0025744837708921,-0.1813159408310654,0.2472924145307143,-0.0519199333666481
1718276884467372657,-0.0083412197007687,-0.0001589133540338,-0.0027661819383109,-0.1803927985524553,0.2479920827297408,-0.052774691910833
1718276884468535480,-0.0083124823894511,-0.0008850136144992,-0.0028655827462721,-0.1788553263066748,0.2483744784967873,-0.0527147702741248
1718276884469781358,-0.0087112657405131,-0.0013980465830517,-0.003308770796282,-0.1782653371588728,0.2485718748103805,-0.052677957464237
1718276884471001826,-0.0087643550054606,-0.0019051943116955,-0.0035934202869621,-0.1774834737573362,0.2488996299412783,-0.0531461548865155
1718276884472266169,-0.0090252835004446,-0.0023507153569091,-0.0039695971785569,-0.1771378604790957,0.2490865832776193,-0.0524807872959121
1718276884472277378,-0.00897138412337,-0.0025679175029448,-0.0044578343885021,-0.1774014903043654,0.2497164650992953,-0.0528418788561836
1718276884473425081,-0.0087472877291846,-0.0028184380680572,-0.0046669403867454,-0.1770108412385952,0.2508803460189963,-0.0533339681947011
1718276884474659110,-0.0089470967973814,-0.0031517847629614,-0.0049788149931472,-0.1764820093366373,0.2516200411582899,-0.0531509330142992
1718276884475901061,-0.0089810933311256,-0.0034468437512339,-0.0054142120691042,-0.176126649378634,0.2521808463630202,-0.0534053334609589
1718276884477599887,-0.0088678491929577,-0.0039545253901727,-0.0058539177152409,-0.175331371812486,0.2529234081996461,-0.0537511637734741
1718276884477615884,-0.0087885890589044,-0.0042516618858501,-0.0059047357632072,-0.1745687791364306,0.253352858980184,-0.054087134119925
1718276884478502104,-0.0080066201473561,-0.0043935720044444,-0.0056742158198739,-0.1737586496747358,0.2548715715501907,-0.055796491075512
1718276884479770880,-0.0075678817201978,-0.0044801146814348,-0.0057101555566963,-0.1733633076717072,0.2557677645851907,-0.0566471296483189
1718276884480986311,-0.0069110062844639,-0.0045393087517252,-0.0057608377033353,-0.1730626659249209,0.2569152263627883,-0.0585515729711243
1718276884481018016,-0.006301979831573,-0.0049095088656614,-0.0056071537910349,-0.1719152658996419,0.258008168289698,-0.0606592526278525
1718276884482290387,-0.0060646847139912,-0.0051728412304739,-0.0053242014046888,-0.1703880567739516,0.2585196139077414,-0.0622620126714509
1718276884483534431,-0.0056478168509089,-0.0052025057434267,-0.0048735903263541,-0.1691805910992401,0.2593334328054827,-0.0639066460077726
1718276884484660663,-0.0052739864379219,-0.0052056053386678,-0.0043691657709273,-0.1681783659107997,0.2603827609535536,-0.0654552508499818
1718276884485882576,-0.0047236518329599,-0.0052933220458467,-0.0040240975393431,-0.1671817536171012,0.2615748083622288,-0.0675105185510931
1718276884487236728,-0.0044137423883754,-0.0052148020443911,-0.0037454548012419,-0.1665432149846539,0.2617929987272258,-0.0693152118460374
1718276884487262612,-0.0042690702191941,-0.0052888027028695,-0.0033829248771176,-0.1653948026676917,0.261458230362627,-0.0717772218341278
1718276884488327288,-0.0040902842949413,-0.005172143901294,-0.0033437307464875,-0.1651302819691861,0.2617854384089749,-0.0733927408282971
1718276884489562867,-0.0045188359604565,-0.0049857155571488,-0.0035408795217287,-0.1655509800176933,0.2609553434081008,-0.0741857275537856
1718276884490781794,-0.0045622629509195,-0.0048305753914766,-0.0034751472096086,-0.1656740887546491,0.2600552681049268,-0.0759048642332347
1718276884492050853,-0.0041696869380759,-0.0047785007716141,-0.003232754929804,-0.1651495421503331,0.2593805901135362,-0.0779417110724906
1718276884492081517,-0.0040120811566651,-0.0048590429413747,-0.0028585471331374,-0.1639416139074636,0.2586094879028041,-0.0795487065814292
1718276884493206877,-0.00390671174388,-0.0048123500184444,-0.002390646306135,-0.1629060214821904,0.2583201181896656,-0.0809589249451512
1718276884494431224,-0.0036773638240134,-0.0047814625124859,-0.0020763169718906,-0.1624591318017631,0.258227293523409,-0.081900120939844
1718276884496341970,-0.0032584964063996,-0.0046048655355586,-0.001733908879044,-0.1622655849653033,0.2578825116040018,-0.0834118622073082
1718276884496350716,-0.0026494963895182,-0.0044604318079173,-0.001161870584449,-0.1617448290547366,0.2582084323451967,-0.0838743309014704
1718276884497628910,-0.0021310328321794,-0.0042845605184257,-0.0005011000387497,-0.1611965928327312,0.2586548134755266,-0.0839108045320949
1718276884498875680,-0.0017066113383557,-0.0039447518934682,-0.0002215548041685,-0.1616673197846245,0.2588082507962501,-0.0840399312543278
1718276884500177612,-0.0014014896762847,-0.0036655288397809,-0.0001785899149118,-0.162776787963968,0.2584253866026305,-0.084275780361769
1718276884500189665,-0.0014559157746956,-0.0032626142647167,-0.0003615998578271,-0.1645614005663458,0.2577650232225404,-0.084008232308141
1718276884501457414,-0.00118909638429,-0.002918430241839,-0.0002901627442634,-0.1656562749955109,0.2580305049931642,-0.0832096058767219
1718276884502828115,-0.0011274277649669,-0.0025816190875557,-0.000435117450523,-0.1669774689625204,0.257905112795047,-0.0821735367494674
1718276884504311878,-0.0011103834606627,-0.0022905121868775,-0.0003816022005279,-0.1679987837447217,0.2579410711532301,-0.0809685343247448
1718276884504330102,-0.0011157090267405,-0.0019082457366825,-0.0005689499768683,-0.1698365836942596,0.257505730008208,-0.079578816160081
1718276884505565859,-0.0013634365891942,-0.0014093351683742,-0.0005948803485216,-0.1715930302211654,0.257029294387095,-0.0782062766810198
1718276884510296794,-0.0011975935457639,-0.0009459458495708,-0.0004272015046518,-0.1731266509521863,0.2567923664369923,-0.0781128769355339
1718276884512029130,-0.0012853472650439,-0.0004713745632984,-0.0006753549206944,-0.1755253207337536,0.256340932605416,-0.0766094611275915
1718276884512040068,-0.0013772828693514,-0.0001411492162242,-0.0010977501564578,-0.1781302398327593,0.2553551078900885,-0.0764602749800526
1718276884512047390,-0.0013408980884381,0.0003150572500022,-0.0013973655371881,-0.1809259914517006,0.2547443182788188,-0.0760587065741205
1718276884512053778,-0.0013512981633751,0.0006501791599837,-0.0018308733707886,-0.1836787461617317,0.2542271344753024,-0.0755670580665469
1718276884512080524,-0.0012855471663104,0.0010349164137793,-0.0026147846937226,-0.1869847715542896,0.2544770519571722,-0.0754084402613519
1718276884513523586,-0.001078699719007,0.0008931994214834,-0.0033318846914981,-0.1894737441937608,0.2550103587124143,-0.0748901697874015
1718276884513536863,-0.0013817531837437,0.0007428018398518,-0.0038762506960962,-0.191629439106594,0.2545242790621762,-0.0742156083016367
1718276884514778713,-0.0017129112283692,0.0008946436018976,-0.0046805886907617,-0.1948858851801399,0.2547391888732291,-0.0730183526698934
1718276884516165338,-0.0019585204063406,0.0008017860966526,-0.0052566780547372,-0.196998096295792,0.2546999799369713,-0.0713266416617713
1718276884516182364,-0.0019162348238906,0.0009100224369626,-0.005798016628388,-0.1993460519644537,0.2552249768172527,-0.0706761957103791
1718276884517426838,-0.0019507101260024,0.0009583915472416,-0.0059683388176382,-0.2007717508272264,0.2556826815201852,-0.07004155032095
1718276884518861605,-0.001981311153337,0.0010017180579869,-0.0059484414925474,-0.2016451441606144,0.255695711032157,-0.069483057869635
1718276884520351811,-0.0019153219292273,0.0014393986706581,-0.0060820425957381,-0.2033206827737461,0.2561362441991289,-0.0689809290010179
1718276884520359976,-0.0021214238912009,0.0019337065664617,-0.0062593058600761,-0.2053618747244707,0.2560161205936113,-0.0681406831197818
1718276884521591836,-0.0023070480682745,0.002369559397707,-0.0063693271207657,-0.2069893482854556,0.2563909883997202,-0.067378650955756
1718276884522953669,-0.0023517689247712,0.0028903968452904,-0.0063597626610732,-0.2084138691740641,0.2571259636002727,-0.0665401836150348
1718276884524395163,-0.0026769923021043,0.0035428952341027,-0.0064904983825307,-0.2103855206603017,0.2571228816179642,-0.0649488655179636
1718276884524415108,-0.0027004735910321,0.0042472121851253,-0.0067144521497929,-0.2125343878669746,0.2574847750569982,-0.0650730632898136
1718276884525645021,-0.0031624959848218,0.0050309489182777,-0.006954696228403,-0.2145445825183853,0.25772585076583,-0.0646597310993202
1718276884527017614,-0.0035234308916792,0.0055662843890821,-0.006654879869934,-0.2152693869402978,0.2580646896204808,-0.0644688402630909
1718276884528960527,-0.0036964918530513,0.0062769979904694,-0.0059752591798097,-0.2156162580029731,0.2586639027375506,-0.0641391236551324
1718276884528970843,-0.0041226014492434,0.0070902029815647,-0.0052149285495926,-0.2159030424510706,0.2591540563279757,-0.0636165684970306
1718276884530464073,-0.0045400240266433,0.0077324072382248,-0.0045367100623653,-0.21578587400337,0.2592630824575736,-0.0634008035317733
1718276884530475800,-0.0049316331075478,0.0080697962182023,-0.0036511381971975,-0.2149603499953698,0.2593781220251828,-0.0630723349579985
1718276884531602042,-0.0049916458320837,0.0085226837942338,-0.0026222888382117,-0.2140921365321132,0.2594831744597631,-0.0627952997285214
1718276884532943754,-0.0052370257277403,0.0091285332698584,-0.001917396360752,-0.2140990210274759,0.2593065678374874,-0.0622150304470728
1718276884532951236,-0.005545161391904,0.0096477328971554,-0.0012143843515919,-0.2138527042534168,0.2589208578798025,-0.0621117833712014
1718276884534136452,-0.0055862119170631,0.0101791373600347,-0.0008803356498473,-0.2141632561406519,0.2590683556874538,-0.0620460483500074
1718276884535359744,-0.0059233924507185,0.0107721631746619,-0.0004451005617865,-0.2144277119001806,0.2586009336479638,-0.0622994985032377
1718276884536571040,-0.00610374828639,0.0112484952316995,9.2278965969958e-05,-0.2141649615029914,0.257854704766372,-0.0629807852939594
1718276884537803861,-0.0064550245426168,0.01168269846332,0.0006725400379315,-0.2137516112537397,0.2572313824013255,-0.0635067973264557
1718276884539327555,-0.0066164894575435,0.0121517949465674,0.0011207317329953,-0.2135047404330239,0.2564044818676705,-0.0647862185483989
1718276884539369076,-0.0069057834376582,0.0125057020419891,0.0017621913687542,-0.2127837602405421,0.2554558250758166,-0.0658413060814119
1718276884540290768,-0.0070194085083622,0.0129819162804611,0.0024401371389849,-0.2123832957440573,0.2547259782690579,-0.0669971463194447
1718276884541547686,-0.0071809466374692,0.0134679437196127,0.002971382070307,-0.2120354834646227,0.2538098993010636,-0.06808391181851
1718276884542803036,-0.0072645958952502,0.0137352386879156,0.0037676177095442,-0.2105915845164518,0.253166780785316,-0.0697224188084553
1718276884544085041,-0.0072551597194854,0.0137428720096429,0.0043051146807532,-0.2091941341444805,0.2529256597068924,-0.0714250790261483
1718276884544096415,-0.0073461754155615,0.0136580160916039,0.0047891321136226,-0.2075561375550335,0.2523621252831003,-0.0728987176578108
1718276884545314102,-0.0074160563839892,0.0133933662180596,0.0055064725316073,-0.2054493348049896,0.2525138962954135,-0.0735053040019375
1718276884546514495,-0.0075777863422085,0.0130104479924059,0.0061981600228125,-0.2031935277599735,0.2522000307486704,-0.0740984035897628
1718276884547720587,-0.0075990498735376,0.0129720220755278,0.0067940525551433,-0.2018343888668075,0.2517638370816001,-0.0752966035685273
1718276884549025408,-0.0078921137583698,0.0125119336019047,0.0078238124988165,-0.1990451716617299,0.2511272026092834,-0.0764769128723748
1718276884549032745,-0.0081557512674704,0.0121971693990292,0.008379251954195,-0.1973515857077395,0.2504936473117507,-0.0771877132908144
1718276884556433981,-0.0083898721863773,0.0117328552436969,0.0086769272281463,-0.1955865464858,0.2500422652506441,-0.0778011378282684
1718276884558370209,-0.0085651022726014,0.0110207007853875,0.0088397222892852,-0.193504436578904,0.2490008395853023,-0.0785810056643816
1718276884558380458,-0.0086248110937781,0.0101277420770772,0.0090439031794382,-0.1909522712389809,0.2481136709562608,-0.0793929110938645
1718276884558387679,-0.0088401649138514,0.0094290582129958,0.0089118981202514,-0.1893624966261587,0.2470246144839362,-0.079741215782026
1718276884558402610,-0.0088751749524183,0.0087168951825086,0.0086616241491032,-0.1878670131290196,0.2456836594059471,-0.0799428892170681
1718276884558414476,-0.0086388759386374,0.007933220395765,0.008499470757899,-0.1861857888596432,0.245116909659127,-0.0807915946361056
1718276884558438285,-0.0086656979617231,0.0068734383086415,0.0083097911329893,-0.1840735793380337,0.2437832709852899,-0.0820234340188829
1718276884558466233,-0.0086820459204929,0.0058533082431598,0.0079465387323546,-0.1821117604174813,0.2418300252545322,-0.0840297870498071
1718276884558989177,-0.0085367312794769,0.0047036647596424,0.0075271250556788,-0.1802099824841136,0.2410161757049951,-0.0854027205567638
1718276884560210503,-0.0085016742726269,0.0037405707071499,0.0068689281492991,-0.1792690782099145,0.2400795720139167,-0.0864218345340555
1718276884560223625,-0.008136595218076,0.0027906169615898,0.0059783234148626,-0.1788001483075668,0.2393314622296461,-0.0882418580284991
1718276884561277692,-0.0078394114195343,0.0015836070719006,0.0052866097906714,-0.1779527733741464,0.2386703690702761,-0.0892911487350527
1718276884563058046,-0.007716271662161,0.0002862276566549,0.0043596516451584,-0.1771757672159251,0.2378771282129679,-0.0905464098271987
1718276884563067816,-0.0075792655825907,-0.0010461081000852,0.0034227641867059,-0.1759954518100343,0.2373375309784788,-0.0915748654808209
1718276884564297371,-0.0073570048951731,-0.0024635606235962,0.0027011380808847,-0.1743250982396793,0.2367473533594121,-0.0930566762410514
1718276884565534510,-0.0075082224657001,-0.0036320429872488,0.0020739531247722,-0.1730281681673584,0.2362967478056299,-0.0939785759672338
1718276884566737258,-0.0078427084344361,-0.0046306089182152,0.0011831521973462,-0.1724339303012059,0.2355740849335316,-0.0944797423542452
1718276884567960544,-0.0081510667833592,-0.0056582630749629,0.0004685738527891,-0.1715444073668994,0.2348778967548719,-0.0955669022774386
1718276884567979915,-0.0081514746911574,-0.0066875956874453,-0.0005105141591035,-0.1709485093143227,0.2344315259379658,-0.0965607588558186
1718276884569264941,-0.0083533123249399,-0.0076803378933736,-0.001518188172624,-0.1702434183489282,0.2337910413237115,-0.0970986288664478
1718276884570495579,-0.0084878201665208,-0.0086181144571086,-0.00239993804251,-0.1695663868325495,0.2330429118684832,-0.0983419276912571
1718276884571684285,-0.0086318335155006,-0.0094653584633065,-0.0031571108606608,-0.1689379163458392,0.2322578946498327,-0.0991507522698256
1718276884572938291,-0.0088996675215949,-0.0102024785156363,-0.0040049946470755,-0.1688406669570851,0.2315996471606769,-0.0998929598805838
1718276884574103401,-0.0088187113975992,-0.0106981065682719,-0.0048834643263979,-0.1692022714611622,0.2318643649694872,-0.1008212079831307
1718276884575715623,-0.0089349434194696,-0.01107196935934,-0.005974201997733,-0.1703580707396466,0.2318104600072051,-0.1016121080337978
1718276884576996497,-0.0093465044912613,-0.0113521551792048,-0.0072173368383935,-0.1722177968993193,0.2307111320746019,-0.1011046152802608
1718276884577807910,-0.0095206801628031,-0.0114737156598002,-0.0082786920050507,-0.1739626564758429,0.2298010909852783,-0.1012281267130205
1718276884579270462,-0.0094133777142432,-0.0113120533310816,-0.0092709486182962,-0.1760418827036478,0.2293896566163577,-0.1018975561924945
1718276884579281937,-0.0095923112649877,-0.0112735991874297,-0.0096695797391504,-0.1770585618110675,0.2285042377417296,-0.1016379204791405
1718276884580424081,-0.0096015568107981,-0.0111875516946895,-0.0100166634371531,-0.1780905188811752,0.2279056874134472,-0.1011905635535111
1718276884581625286,-0.0094959608300194,-0.0109982604866882,-0.0103099265762248,-0.1790209452887287,0.2272442450794792,-0.1007574305795689
1718276884582967358,-0.0098050828859209,-0.0107779621384675,-0.0105973841028487,-0.1800163672286396,0.2267237921230198,-0.0995296113330892
1718276884582976829,-0.010094458418036,-0.0104928630036278,-0.0106845711751249,-0.181132564781167,0.22614586086805,-0.0993220764206288
1718276884584124174,-0.0102517890507303,-0.0102697503852802,-0.0110561492193715,-0.182428481072391,0.2255782841916017,-0.0992978903426464
1718276884585374566,-0.0105539626322688,-0.0101887597528862,-0.0110768983965805,-0.1830679180648263,0.2251010801238937,-0.0983461304376758
1718276884586590556,-0.0107776919344939,-0.0103175998823318,-0.0108162962964942,-0.1826505858430005,0.2250665713226506,-0.0980485261629729
1718276884587856546,-0.0111080598175484,-0.0103896616136491,-0.0104608179212493,-0.1821180933099355,0.2249430900145621,-0.0973430832082421
1718276884587863924,-0.0116006273726847,-0.0104450308015206,-0.0100850822668555,-0.1816186408716906,0.2247668261890872,-0.0964562832443869
1718276884589128328,-0.0117811488874328,-0.0105175572885712,-0.0093644510289403,-0.1803169977177791,0.2248477892779966,-0.0954932259918277
1718276884590286791,-0.0118963805990436,-0.0106512605767772,-0.0084519428648942,-0.1785068913509625,0.2248581695008212,-0.0947876663581726
1718276884591514480,-0.0120318345210469,-0.010613327663027,-0.0073754047722904,-0.1767178403381942,0.2249430135635006,-0.0947291517789948
1718276884592748102,-0.0121769851787256,-0.0105059953757936,-0.0066199289609337,-0.1756068309048194,0.2247369495449164,-0.094069184614051
1718276884593921915,-0.0123101795795127,-0.0104269316858798,-0.0058936504014565,-0.1745648300919632,0.2245094321589013,-0.0931224586962369
1718276884593941115,-0.0123579338899677,-0.0101594114095923,-0.0049966777996473,-0.1734853262903981,0.2246095926749077,-0.0921545692242253
1718276884595135738,-0.012352145147777,-0.0097208072142427,-0.0043754955484739,-0.1733481291660598,0.224673080114922,-0.0914456073784322
1718276884596363712,-0.0123737490810126,-0.0093271296539385,-0.0035491182518306,-0.1731185592566567,0.2249669947277773,-0.0911925314390615
1718276884597658443,-0.0126591286729395,-0.0092488832308144,-0.0023727418723618,-0.171869535236599,0.2250809532509476,-0.0909014428018022
1718276884598890329,-0.0129603743888714,-0.0087993017858433,-0.001554654280246,-0.1715829111449582,0.2249874261102045,-0.0900926178434503
1718276884600123877,-0.0129046231876202,-0.008463304007922,-0.0008529075364678,-0.1711034891769897,0.2252383106148639,-0.0891739507385273
1718276884600139323,-0.0129953356408477,-0.0081212846506664,7.864461448517726e-05,-0.1701830369578895,0.2253651218602609,-0.0875884776711805
1718276884601342219,-0.0131720929492594,-0.0076631303722031,0.0006244479612215,-0.1701251596980104,0.2253510249195229,-0.0869140892204632
1718276884602561905,-0.0134707441652051,-0.0072444369533543,0.0010697932087695,-0.1702638215848637,0.2252012735554406,-0.0860114023776222
1718276884603818030,-0.0139118276604996,-0.0067703338423856,0.0016879671563635,-0.1703071462460569,0.225077354455197,-0.0851539768851527
1718276884605068467,-0.0139396727139225,-0.0061790949554201,0.0021640963691374,-0.1708468721898722,0.2256605503767922,-0.0847022099472823
1718276884605086639,-0.0140597382978958,-0.0056520908489224,0.0024142303887177,-0.1718917727376311,0.225880580595307,-0.083869353780885
1718276884606332916,-0.0140712556996205,-0.0053772967232438,0.0025519271669207,-0.1726248219595306,0.2260418857702597,-0.0835245551958168
1718276884607571695,-0.0141104094296592,-0.0051560146421956,0.0025052493235275,-0.1734207419431676,0.2263620847642569,-0.0828235612254213
1718276884608693364,-0.014348099441759,-0.0046858010835463,0.0023587282024548,-0.1752192359646349,0.2264828175638475,-0.0822097624880922
1718276884612699297,-0.0143665928165102,-0.0042879146828383,0.0019479396448791,-0.1772270766033226,0.2266685680176018,-0.0823184840922753
1718276884612750714,-0.0141750314529232,-0.0042086436129163,0.0016797565964047,-0.1785485862848693,0.2266674763350021,-0.0830413617185077
1718276884614245146,-0.0143073766441593,-0.0041105114918865,0.0016411134968607,-0.1796460932200174,0.2265006253519652,-0.0826532377531198
1718276884614254238,-0.0140801415501734,-0.0037872670945965,0.0016269497029729,-0.1810242382120003,0.2269890352044958,-0.0828581907605982
1718276884614278729,-0.0140332918699133,-0.003384185279098,0.001732290844957,-0.1822510884403178,0.227684129408023,-0.0829212914170975
1718276884614290831,-0.0138192308674771,-0.0026751256969607,0.0015609040566639,-0.1846980045559666,0.2282741822940192,-0.0842602020078898
1718276884615203349,-0.0134988043418802,-0.0022974277263386,0.0014978661986673,-0.1864039032605545,0.2287682852532138,-0.0854392509660451
1718276884616126577,-0.0133233706182303,-0.0018588713023495,0.0012096366527892,-0.1884350533796946,0.2287298128371326,-0.0869392667705131
1718276884617362112,-0.0130737182204641,-0.0013890446998744,0.0012410113585338,-0.1901986341105668,0.2291534860527931,-0.0887823272565543
1718276884618786117,-0.0129481761185569,-0.0008820038326597,0.0008187256606021,-0.1925726044765068,0.2291650013375495,-0.0895336329897191
1718276884620132466,-0.0128696323378486,-0.0003132433744034,0.0001684754174223,-0.1952858480538472,0.2292595593262948,-0.0910846283999607
1718276884620142951,-0.0127327279646416,-8.170840360233299e-05,-0.0001014352624336,-0.1966144127795488,0.228993100655287,-0.0922208663904707
1718276884621182086,-0.0126678747191188,0.0001337334495891,-8.319772810531229e-05,-0.1973520692600779,0.2285410463591745,-0.0930953086066233
1718276884622395922,-0.0125197076959944,0.0004648008586053,-0.0002439881772993,-0.1986521853470628,0.2281694994106891,-0.0946715410368886
1718276884624627749,-0.0126234331020875,0.0006258924060138,-0.0001520118855078,-0.1989133683114085,0.2270986048299017,-0.0962428854406591
1718276884624637430,-0.0130184865768844,0.0007900055896724,-7.127351420637557e-05,-0.199164080705008,0.2261540883888235,-0.0970785380956612
1718276884625751974,-0.0130631211378877,0.0009788907389429,2.8885151624070265e-05,-0.1992897111587803,0.2259048919785999,-0.0975974047059993
1718276884627054259,-0.0133350309648324,0.001049683654568,7.137617706508281e-05,-0.1993292730586734,0.2251818720750623,-0.0979131139209267
1718276884627069646,-0.0133434424395516,0.0011414315881396,1.682692667768701e-05,-0.1994565723739131,0.2249778809174539,-0.0985160159054361
1718276884628191582,-0.0132457778891765,0.000892149139858,0.0003064402850533,-0.1981980612173165,0.2241528458604167,-0.0990527268029355
1718276884629463122,-0.0131784112297699,0.0005742654629418,0.0006627289653824,-0.1966072289332219,0.2235094523218162,-0.0997014708313527
1718276884630643732,-0.0128460133384555,0.0004190340929153,0.000910003547691,-0.1956675495080876,0.2238399204745672,-0.10044706813674
1718276884631860249,-0.0127595996423743,0.0002990453806585,0.0009696746481363,-0.1952521008562193,0.2235026307619206,-0.1011891965255382
1718276884633108504,-0.0124657276948936,9.236692725076104e-05,0.0010679725948696,-0.1943883245512671,0.2227480175245733,-0.1030819154465413
1718276884633121616,-0.0121572669654535,-0.0002004247088623,0.0011938837547491,-0.1932652711926666,0.2221236463077679,-0.1048207615669601
1718276884634240840,-0.0118950573474787,-0.0002621562702179,0.0013555346294193,-0.1921992642814152,0.2211543665382596,-0.1058591315661853
1718276884635617209,-0.0115130994324941,-0.0005014787300918,0.0018992895101735,-0.1902388527362556,0.2213695735020796,-0.1072464011433577
1718276884636778636,-0.011390295449552,-0.0004276959104725,0.0023369790938844,-0.1891941638926942,0.2213261678964168,-0.1072025254798375
1718276884637909902,-0.0112846651750188,-0.0004918901856175,0.0027839648314994,-0.1877646090739357,0.221218607181297,-0.1075836330653559
1718276884639175843,-0.011088833689153,-0.0005635163627596,0.0032303826090818,-0.1865302239879575,0.2213314209417489,-0.1078094498574762
1718276884639185728,-0.0109314769293239,-0.0005868079835368,0.0034546613069705,-0.1858509825430159,0.2213355602083322,-0.1079815853949406
1718276884640382138,-0.0104457499348584,-0.0006696115223193,0.0038083093152298,-0.1846769808089708,0.2221113208390374,-0.1096601847685724
1718276884641549708,-0.0101385117046709,-0.000888960885828,0.0039584169550543,-0.1836036684554919,0.2225352611584448,-0.1108407330255698
1718276884642776603,-0.0101385048336933,-0.0012611545195023,0.0041212085376686,-0.1822901232853527,0.2228333501293838,-0.1112486380844481
1718276884643974030,-0.0100188138017645,-0.0016123113421093,0.0041102172785508,-0.1813425032290986,0.2231977753139312,-0.1116458441246555
1718276884645281247,-0.0099433533096196,-0.0020779495956767,0.004171010627229,-0.1801011543040923,0.2233227473192386,-0.1119753073847867
1718276884645290208,-0.0100328617250155,-0.0025223220532082,0.0043569547214123,-0.1785052885350741,0.2231856041264145,-0.1124794357271606
1718276884646386918,-0.0102450867004203,-0.0028832470789347,0.0045302893384889,-0.1772478687427176,0.223446122659928,-0.1120498149704167
1718276884647609881,-0.0106508628981024,-0.0032342462910915,0.0046130734823455,-0.1763238708793223,0.2236894421441419,-0.1101412176579573
1718276884648859954,-0.0109268287381318,-0.0036101887938392,0.0048019096902061,-0.1749267847073724,0.2242135760209083,-0.1086509964912871
1718276884650197482,-0.0112442217961734,-0.0038762244783404,0.0046910093999161,-0.1739802766451583,0.2244992324302978,-0.1072282766904121
1718276884650219741,-0.0111576501777352,-0.0042979773487313,0.004705983873492,-0.172288574168598,0.2251555541900406,-0.1070398143903008
1718276884651266780,-0.0109276595867024,-0.005003978066821,0.0049230456326008,-0.1698011647087995,0.2259809676542954,-0.1065723997837735
1718276884652905425,-0.0109367575331799,-0.0055801332370041,0.0048486827054032,-0.1681443157707269,0.2264119500152627,-0.1056715552882145
1718276884653802380,-0.0111623406453268,-0.0062875492722653,0.0047230375194859,-0.1664181801794686,0.2268974904834828,-0.1038589582569245
1718276884655180307,-0.0113762913410947,-0.0070566403879799,0.0046730282279545,-0.1646413717427947,0.2272745655873277,-0.1015419658197339
1718276884655194325,-0.0114574278341932,-0.0076664323704709,0.0042588267224757,-0.1637498244328916,0.2274056735319056,-0.1004307778501374
1718276884656486754,-0.0111523566085202,-0.008434787152271,0.0038330137138681,-0.1626619660392621,0.2288005290537069,-0.0990439574566724
1718276884657506959,-0.0106889636750767,-0.0091051627778372,0.0036134626899655,-0.1617832988890348,0.2301085814916227,-0.0977349022824844
1718276884659186359,-0.0103986015153251,-0.0096821894981879,0.0032414461978316,-0.1613416784346506,0.231895380822533,-0.096276400893618
1718276884659270325,-0.0098375726465382,-0.0102404525011793,0.0027708169558041,-0.1612076282229528,0.2333342171579849,-0.0944183978521703
1718276884660379832,-0.0096148614559337,-0.01082494977967,0.0022119303292982,-0.1610435255872097,0.2346204193752786,-0.0927132879989127
1718276884661585918,-0.0090366028214561,-0.0113487437718847,0.0013924029039995,-0.1613116506088092,0.2364382113001649,-0.0909065224599138
1718276884662818087,-0.0087788571724961,-0.011980729661063,0.0008950884326245,-0.16077822400588,0.2378025251479945,-0.0887050375784715
1718276884665146539,-0.0087075853586238,-0.0124426044430098,0.0003063117646796,-0.1607136868181401,0.2385876437358088,-0.086599849782766
1718276884665156254,-0.0086113600234244,-0.0128956035069105,-0.0001125502415175,-0.1604753695138174,0.2390678494515245,-0.0841740333315146
1718276884666474725,-0.0081907875813162,-0.0132178103835701,-0.0004264244393551,-0.1604062944935832,0.2395145377499627,-0.0828516803612638
1718276884666484019,-0.0074301710670311,-0.0135410098410162,-0.000391402007074,-0.1597513364185533,0.2402779627667475,-0.0829366985252922
1718276884667581415,-0.0071310763366874,-0.0136426071604811,-0.0005496202459171,-0.1597797869304194,0.2404062885402329,-0.0822088018424709
1718276884668720684,-0.0070254065389941,-0.013837356165398,-0.0003979119856174,-0.1591873641843823,0.2398964016970398,-0.0822258952231937
1718276884669918079,-0.0069721039761407,-0.0138672289399969,-0.000432767253501,-0.1589768182911896,0.2388709985917896,-0.0816299943365952
1718276884671269125,-0.0068696348676211,-0.0138880564382051,-0.0005990380587607,-0.1589962198718458,0.2378158892308549,-0.0814072899207076
1718276884671288212,-0.0067912363369858,-0.0139077519247357,-0.0002157174490553,-0.1581785685874573,0.2370789259511502,-0.0818342894579549
1718276884672417440,-0.0066903635304389,-0.0137359856033369,-0.0003545492665215,-0.1584919063188901,0.2362824645813567,-0.0824538217908464
1718276884673598317,-0.006531320121625,-0.013486393478618,-0.0005435392867046,-0.1590062143393703,0.2353694068062677,-0.0835768502801701
1718276884674863789,-0.0064627391703411,-0.0132991406680553,-0.0005653624478487,-0.1590306397632704,0.2348055190735658,-0.0835878984315156
1718276884676189945,-0.0064171628448764,-0.0130976915395101,-0.0003350454492559,-0.1584773335372271,0.2341310959561007,-0.083386402961588
1718276884676199577,-0.0065716501140776,-0.0128661770209652,-0.0004246267326132,-0.1586445857812701,0.2335686104589151,-0.0830284131161588
1718276884677319153,-0.0063937426113139,-0.0127664296076789,-0.0001973549658268,-0.1582163642284061,0.2326998300904992,-0.083412652594048
1718276884678534003,-0.0063677874054632,-0.0125446943512727,-0.0001302132523901,-0.158611816557394,0.2313572937985342,-0.0835479724709928
1718276884679749976,-0.0063349540964206,-0.01234217088362,-0.0002301840758005,-0.159185627065324,0.2299860579186231,-0.0843411397487238
1718276884680963509,-0.0065434845207992,-0.0123509686698079,-6.809485194571308e-05,-0.1588458002216731,0.2283364090512258,-0.0844198934516907
1718276884680978207,-0.0070012768031367,-0.0119418121452797,-0.0001353635059445,-0.1599891821359589,0.2267572690068429,-0.0846509426398573
1718276884682206922,-0.0075028079539162,-0.0114189450300737,-0.0003347666960001,-0.161449110543856,0.225284210266335,-0.0845023078358297
1718276884683419083,-0.0076789221656751,-0.0109471489358393,-0.0003649143910929,-0.1625753330443899,0.2235612444565451,-0.0844834488664586
1718276884684752205,-0.0076175979972023,-0.0105038646446835,-0.0001889050698318,-0.1634358905600956,0.2225873358887358,-0.0847955597525507
1718276884685898498,-0.0072855150388201,-0.0102255803569884,0.0001009373532767,-0.1635464061714517,0.2219131192312436,-0.0851220485373449
1718276884687251001,-0.0071220445451734,-0.0100853801037677,0.0003830057223125,-0.1632904856922587,0.2214658332529152,-0.0855195430949841
1718276884687265774,-0.0066694535447562,-0.0098521591521948,0.0009576501780985,-0.162672818204253,0.2213849009270801,-0.0867956861308583
1718276884688425325,-0.0064859613864999,-0.0094284997291608,0.0011998208157544,-0.1628411369979988,0.220745729298433,-0.0870353391844267
1718276884689607064,-0.0066239252783571,-0.0093133086750828,0.0019333082455122,-0.1617215588233805,0.219479766106241,-0.0880145934271398
1718276884690816363,-0.0067464763462501,-0.0090678357779211,0.0022281549520145,-0.1618605056439978,0.2179531707782393,-0.0888530116200404
1718276884692159461,-0.0069691993290912,-0.0087055701587473,0.0023607174954161,-0.1624786776673439,0.2163920928548735,-0.08935882913009
1718276884692169123,-0.0066674913811594,-0.0082834827026821,0.0026370969500886,-0.1631697357091493,0.2156794256647732,-0.0903887231309877
1718276884693368512,-0.0066052790241836,-0.0076803164680405,0.0025996464359508,-0.1646383080446286,0.2147221666604634,-0.0907104218927467
1718276884694553828,-0.0064639299677412,-0.0069187551822957,0.0026657734520434,-0.1663280079506013,0.2140854291624507,-0.091260535942118
1718276884695833206,-0.0065100617690315,-0.0066321824254011,0.0032328492299597,-0.1665920118689718,0.2132969630388921,-0.0915372786126469
1718276884697193086,-0.0067171586446972,-0.0063303179445559,0.0037766289986849,-0.1670006035334246,0.2123875176992951,-0.091293144457192
1718276884697213568,-0.0070799275201247,-0.0059292208838818,0.0041203868665393,-0.1677804680921107,0.2110200828911749,-0.0915445211429742
1718276884698369289,-0.0076073465072931,-0.0056838714459371,0.0044227242401322,-0.1684412273026499,0.2096827555426536,-0.0913899443837992
1718276884699549551,-0.0079680131892551,-0.0056008724224231,0.0049026874740327,-0.1681751012781492,0.2083103136509382,-0.0915695889530271
1718276884700774476,-0.0085063095835328,-0.0053695503323238,0.0048424796910347,-0.1689833375015093,0.2069777923689605,-0.0911288944057902
1718276884702019095,-0.0088965575512853,-0.0051965998960985,0.0049621140182263,-0.169560669261745,0.2059877225899781,-0.0909463312125123
1718276884702030031,-0.0091435120059131,-0.0049627481762265,0.0049280896610291,-0.1709450532889589,0.2053737531479617,-0.0913335087714516
1718276884703207257,-0.0094841471651184,-0.0045591337118102,0.004598785196856,-0.1731108116919865,0.2040233004907032,-0.0918178646943066
1718276884704418512,-0.0098755425905503,-0.0043581177004406,0.0041760381142979,-0.1750445873362691,0.2027997293411676,-0.0920780078377428
1718276884705648082,-0.0096859419000378,-0.0041137124467967,0.0036213017874095,-0.177349834713825,0.2020534869596845,-0.0922198148902483
1718276884706835612,-0.0097060234267622,-0.0038868685943501,0.0027649609235107,-0.1798800305869389,0.2015402335963325,-0.0918971285732598
1718276884708210830,-0.009620088879773,-0.0038713090444631,0.0023139730444349,-0.1813948539701707,0.200892437890012,-0.0923189410052943
1718276884708221886,-0.009440030597461,-0.0038099404274403,0.0017206627505721,-0.1834454865818336,0.2003912908976947,-0.0926039671690374
1718276884709342774,-0.0093469155385548,-0.0035492477774192,0.0013081067620941,-0.1854003734545919,0.1999840677701067,-0.0928224125078052
1718276884710581349,-0.0096595954544666,-0.0034784108965802,0.0007442881260859,-0.1872109735221513,0.1998774506696923,-0.0922897588430972
1718276884715589486,-0.0101119005020343,-0.0035111511550746,0.0001583081401634,-0.1886966881486702,0.1997126837870103,-0.0921165363194082
1718276884717529604,-0.0107092314774113,-0.0031595137259011,-0.0007031097839983,-0.1913342266224259,0.1987224396607061,-0.0926266912367361
1718276884717548001,-0.011528323930829,-0.00302944529807,-0.0010196592244157,-0.1929981939304108,0.1974385452498657,-0.0925524279661026
1718276884717561130,-0.0123402025331058,-0.0027493150997706,-0.0017255775528852,-0.1954349064102157,0.1959055047481195,-0.0922978199231592
1718276884717575887,-0.0126366559798449,-0.0024611999294475,-0.0024870969480336,-0.1979280015962639,0.1951941506024903,-0.0937243831411867
1718276884717618826,-0.0133870370092585,-0.0024234601177466,-0.0031502947344412,-0.1995222857326715,0.1946517857192928,-0.0943957057201678
1718276884718991616,-0.0138814640350023,-0.0022277617912237,-0.0037523364608561,-0.2011814742143335,0.1945208099057664,-0.0955284599437825
1718276884719003192,-0.0139723786745557,-0.0019124599850573,-0.0044882836813468,-0.2033131857493574,0.1951521981648088,-0.0966314530542483
1718276884719012802,-0.0141919840312868,-0.0018508491124346,-0.005044593092066,-0.2045734864251208,0.1955878790695233,-0.0970579471933954
1718276884720214872,-0.0142164527917402,-0.0016917139816659,-0.0052685923771397,-0.2054289437866218,0.1960898003053063,-0.0984955503144289
1718276884721418102,-0.0143351511129432,-0.0016621633411367,-0.0056648735688735,-0.2062503382732121,0.1962288547460114,-0.0996985834949154
1718276884722634440,-0.0144778499317252,-0.0015837562656758,-0.0059378988792154,-0.2069441637111974,0.1961685099566943,-0.1007002539579689
1718276884723876965,-0.0145349328259383,-0.001623062403816,-0.00583242691155,-0.2066823726972114,0.1969350241619897,-0.1010314555310413
1718276884723886710,-0.0146028316771604,-0.001705205446844,-0.0055872204970626,-0.2060356709885744,0.1973985416590482,-0.1014990555111189
1718276884725109671,-0.0146911482692307,-0.0018085872110418,-0.0052248550050319,-0.2051437074380969,0.1974831750982033,-0.1018119160138642
1718276884726366712,-0.0149881492629462,-0.0019055778643854,-0.0054975619012219,-0.2053962162770529,0.1968459365784778,-0.102003844149711
1718276884727632160,-0.0155997742884465,-0.0020302245232252,-0.0057542663530207,-0.2054925619579389,0.1957884487095127,-0.1014487574910303
1718276884728827198,-0.0159091215946422,-0.0023496862079698,-0.0057030606280124,-0.2045842583272629,0.1954765089176594,-0.1014525812167486
1718276884730093820,-0.016029694391304,-0.0027338113109674,-0.005691565076784,-0.2034926154920237,0.1953915111490712,-0.1006400428458535
1718276884730110021,-0.0161921936643135,-0.0030147671650806,-0.0055733438987993,-0.2023888090272098,0.1947925283741857,-0.1005778475635785
1718276884731289799,-0.0162968504006532,-0.0036002056923796,-0.0046362102845366,-0.1994799643124226,0.1939859809734362,-0.1001539578138713
1718276884732504347,-0.0166849896916092,-0.0040732354914667,-0.0038239621648404,-0.1967621112285981,0.1929984414966919,-0.0993068890325957
1718276884733734393,-0.017072674415691,-0.0044990803233816,-0.0029869205126745,-0.1940215066265231,0.1922439086576791,-0.0987739401247028
1718276884735025101,-0.0176305371252057,-0.0049808819660493,-0.0019529520816123,-0.1908155925763674,0.191347994457102,-0.0976360546046613
1718276884735041114,-0.0179573023352296,-0.0051510929818612,-0.0010997445134813,-0.1884665944036015,0.1902276685836905,-0.0970519656370632
1718276884736232991,-0.0182250675606504,-0.0053329372631289,-6.071669143779129e-05,-0.1857039941196419,0.1894832930969566,-0.0964372425238673
1718276884737443769,-0.0183785371191198,-0.0053833441776709,0.0007517655402515,-0.18358672788782,0.1885718352292051,-0.0961485173953493
1718276884738656377,-0.018213984885927,-0.0053742862654483,0.0014426467387526,-0.1816295400634235,0.1879746962302095,-0.0959812675687266
1718276884739779068,-0.0182898961154097,-0.0054480690419043,0.0019598298586064,-0.1798144644213221,0.1871955505223068,-0.095417024148577
1718276884741059494,-0.0186321563405275,-0.0056798848097824,0.0024167645277895,-0.1778645550844265,0.1856965839275842,-0.0945852376066461
1718276884741068345,-0.0185811364361198,-0.0059310735007733,0.002952327011678,-0.1757442577072595,0.1849006398244534,-0.0941865449137948
1718276884742264904,-0.0184850462444624,-0.0061824832640025,0.0034626311511586,-0.1735287945705202,0.1841137023255691,-0.0932765316564383
1718276884743498109,-0.0184416726259298,-0.0063124929759923,0.004212696530636,-0.1713170343441414,0.1826555684823959,-0.0932386078104639
1718276884744723188,-0.0182005068731536,-0.0065354882300726,0.0051513358936183,-0.1687255823784165,0.1815436193657084,-0.0937592225470544
1718276884746060424,-0.0182531000421125,-0.0065805811388374,0.0059301372944918,-0.1668014246942857,0.1801528624402002,-0.0940196518439002
1718276884746085725,-0.018200070589431,-0.0068729962266349,0.0070163641795503,-0.1637230170645744,0.1791266584593147,-0.0949404997549218
1718276884747247942,-0.0182619386246823,-0.0071551725250471,0.0076600112073137,-0.1615271906974368,0.177866460283614,-0.0957269768124155
1718276884748498686,-0.0182321466159483,-0.0072147564711592,0.0079416492923786,-0.1605160110074465,0.1763774930901799,-0.0975399806539309
1718276884749734403,-0.0182741957973984,-0.0075131465176292,0.0081861269851647,-0.1592635145523963,0.1754918964761868,-0.0984052628905173
1718276884751026063,-0.018119370268983,-0.0079591934246815,0.0085892559616366,-0.1576010782032764,0.1752518492504409,-0.0986958670891098
1718276884751047710,-0.0180512840738585,-0.0082854965748623,0.0087288592863307,-0.1564317239913569,0.1748876464140131,-0.0989599729149668
1718276884752286237,-0.0180096284400638,-0.0087144471948992,0.0086904952549877,-0.1554955435741706,0.1742846305586601,-0.0989262820260669
1718276884753567605,-0.0181337378941218,-0.0092235467839946,0.0087676104023659,-0.1543177110137584,0.1741403298026049,-0.0985099788605817
1718276884760967727,-0.0177713921342323,-0.0096078544206918,0.0085572428472155,-0.1537569145551334,0.1745931324176849,-0.0984453091393166
1718276884760983521,-0.0171989800191681,-0.0100526821187097,0.0084286295270605,-0.1530011592099786,0.175255789532276,-0.0983618199974864
1718276884762538020,-0.0164814885120353,-0.0105290272493514,0.0081606492640545,-0.1525405602410765,0.1758185515354675,-0.0994329090606019
1718276884762550747,-0.0158843463780795,-0.0109061393900282,0.0075642775642958,-0.1526910966596098,0.175684455320815,-0.1000345450551621
1718276884762584897,-0.015795258259417,-0.0114275885096092,0.0073256082201415,-0.1522052499758197,0.1751467459332724,-0.0993398904932156
1718276884762593146,-0.0159045904152886,-0.0118634468156635,0.0068532631636709,-0.1521773563478814,0.1745697335854903,-0.0996473348769288
1718276884762601336,-0.0159455534513592,-0.0124258903757098,0.0065103195739007,-0.1515770101555448,0.174268211152449,-0.0994709467214238
1718276884762613863,-0.0161211085195864,-0.0128795164766555,0.0062530220580415,-0.150954642512703,0.1734317844874939,-0.0995312700973782
1718276884762633751,-0.0163049876816332,-0.0135313549088211,0.006243700530118,-0.1497180748872973,0.1729952910125258,-0.0991765277396894
1718276884763556413,-0.0161836704280317,-0.0142270474328259,0.0062034078791801,-0.1484358966342747,0.1729846216233788,-0.0986643088244633
1718276884764787854,-0.0158368383514474,-0.0148980374861612,0.0061690989816989,-0.1470990156458451,0.1734639518006482,-0.0985555724943051
1718276884766421203,-0.0156641068709428,-0.0154194941116144,0.0061220238249744,-0.1461260568095638,0.1737433014650437,-0.0983628164379095
1718276884766430458,-0.0155759520121366,-0.0157764627643354,0.0057985922803443,-0.1459488846479928,0.17382926397036,-0.0982086506229145
1718276884767534232,-0.0152432411003518,-0.0162120202727134,0.0055751716926949,-0.1455299904001431,0.1743815424669361,-0.0987217748553948
1718276884768754854,-0.0151500520797769,-0.0166584893268317,0.0052231028928308,-0.1451611330584652,0.1748586464886478,-0.098180128195689
1718276884770055187,-0.0150843882994807,-0.0169678851329935,0.0047474140760988,-0.1453149604369744,0.1756906408410623,-0.0981251133806329
1718276884770068535,-0.0152340334509944,-0.0172049608582681,0.0040724185588229,-0.1458984765548354,0.17569729930844,-0.0978136791930787
1718276884771267176,-0.01565267148452,-0.0173773599121293,0.0038920528124404,-0.145813827903603,0.175972671901022,-0.0967741322120475
1718276884772492863,-0.0159986522004453,-0.0172816654035805,0.0034390735306131,-0.1465288918584726,0.1766487426261147,-0.0952814881315903
1718276884773631848,-0.0160929438524904,-0.0173117862844386,0.002982021625999,-0.1469006880108195,0.1769158089819873,-0.0945699107162557
1718276884774860013,-0.0160137495434208,-0.0174142506365931,0.0023458705073998,-0.1475100138407596,0.17728814046165,-0.0945961888412278
1718276884776086225,-0.0161627155201676,-0.0174450978366542,0.0017676359977342,-0.1480336030015962,0.1770764860739352,-0.0942723184384033
1718276884776096230,-0.016203842584087,-0.0173889303635845,0.0012686079612191,-0.1488103596178702,0.1770948764390245,-0.0946336353571463
1718276884777321110,-0.0163822319750921,-0.0173630407222263,0.0008391121782467,-0.1496644744629404,0.1770676675918241,-0.095106162474249
1718276884778526807,-0.0165306325952479,-0.0172389517250027,0.0002057925040366,-0.1510752776048377,0.176631629609566,-0.0958133819243228
1718276884779757101,-0.0166968454031699,-0.0172032712730884,9.232236131890072e-05,-0.1516006719369528,0.1765329017888819,-0.0958412364591814
1718276884780973147,-0.016783449837647,-0.0174677563796548,0.0007824064268315,-0.150198817913572,0.1761801949790177,-0.0964413368191568
1718276884780987258,-0.0166706017180293,-0.0176252051614253,0.0013633747803513,-0.1490026999966071,0.1760746040743711,-0.0967939162617043
1718276884782204048,-0.0165159535209527,-0.017861266471719,0.0021734970706919,-0.1473283457454348,0.1763772303556593,-0.0970511866489669
1718276884784049078,-0.0164963437374394,-0.0180208153150752,0.0027076574562935,-0.146089394424237,0.1764047536258995,-0.0970922735364993
1718276884784083295,-0.0163631413751643,-0.0181155274005884,0.0030768668021139,-0.1451299959280708,0.176349411319512,-0.097660281722038
1718276884785241766,-0.0162161221608648,-0.0182468120954839,0.0035999564471398,-0.1438439875447462,0.1762607411009306,-0.0981320139284488
1718276884786480891,-0.0159973234330074,-0.0182358487721059,0.0038396654157078,-0.143142838548779,0.1755942397244277,-0.0987532163706231
1718276884787690589,-0.0155936898384508,-0.0181957830041605,0.0039631213884096,-0.1427599484511959,0.1754136435013547,-0.0994856089596588
1718276884788980124,-0.0152070002335243,-0.0181785021648268,0.0038604246206538,-0.1428376967984625,0.1751733591758516,-0.100144330064033
1718276884788991666,-0.014976122108928,-0.0179972187621304,0.0037979219285606,-0.1431275531223408,0.1743754040469612,-0.1012399621789851
1718276884790118942,-0.0148864590988134,-0.0179316960764682,0.0037994760755478,-0.1430374980802669,0.1736716963303103,-0.10239822663895
1718276884791237941,-0.0147466478308108,-0.0177093450859167,0.0036606674170076,-0.1435992336017444,0.172672189900005,-0.1030852763369941
1718276884792503850,-0.0145404275632733,-0.0176245663363175,0.0035258607447598,-0.1438556022548496,0.171590387309471,-0.1050513867837446
1718276884793718098,-0.0143672624185272,-0.0174420316447915,0.00337639519368,-0.1444106982875906,0.1704599307022911,-0.1068445173873477
1718276884795011640,-0.0140121818895143,-0.0172127882473945,0.0033429667849869,-0.1448230782111476,0.1695468380976744,-0.1084534298204048
1718276884795042444,-0.0137407383036777,-0.0169004537776007,0.0036120237722652,-0.1449979791727646,0.1691102588334251,-0.1102753441976602
1718276884796238558,-0.0134348771617651,-0.0163367136976877,0.0036271402979423,-0.1461778274922651,0.1679762241987983,-0.1120086001239716
1718276884797471662,-0.0135351178986055,-0.0157417948811149,0.0034247040480594,-0.1480739098554279,0.1663420922335811,-0.1141020357381323
1718276884798663576,-0.0135499212905504,-0.0153100183329483,0.0035041190247424,-0.1492507734425884,0.164555665222133,-0.1159829091597779
1718276884799905041,-0.0135176789327643,-0.0150161557181529,0.0032862660326042,-0.1505513510473405,0.1626854307771683,-0.1177433689498506
1718276884799913930,-0.0129418332135584,-0.0147308757661372,0.0030150737110187,-0.1520538617824406,0.1618414890628439,-0.1200007727223625
1718276884801104329,-0.0126880060071131,-0.0143344238941363,0.0022683436298534,-0.1547081889896006,0.1609442788101264,-0.1216022485183712
1718276884802496890,-0.0121729005903372,-0.0137759285180466,0.0016259452540586,-0.157514825093108,0.1602065700005435,-0.1234280427102361
1718276884803643483,-0.011429840535453,-0.0132784511917024,0.0009216640839087,-0.1601586180301372,0.1594091570417403,-0.1257752776960816
1718276884804900044,-0.0109870052793587,-0.0128659912662769,0.0002013642342939,-0.1627036896187835,0.1588554351315291,-0.1269116227290422
1718276884804915559,-0.0106507565677623,-0.0122543893098295,-0.0004587645288599,-0.1656585788360715,0.1586240090590988,-0.1278722071358889
1718276884806090327,-0.0108348262428968,-0.0118065803366186,-0.0012079110530065,-0.1684465615465802,0.1580626924403437,-0.1274017267023197
1718276884807302912,-0.0109227738052983,-0.0114472544392985,-0.0015424813477547,-0.1701582302872967,0.1574917432127372,-0.1267046568324655
1718276884808543317,-0.0109422588159851,-0.0110499653478424,-0.0015842340510024,-0.171322163913952,0.1572378367529692,-0.1262869372678391
1718276884809829897,-0.0111340829227853,-0.0106986675014914,-0.0015453073660133,-0.1722915885502714,0.1568257497964547,-0.1248729820987358
1718276884811056180,-0.0112668174132655,-0.0102131919073395,-0.001768006681257,-0.1738550885511416,0.1562240743374179,-0.123881141067953
1718276884811089729,-0.0115040338616176,-0.0099564032771248,-0.0013044855301401,-0.1739780747555427,0.1557277740945768,-0.1222501840591465
1718276884813064556,-0.0115233239231147,-0.0094922726981871,-0.0008478370950126,-0.1744527744498979,0.1552591152794457,-0.1206945913830777
1718276884813079681,-0.0113562424179923,-0.0090331466841747,-0.0004666169874609,-0.1748116584158243,0.1551430301452355,-0.1191610177672165
