%time,field.linear.x,field.linear.y,field.linear.z,field.angular.x,field.angular.y,field.angular.z
1718276884376777405,0.1597081693719904,0.1475259594023407,0.0059188047387233,-0.4295742651296321,0.1526871689749834,1.062847845059077
1718276884378046510,0.2229436352932895,0.1507895029182434,-0.0172394987070662,-0.4357392611690593,0.3109358494058873,1.0418608778190817
1718276884378072423,0.1714443089139584,0.1536053578360439,0.0350919408239097,-0.4082049193983084,0.213634108203716,1.0185163992175077
1718276884379576471,0.09083334971502,0.1615969673369848,-0.0208523606528866,-0.4982148091256803,0.1192870515240407,1.0659069386465652
1718276884380525698,0.0418522378222504,0.1402262420546652,0.062657976458164,-0.2999732457969867,0.1243017856143831,1.0494158114937524
1718276884381792047,-0.0428314019949429,0.1313354697056896,0.0725052998339613,-0.2300702919578059,0.08613083487874,1.1317379562443133
1718276884383105945,-0.0667991430003114,0.1338910127422019,0.0267870069232251,-0.354550014692006,0.1291672756108436,1.187921165861917
1718276884383127216,-0.0190468488720492,0.1157277571106766,0.0463842519706217,-0.3634141730149166,-0.0860528189511124,0.9616997497631072
1718276884384299155,-0.153385073002248,0.0872243164245837,-0.0180859440033024,-0.417626570088064,-0.1876188444494336,1.0976270508143116
1718276884385529732,-0.034935488501154,0.100724099992021,-0.0746988996604526,-0.4970100490432383,-0.074463787240521,0.8838097932700314
1718276884386741584,-0.0505329870124682,0.0765189276904075,-0.0280624251629345,-0.352798863471392,-0.0439546545575752,0.8646987784265929
1718276884387963456,-0.0682678464021671,0.0483324929031847,-0.0455230406311196,-0.3429507229597358,-0.1030901295567313,0.8733553086932304
1718276884387970350,-0.1166770021773433,0.1013471005512372,-0.0835305395796153,-0.5237642614103554,-0.16249681329721,0.8740274133788993
1718276884389153687,-0.0751108176355896,0.0572167453117149,0.0012309979805308,-0.2604305528191314,-0.1199152381290893,0.8075910978578288
1718276884390419389,-0.0563064510494251,0.0714616420616126,-0.0130610546726551,-0.2818593911037759,0.0907992357259008,0.7222132221505092
1718276884391626371,-0.1057789008248588,0.0942473281394827,0.0618192069899716,-0.2288833550584083,0.0280510837707309,0.6141222115745322
1718276884392968462,-0.0584800587216042,0.0751224346530689,0.0406080846501205,-0.2005988130555927,0.0708410809818882,0.4293128997643647
1718276884392977434,0.004519268700591,0.0874823142709307,0.0357999228817716,-0.2873026085735691,0.0779995893575556,0.1860209915355899
1718276884394106217,-0.0225171246616513,0.0474260790512151,0.0716336941314859,-0.1327119330606322,0.1747686582785985,0.3384081752881592
1718276884395335454,-0.0197122065813434,0.0368636592534447,0.0242103421358592,-0.1852793886422993,0.2694316235681901,0.3464407721898986
1718276884396633443,-0.1526497694889479,-0.0291158900264577,0.041136156002107,-0.1038128536653741,0.1640556617817051,0.6619692833733783
1718276884397871660,-0.1643549249371189,0.0212541870339555,0.0309332853265981,-0.2363317521146917,0.0522053413183073,0.5714770992770707
1718276884397882910,-0.1291454916649346,0.0630346677693749,-0.0496147144543325,-0.4615794248732312,0.1894442241648918,0.7218242595867842
1718276884399080633,-0.178470951607774,0.0378362626141047,-0.0467559507260585,-0.3838985547901827,0.0778822876567513,0.7073126663655027
1718276884400270490,-0.0814520379993389,0.1040341856187337,-0.1431116034705762,-0.738558583051502,0.221175757767552,0.4706818775042797
1718276884401478381,-0.0982004399792114,0.1065362296697904,-0.1325317934739992,-0.7292412720717611,0.2556595360022218,0.535491373116367
1718276884402708977,-0.0558705683318774,0.1510151415556663,-0.1457263207709185,-0.7854874172631902,0.1466096207170779,0.4397390390663085
1718276884403969870,-0.1070872649561785,0.1522891933396691,-0.1519218472303717,-0.7890644735972862,0.1539230883787573,0.830266560954015
1718276884404004613,-0.1172190118597866,0.1253364864772933,-0.128507909368171,-0.7326292479351515,0.0614497177155256,0.7675708213895553
1718276884407616421,-0.0963585723761352,0.1561593164534945,-0.2497692248753275,-0.9649279675713064,0.2033876172581869,0.8569252417309193
1718276884408931757,-0.1326589222372554,0.1136840310078008,-0.0934493066692385,-0.642760430489318,0.0908718524107645,0.8727138950544604
1718276884408948967,-0.1699672347440325,0.1426010326066435,-0.0622261537462051,-0.6866338427204066,0.1897229708619539,1.0834118640077957
1718276884408959887,-0.2046746799911196,0.1089135882820183,-0.0877545098248417,-0.5762758366140586,0.1430249827350606,1.2441839350712391
1718276884408972842,-0.325502237181961,0.090943648223039,-0.1319064792735268,-0.6524609552685124,0.0679267379553043,1.4653700992328331
1718276884410048316,-0.2641830169966142,0.0399512045134894,-0.0531260226946252,-0.481843644322791,0.1651092402115653,1.4450495385333957
1718276884411643316,-0.2109675453905634,0.0532840101772901,-0.193451583225666,-0.7756353686626334,0.1256373290366622,1.3867263552713782
1718276884412854064,-0.169106101839942,0.0773894447701091,-0.2605870511294558,-1.0266945773918803,0.2072573082135539,1.4711963912059431
1718276884412859639,-0.0529402114011463,0.0536766347279656,-0.2124500404302098,-0.9097617325033344,0.2896683784609273,1.1563385356162716
1718276884414051482,-0.1800133294042056,-0.0110155755384739,-0.2095542639113459,-0.8435007634862212,0.149625447057813,1.380881138948003
1718276884415274768,-0.3056540645707704,0.0282502758090388,-0.2294838672083631,-0.9391342725981304,-0.1090297718123868,1.3491742990324027
1718276884416312577,-0.2512531060532282,0.0820476405652396,-0.3238369776330903,-1.1878384857670146,-0.0749911000256532,1.3283508355529563
1718276884417534138,-0.2385861097055175,0.1113010152356596,-0.2894067061794575,-1.1760633190002434,-0.1193756781271154,1.1791308377510932
1718276884418749017,-0.2313373157403793,0.1538154914614644,-0.2824850008415777,-1.1979593896733585,-0.0884161634116142,1.089754195478967
1718276884420013459,-0.2962920577908744,0.1546347215924982,-0.2888811500501246,-1.1975721196239708,-0.1536342338346137,1.2521454329889772
1718276884420028313,-0.3528495286518214,0.2239228117800496,-0.263892241819981,-1.321540527648619,-0.1966099550689178,1.3999691210259388
1718276884421214800,-0.3201294597257254,0.2070147262041037,-0.2326820777300302,-1.195145828077617,-0.1371168785220208,1.384340967412697
1718276884422538680,-0.2757894567689677,0.2007850096146385,-0.2276514083936436,-1.1477743332945225,-0.3141243036606227,1.3130754568816383
1718276884423830077,-0.2595872179784275,0.2045126178903612,-0.191455849663306,-1.0895545190302691,-0.2178677371910213,1.2323219618175003
1718276884425043370,-0.2572118122740826,0.216762665231241,-0.2249894716942523,-1.211020607308496,-0.1532106664166642,1.2258424489718835
1718276884425049050,-0.2790575142049322,0.3079602057525785,-0.2506914844910238,-1.4134621460983476,-0.3488555354872967,1.0517730286506102
1718276884426238146,-0.331734185952113,0.3174963145539208,-0.1984684925887741,-1.339354312787275,-0.2650667044278117,1.1794503310953628
1718276884427488966,-0.4271243158598178,0.2782677487222491,-0.0834810995764861,-1.132436980191891,-0.426836607660412,1.2975174701850576
1718276884428668826,-0.342091273014049,0.3181780660614028,-0.1219006984040997,-1.2285183755658908,-0.4102449045028548,1.027967431221415
1718276884429998173,-0.3333286757054411,0.3581227040565074,-0.1482746705222707,-1.3907308743038822,-0.2877251545323003,1.230069428341146
1718276884430036375,-0.2714666824236365,0.2785390123150146,-0.0621036678183895,-1.054314229827558,-0.2397779267788277,1.0847235890603948
1718276884431194543,-0.2843080018597813,0.3409773088771315,-0.0500306924403896,-1.1194611105929402,-0.3002568949645425,1.0146753986063946
1718276884432413652,-0.3025628789541478,0.242196032300099,-0.0062473351708191,-0.8432659945202389,-0.2448346835784452,1.2509605029095163
1718276884433632311,-0.3711189941808162,0.2135526878638701,0.0218649276209316,-0.6867349845162668,-0.3629854955624016,1.2583622573907138
1718276884435620902,-0.2901994062763928,0.1922442457002651,0.0568208060736177,-0.5645920792643567,-0.2358770035631339,1.2688097963757798
1718276884435632220,-0.3045300172035382,0.1540216064677075,0.0239169631237935,-0.5849039974497674,-0.340801188167035,1.3406103479903029
1718276884436818272,-0.1459170604478518,0.0984393448049611,0.0467719466642359,-0.3685897650118966,-0.1589834705111744,1.022764269036033
1718276884438124401,-0.1282183548247596,0.065972760089337,0.0758571618950499,-0.2564320858733111,-0.3152382785776257,0.8273807822103478
1718276884438152279,-0.1487213230417868,0.0558713550472349,0.0366499754286997,-0.2742340782682071,-0.2437224155912771,0.9011528144818544
1718276884439375615,-0.0823576973666464,0.0139245599289712,0.0058638908137851,-0.228026288144471,-0.1481604034007836,0.8474261634800087
1718276884440583343,-0.0168277407604255,0.0045796267599243,0.0251882997896495,-0.1860002766297929,-0.2386786257241702,0.7792129651589023
1718276884441800392,-0.0187775043919476,-0.0302187459735602,-0.0041253457750797,-0.1139095422678547,-0.2498193163163959,0.7658704236552928
1718276884443042844,-0.0896068058300762,-0.0741543139543387,0.0737392194736226,0.0646086648581786,-0.3064220298387562,0.6786437986957603
1718276884443058573,-0.1473452034791375,-0.0570880653524666,0.0362076506994557,0.000287147193876,-0.4261980684566264,0.6173278822909806
1718276884444241551,-0.0568574669555915,-0.0837123115931666,0.0181862780124483,0.0424036150732211,-0.2638290841781237,0.3130684498876213
1718276884445461924,-0.0636766917300896,-0.2283419367990228,0.1975199062512495,0.6199867487368113,-0.1962887339128482,0.529248189800767
1718276884446645202,-0.0353438910440153,-0.2037647981641133,0.2028931360064275,0.6497739884423893,-0.3096928609398723,0.4053556536534239
1718276884453816778,-0.0682042219464242,-0.1832600629789074,0.2443006959449873,0.7240731784753656,-0.3137302679793396,0.3243482133674681
1718276884453821159,-0.1238312666428221,-0.1717255115320966,0.1520740887708648,0.5335503070813942,-0.2419928010422602,0.4744183993386492
1718276884455273529,-0.1322187892922778,-0.1871476461312223,0.1918172593563728,0.6082316101045829,-0.1202879095260408,0.4829209802107226
1718276884455294833,-0.1659378658482286,-0.1808974776818928,0.1857295274277315,0.5853199643783836,-0.2656531916036851,0.3114347975386957
1718276884455310576,-0.0850199258350823,-0.2044152288963147,0.246262349986121,0.8045840514010064,-0.1962936188024551,0.2370085853646398
1718276884455324643,-0.0019154294884465,-0.2361639088075509,0.2319712115997435,0.8443025186095813,-0.0920404482680233,0.1116181290116399
1718276884455334229,-0.0900566273182238,-0.2120703398337226,0.1050359368473807,0.5099275513800701,-0.0320741146443462,0.2984903542305979
1718276884455345151,-0.0732329290840626,-0.1855522528939514,0.0715777686842609,0.4500696791706001,0.0969922795110281,0.4782607762339262
1718276884455356469,-0.0467678414366387,-0.2069138563642404,0.0953853042136353,0.5813765018423027,0.0330017019753621,0.3064804839397274
1718276884456415416,-0.078997248495534,-0.2103070793306284,0.0732260046036396,0.607136510732292,-0.1067692826850693,0.1918656181731799
1718276884457699274,-0.1407227922812851,-0.2112755453387089,0.0292710019529573,0.5199355287070888,-0.0460807322228683,0.2201727636115246
1718276884459099279,-0.1305720905209584,-0.246134964879475,0.0239796144665207,0.6226071676301064,-0.036841075276817,0.2630178316070107
1718276884461116880,-0.1662624058738819,-0.3183458352620714,0.0121220511298296,0.7109063740815922,-0.0244607050068161,0.3660739965549778
1718276884461128002,-0.071105062606895,-0.2927548138216937,0.0270981823827686,0.675503685525628,0.0914460095258474,0.2038411131379572
1718276884462910202,-0.0427876753936093,-0.3116721964782392,0.0624585733104402,0.7624069326251846,0.0782554589483431,0.1571003419869122
1718276884462928723,-0.0787014854989979,-0.3372163932688806,-0.0171424351552532,0.701126021036062,0.1295794654847715,0.0974747312682043
1718276884463761004,-0.180344466980586,-0.4192304138401853,-0.1549661676987622,0.6239991808050558,-0.0836047035424745,0.269723839803887
1718276884464997744,-0.0904532948417312,-0.4298430711628617,-0.0590730752222359,0.7813023683360567,0.1168056793085536,0.0879047298001972
1718276884465006841,-0.1092215947590311,-0.4569156786629597,-0.0285085589349199,0.873168709194049,0.1512853171980314,0.1570316465484191
1718276884466147886,-0.1104498686795682,-0.3690139180623316,-0.0363495014321227,0.7105456509746308,0.1585580883885536,0.3055216552150209
1718276884467391673,-0.0137274778380723,-0.3780219724310799,-0.0402090181101009,0.698955686926725,0.1953270725787887,-0.0265621486401112
1718276884468546649,-0.0631367414961791,-0.4180512041491036,-0.0198885243840956,0.8724200449473107,0.1228849568337093,0.1983479778187705
1718276884469797127,-0.1768889903208393,-0.3694885851960132,-0.1156908686214928,0.6354247577407693,0.0807019745202432,0.1876337302510584
1718276884471010692,-0.089753655896045,-0.3723574800094731,-0.0825378569935491,0.6862795892582139,0.1192935915845385,0.0460575998842931
1718276884472311765,-0.1451932007911023,-0.3595543020249448,-0.1136200994682271,0.5699235570255579,0.0872702504989805,0.3390739424858954
1718276884472320938,-0.0628385134707556,-0.2999876774196175,-0.1519022327849555,0.3978769849306286,0.2118839033986382,0.0685735465414372
1718276884473434156,-0.0129596866807592,-0.3066164675389692,-0.086001427007775,0.5559525277750749,0.370431767800701,0.0203223692047127
1718276884474668334,-0.1216168162538171,-0.3276279342778495,-0.1178618235913106,0.5889290030824444,0.278169673674238,0.1891555552404205
1718276884475907200,-0.0789380855013929,-0.3173864026779691,-0.1574944412890788,0.5401370665580945,0.2437371264083586,0.0700435967378097
1718276884477637974,-0.0372903444568618,-0.3747272958944354,-0.166913268949742,0.6550854307330012,0.3043978256646015,0.0349225199917051
1718276884477644377,-0.0420413699995357,-0.3213954293931938,-0.0690396801330632,0.6506454752796202,0.2322872555505523,0.0254153894680059
1718276884478511600,0.1532766895761908,-0.2783286640484811,0.0082932484288118,0.6679380487740896,0.5359098768277363,-0.3602847816833575
1718276884479781720,0.0790250922130111,-0.2592217446794059,-0.0573794933622421,0.5581522458262529,0.3958200187054402,-0.1673447985022212
1718276884481012763,0.1491172729037246,-0.2464539435104116,-0.0611821561061838,0.5281028270064605,0.4796075188849577,-0.4747879441874501
1718276884481064912,0.1514408458851693,-0.3256399060143022,-0.0052164701288973,0.7527815107104557,0.4853656091688446,-0.5736977262186483
1718276884482299658,0.0641790152959563,-0.2979834808989202,0.0352362219392527,0.8682134101191734,0.3456635982206673,-0.4832002167434949
1718276884483547050,0.1185564326410807,-0.2331546847316255,0.0885868458761084,0.8016097422657769,0.4332132126896735,-0.5294330786310162
1718276884484660113,0.1159451296488612,-0.2196118427380916,0.1141809959692122,0.7586788425113221,0.5097311950846426,-0.5377633571454141
1718276884485906716,0.1718507963039965,-0.2361022972047682,0.0824056442743075,0.7642243085456395,0.564810261465879,-0.7061856388001151
1718276884487271083,0.1176538336213851,-0.1861969886941373,0.0720171773017388,0.6734500437575663,0.3177961418651456,-0.6785267210223727
1718276884487293477,0.0785092577228334,-0.2197303751216707,0.1012071585488319,0.8121395257875568,0.1643612759049751,-0.8924988795533769
1718276884488340866,0.0898907123825832,-0.163444413184111,0.0212539283192445,0.5813650868759916,0.3300674737835903,-0.7095173626508234
1718276884489576869,-0.0727924624537636,-0.1357037196830129,-0.0427204915590382,0.3843549172471043,0.0143609196837643,-0.5136608602548104
1718276884490807732,0.0213386115315026,-0.1344540186570798,0.0243362190867641,0.4413832315850974,-0.0300283614464829,-0.7746981858773623
1718276884492088721,0.1380773618450895,-0.1537105182133613,0.0734507674526342,0.6002114924052574,0.0038582644109552,-0.8891433906906638
1718276884492115536,0.0818368822608166,-0.1837143189106496,0.1147164708059387,0.7846760077075872,-0.0428081988901366,-0.8067476913580608
1718276884493224332,0.0698630395737386,-0.1457405015169684,0.1479681051053949,0.7501401579036824,0.066097563373543,-0.7775943792314274
1718276884494433724,0.1050836326012025,-0.1440562298003144,0.1159084099803223,0.5974796592734173,0.109404089680275,-0.6699907546870354
1718276884496364309,0.1606921990603128,-0.0990239136086304,0.129794158790956,0.5247581540275876,0.0353161831979658,-0.8342737230443409
1718276884496374344,0.2203749867099689,-0.099415663347182,0.1987041986680721,0.6023643321623778,0.2050704484127097,-0.5681433356424478
1718276884497640402,0.2076665625037193,-0.0833323050089005,0.2342492203233924,0.6083669090464875,0.242627559409844,-0.4492091866484043
1718276884498888351,0.1914945871043702,-0.0307514758396284,0.1431522599461357,0.328205943604732,0.1681928504886247,-0.4617396197684457
1718276884500205322,0.166332031306552,-0.0358129978283317,0.0827013512008512,0.1284857189842203,0.0218451320542436,-0.4816872093328839
1718276884500215600,0.0726283734043236,0.0075994192632724,0.0198106717427652,-0.0930794205519013,-0.0660189232874319,-0.3374294019824828
1718276884501464003,0.1563290020427592,0.0035668412524435,0.0829724159644661,0.0426602758895384,0.167438654487717,-0.1736563077859721
1718276884502849027,0.1039943555835211,0.0119881044281877,0.0237250300702424,-0.0534795338648101,0.0651457914445293,-0.0796702274383503
1718276884504339582,0.0904029046455362,0.0094439900362803,0.072486555745293,-0.0104335969989708,0.1023960831630045,0.0004100727106966
1718276884504351351,0.0821315753032384,0.0430010478880059,0.0060966520527095,-0.2640289140785336,-0.0277501026139537,0.0874027899161142
1718276884505578536,0.0136993037017285,0.0851295179072432,0.0446270015357268,-0.2896698827357521,-0.050331263827233,0.1215539819242567
1718276884510312476,0.1184217960213256,0.0881448752519161,0.0949579246248787,-0.2737778985408359,0.0010173729216368,-0.1889704842624218
1718276884512087471,0.0508137032295061,0.1026592847051782,-0.0162281286544564,-0.5487621076259785,-0.0642407307048631,0.2041487060644683
1718276884512094028,0.0455884271498485,0.0745346270013247,-0.0706414033594161,-0.6600368679806493,-0.2208594985066846,-0.1260908086262876
1718276884512106816,0.0764291561154935,0.1168772563101396,-0.048103026854282,-0.7731509462838749,-0.1426684508165586,-0.0489054900444009
1718276884512118994,0.0626877119411955,0.0941396467954984,-0.0920328297562377,-0.8221687131744851,-0.1302854245630704,-0.0114961993296627
1718276884512137026,0.08105418410972,0.1150149631968893,-0.1982918826686046,-1.0320318451514563,0.0666408016051488,-0.0860792506096294
1718276884513539141,0.119133397895552,-0.0204305591929581,-0.1978565136888874,-0.8788711320511788,0.1497579447388973,0.0191976144028252
1718276884513551460,-0.0174825485895207,-0.0265608696548787,-0.1666699742340484,-0.8363753078133871,-0.1169131172657097,0.0771643549302524
1718276884514782900,-0.0335460414156832,0.0521550623524082,-0.2487495946061192,-1.1769226524870298,0.0639859157294776,0.2372117442378015
1718276884516194608,-0.0193578951072341,-0.0115812910094143,-0.203441720545861,-0.9280491694021512,-0.0008095997814625,0.4012150268932932
1718276884516203424,0.0521079807258472,0.0407317626383556,-0.2053587565182874,-1.0277810451518357,0.1521152329625495,0.1572376274821832
1718276884517435284,0.0309053897630001,0.0264428317133088,-0.114328846916291,-0.8163564872499762,0.1454085764415585,0.1678479408707543
1718276884518873370,0.0301769023767416,0.0256867767965402,-0.0638736245598007,-0.6842903471887539,0.033548655952223,0.1604537984191847
1718276884520371115,0.054904024754563,0.1338604719064382,-0.1030402162058576,-0.9088240958124012,0.1497499926320905,0.1565680975036121
1718276884520392014,-0.018919172100679,0.1586012660455036,-0.1158617393911682,-1.032070165054356,0.0066413184215907,0.2592753160562844
1718276884521604160,-0.0189756423921705,0.1528146974994944,-0.0993075071022357,-0.948950141038734,0.1379480305102021,0.2555333922294632
1718276884522955050,0.0143345452264278,0.1845883362427035,-0.0670660761618889,-0.9149290650859362,0.2425407010342954,0.2923311318632254
1718276884524401234,-0.0635192376916592,0.2308420608414232,-0.1027020984044347,-1.0799775148371047,0.0569031811927562,0.5130439098852699
1718276884524409781,0.0109810601755136,0.2578223344863819,-0.128890041580525,-1.1544783335747777,0.1553245117902427,0.0775549571987058
1718276884525655924,-0.1097332500917214,0.2931584641344391,-0.1364324907542639,-1.14744978271665,0.1284727001296224,0.2186177149113306
1718276884527045565,-0.0927762458369059,0.2401840439112493,0.0080411379593989,-0.822300105552048,0.1592371235399478,0.1636264461230488
1718276884528981289,-0.0494100279504667,0.2971814023768599,0.1205943247297047,-0.7164388275696885,0.2358718794873238,0.2016201131317999
1718276884529005854,-0.1218531602461395,0.3378412980197483,0.159801062336105,-0.688406224603929,0.2178178262654765,0.2574470901570738
1718276884530487567,-0.1287406687198238,0.3056966340114182,0.1556490189089709,-0.5661215614529292,0.1222319458377708,0.1822362513441582
1718276884530544684,-0.1303199024773108,0.2329831228521479,0.227992041315616,-0.3510715192402642,0.1241931415804918,0.2139053159460978
1718276884531612944,-0.0474850850675684,0.2677549404686006,0.2873592122276448,-0.3042275180444418,0.1208893210060611,0.2024259339205741
1718276884532972971,-0.0981987056697762,0.3152456076584466,0.221602222351543,-0.5072826956068806,0.0437927319555161,0.2870811728333144
1718276884532989923,-0.1196385961830054,0.3006173994236373,0.2357154934678834,-0.4223537920489049,-0.0193882371188585,0.1657485283554139
1718276884534143033,-0.0526256193570623,0.3106422521949609,0.1490948404920871,-0.5542492433392985,0.1142073555674911,0.1543293452689571
1718276884535371158,-0.1328546303404419,0.3343169119949268,0.1822973029307206,-0.5335336284804707,-0.0516465889506563,0.0641730167206039
1718276884536579735,-0.0959150374233354,0.3104040363357322,0.2181639895434231,-0.3814465671728241,-0.139808287419114,-0.0630439186845947
1718276884537808317,-0.1452991102041376,0.304008073025166,0.2392650960587216,-0.3205847457264344,-0.1257879405688185,-0.0385797821771503
1718276884539379511,-0.0996611350564247,0.3175678035279295,0.2136735005695708,-0.3435984086809623,-0.1956948666259959,-0.2588203106936831
1718276884539387095,-0.1363163754590339,0.2908837484407461,0.2734438503253133,-0.195821025202402,-0.2476343113504598,-0.2286968366471217
1718276884540324511,-0.0930433033633889,0.3262844718707984,0.2944764110268969,-0.2555396400454678,-0.2097505063450362,-0.2813751052223729
1718276884541558251,-0.106484498075134,0.3335023711975071,0.2663779097986035,-0.2495996865550367,-0.2754513593331532,-0.2891521961630875
1718276884542814068,-0.0872251875253865,0.2784994330366883,0.3463324490022839,0.0666624238056883,-0.2223546224655699,-0.4628243536604955
1718276884544109144,-0.0616214913263861,0.2074444385035645,0.2893445223413073,0.0965302336759649,-0.1248550075544216,-0.5161514423994171
1718276884544139286,-0.08670977764777,0.1762161878443981,0.2823526125726452,0.201827721163236,-0.2159236621850751,-0.4901981260183449
1718276884545328558,-0.0809464567739569,0.1192451282520607,0.3522337104203527,0.373094210723143,-0.0320257666090158,-0.2839989688362148
1718276884546528864,-0.1057626792162225,0.0752588914152047,0.3563086285990889,0.4675569289688306,-0.1532244376199298,-0.289766709210167
1718276884547728826,-0.0694279055880803,0.1553972148965726,0.3400700456532896,0.2761036258741777,-0.1928298285898695,-0.4633242763674665
1718276884549046223,-0.1422334579676368,0.0344616243511701,0.4660758618138469,0.699674959645668,-0.25507722928826,-0.4800991184208709
1718276884549060085,-0.1385650307445652,0.0592338190596565,0.3539483156901413,0.4640567079645467,-0.2660226503801005,-0.374319095544512
1718276884556466189,-0.1344499378929456,0.0070600401271916,0.289691465008329,0.5206466835805684,-0.2278941617707048,-0.3576727918630319
1718276884558476290,-0.1214243698876397,-0.0748970488128339,0.2531708105268909,0.6454704914613804,-0.3952241019217188,-0.4103794478717094
1718276884558487790,-0.0921167360883975,-0.1436299173339768,0.2612597438139123,0.8165062583641893,-0.3744969037337946,-0.4292442143886019
1718276884558496947,-0.1336781568449319,-0.113345616239376,0.1677131746569237,0.6066119188342339,-0.4452416749194652,-0.3142723567343959
1718276884558506284,-0.0869210648749027,-0.1348088056644185,0.1264563802590254,0.6107748444960664,-0.5328528461757761,-0.2755206705149737
1718276884558547252,-0.0116958079115043,-0.1720896761513213,0.138921285126838,0.687948964005739,-0.3474459445885468,-0.4487437189786736
1718276884558560757,-0.0762888519957366,-0.2660184726537073,0.1219281358131776,0.83655965926855,-0.5631968420461819,-0.5648520534553751
1718276884558603563,-0.072146113475686,-0.2793815072196276,0.0649894615870443,0.8340969081162379,-0.7560323529125408,-0.7957521899799951
1718276884558999492,-0.0267037077049,-0.3373135904803204,0.0364074533057868,0.8510287953492869,-0.4829394666873444,-0.659216552383913
1718276884560233372,-0.0515998615182342,-0.3110631287571615,-0.0426210668713488,0.6214969642732389,-0.5256250210979543,-0.584734214048543
1718276884560241739,0.0406657761586912,-0.3275159008940346,-0.1249000211699885,0.5016776025375673,-0.487821352839933,-0.8155563005282649
1718276884561283539,0.0317156799180591,-0.4167609310177213,-0.0940094136454128,0.60462503992601,-0.4717638356598373,-0.6353034866547537
1718276884563098371,-0.0081724398153511,-0.4654636708526875,-0.1768248204527211,0.5926497545121788,-0.5143197765079935,-0.7030674450319835
1718276884563106730,-0.0005824930200303,-0.5004993313402333,-0.202259753825309,0.7076201644923252,-0.4540098325775787,-0.6576726545667902
1718276884564316854,0.0263174260624018,-0.5490515447429141,-0.1662331292155694,0.8566885363827149,-0.4697776752476217,-0.7919382522947972
1718276884565543476,-0.0697545840143853,-0.5076246201332419,-0.1573363919688948,0.7794879274383978,-0.435862062731689,-0.6602880153605815
1718276884566749222,-0.1224439369160823,-0.4814748699547996,-0.2435072974158884,0.6032520752902317,-0.5108154266860524,-0.5531599231583508
1718276884567990710,-0.1222203006357368,-0.5052585373417086,-0.2152325326102224,0.6841737694180543,-0.5098718302286456,-0.7107427392739554
1718276884568003433,-0.0442201931351359,-0.521656211778899,-0.3027895563595496,0.6096313475012389,-0.4484343499175114,-0.6960266437980971
1718276884569275750,-0.0980409553448672,-0.5271693768062867,-0.331158031067129,0.6393153380206831,-0.500904385088058,-0.5803579919690505
1718276884570507910,-0.0831244928210262,-0.526368501121718,-0.3175066733977955,0.6342386738366954,-0.5350170753485781,-0.7714369386086746
1718276884571693691,-0.0873857201300264,-0.5142468847948113,-0.3006343396964328,0.6209883540160548,-0.5517431861528862,-0.667403674746891
1718276884572949137,-0.122966390597225,-0.4944058091886489,-0.3391073592925596,0.4766088123678139,-0.5238849400847515,-0.6535706636500642
1718276884574111809,-0.0325322127098361,-0.4359967308940347,-0.36304176445738,0.3396239275073401,-0.2767822337295088,-0.7063399465991786
1718276884575713522,-0.0831178307544977,-0.4046164567529162,-0.4367776332742037,0.1018028550237495,-0.3470282098292689,-0.6751858489990875
1718276884577006573,-0.1631308723788919,-0.3786227691178241,-0.4945309104772419,-0.1041490366815278,-0.6110735127337016,-0.3412268944720448
1718276884577025191,-0.107444637192585,-0.331943419430957,-0.4709007781520973,-0.1483814176696103,-0.5842853519078353,-0.473012593285779
1718276884577933281,-0.0327319449101718,-0.2483843321167386,-0.4698860869540542,-0.2886522868685485,-0.4580150746702598,-0.610972086795086
1718276884579356235,-0.1067985736936206,-0.269560182023661,-0.3240856737686538,-0.0536416198161094,-0.5863711748576199,-0.358649247029742
1718276884580533505,-0.062761755937701,-0.2472286792954937,-0.312295691097114,-0.087247065248132,-0.5173687185211236,-0.2884308649961944
1718276884581749377,-0.0298471225086724,-0.2089602532699448,-0.2987179977037708,-0.088891235885734,-0.5375386046760011,-0.2695005422240835
1718276884583044554,-0.1386218281078175,-0.1883487123319679,-0.296790167825339,-0.1324625923681976,-0.5024137368698081,-0.0319793241794333
1718276884583054971,-0.1385032732752912,-0.1581586872010405,-0.2419308052076641,-0.1908005520074287,-0.5181060379770503,-0.2722406020863545
1718276884584538397,-0.1070672631608455,-0.1615756335323298,-0.3147874725960474,-0.2688498318979354,-0.5167555896393807,-0.3071355131970395
1718276884585426194,-0.1482671195235662,-0.1886303023679036,-0.2210185580099719,-0.1210177413981057,-0.4945391852727268,-0.043620165766451
1718276884586623083,-0.1316780249663104,-0.2376874769713697,-0.1382108675340923,0.1519031519719757,-0.3735675990141633,-0.1912564501889282
1718276884587946929,-0.1632800336020352,-0.2189358253862635,-0.099760264142322,0.190985454843455,-0.386944462649204,-0.0656976328977111
1718276884589157103,-0.2124676194866743,-0.209810832179419,-0.0802113183624308,0.1934475667908124,-0.3927587248617789,0.0062704338450558
1718276884589165753,-0.1360640287694869,-0.2096311868064176,0.0274047530852331,0.420873122004309,-0.3165952153248296,0.0545493519205776
1718276884590313439,-0.1192904827552714,-0.2221601594795232,0.1011938963033101,0.5861175482355371,-0.3238728466537371,0.0113203341399479
1718276884591562681,-0.124905443318456,-0.1725517989717711,0.1704145819056771,0.618658840601781,-0.2938061611331903,-0.1436181242607028
1718276884592777056,-0.1277701073118394,-0.1470564959179542,0.1102769878070917,0.4682425901363881,-0.361955246255248,0.0265340019818454
1718276884594011060,-0.1246620781647527,-0.1470620286576974,0.1225076523185518,0.4701175106674726,-0.3620544142418527,0.123370568344572
1718276884594041670,-0.1016104735563632,-0.0886404730504808,0.1872610662865607,0.4976554297129941,-0.2695315474291333,0.1539427283400275
1718276884595152147,-0.0851682104271831,-0.0310323371772441,0.1337119627287943,0.2578292951545919,-0.2677600707749831,0.1079448053513477
1718276884596400889,-0.08979396934969,-0.0288404530581895,0.2044013397764814,0.2797678680944074,-0.1948698473223988,0.0014863186529883
1718276884597677399,-0.1596408655405714,-0.1019370914744458,0.3187085834987473,0.5564520118085762,-0.2292864379426792,0.0196339001283855
1718276884598959506,-0.1673471968136075,0.0049173638859067,0.2475404601318496,0.3148651075149598,-0.2744221898981427,0.1683169381764734
1718276884600208695,-0.0737870906698455,-0.0125169115663337,0.2333396720898533,0.3668573160885168,-0.175367931789784,0.2172438163251264
1718276884600217871,-0.1096780264867924,-0.0001563363568895,0.3101683370282909,0.4895516204116051,-0.1968336446909757,0.4205672212804361
1718276884601373960,-0.1323855876102844,0.0420848314269003,0.2239506556737193,0.2680618007502103,-0.2242926209273909,0.2067524783926168
1718276884602583530,-0.1669349774690098,0.0440949868250733,0.2062588099637938,0.2080074638641721,-0.254831479527758,0.28335239335479
1718276884603832992,-0.2094511606045032,0.0706871664082726,0.2610012717520222,0.2240380737592006,-0.243948741903226,0.2887834371622976
1718276884605180185,-0.1035425295892554,0.1149537507201235,0.2332930004155181,0.0800188779164862,-0.0472596179775281,0.1952261613942737
1718276884605188338,-0.1261709592068757,0.1121414663135332,0.1790232789394455,-0.0764275939712459,-0.126021369241163,0.3065429989211146
1718276884606362484,-0.0964695140299214,0.055952800215171,0.1503648972331716,-0.020400113802615,-0.1318277283557653,0.1896909009702976
1718276884607601522,-0.1014215377158502,0.0481075944871636,0.0995287869967832,-0.0596541084161349,-0.0795197810255654,0.2916661536452905
1718276884608785026,-0.1531780493127844,0.1213504855504297,0.068320307530812,-0.3550559416298666,-0.1205377559535756,0.2788267714381501
1718276884612826203,-0.095871062574723,0.1121765298418641,-0.0102326720833584,-0.4563065593486887,-0.0954426832366374,0.091695902413505
1718276884612838670,-0.0363554139050916,0.0340324016771911,0.0162156094295557,-0.316130835061913,-0.1375125581633343,-0.081525957921188
1718276884614658141,-0.1177692115132958,0.0404755321581635,0.0702400376871664,-0.2857712645512816,-0.1785174547884791,0.202164496101029
1718276884614685113,-0.0201787138705754,0.103712340874023,0.0735003512400486,-0.3866314524104332,0.0007799356926815,0.0461446976638853
1718276884614697524,-0.0616500684995743,0.1323343745765876,0.1034668338146598,-0.3748727651716336,0.0731262444880115,0.0764781232497438
1718276884614706577,-0.0124834006216873,0.2239875746854937,0.0282953319141849,-0.7333700798811366,0.0639155655308736,-0.2763650891896937
1718276884615920728,0.0232363391758262,0.1484392009789229,0.0513585156658788,-0.5836965137024047,0.0539627830498665,-0.2647150946065266
1718276884615928954,-0.0070638513530468,0.1720008290176543,-0.0134212091963646,-0.7064906231354382,-0.0774072784035075,-0.3802874394559395
1718276884617195108,0.0186977610615703,0.1886093378309907,0.0652554835205481,-0.6739747786288074,0.0489679286555812,-0.507824674992796
1718276884618622555,-0.0077954413692253,0.2073934874653536,-0.0593070534829191,-0.8733804681911912,-0.0503218219734362,-0.2513589437444352
1718276884619884751,-0.0165144127765882,0.2333025341345657,-0.1325292516367965,-1.011081973014878,-0.025419571231718,-0.4847355498292268
1718276884619924643,0.0021113116929461,0.1514109766158484,-0.0447753855930006,-0.6859479608385499,-0.1212907115584006,-0.4034695170791239
1718276884621034615,-0.0133939874118217,0.149565462192686,0.0269159788995364,-0.5437995714462807,-0.1754312134348813,-0.3543874700004093
1718276884622242919,0.0117871067849008,0.1830906865961709,-0.0221364911288277,-0.7035392599270214,-0.1618498627041794,-0.5614936705504211
1718276884624367288,-0.052804632192223,0.1413064373095681,0.042448119992285,-0.4381974606665831,-0.3585106943151815,-0.5909569947819933
1718276884624380433,-0.1337323160559081,0.1427322276088362,0.0409863490347318,-0.4299279547865143,-0.3458097332474455,-0.4202469459016534
1718276884625593328,-0.0461798137629775,0.1500472198487641,0.0475043069896894,-0.3905738864124041,-0.1750651338689317,-0.3458238984771934
1718276884626853802,-0.1079638287614258,0.1191351521527028,0.0334055780421859,-0.359591190950853,-0.3061868665595475,-0.2961641000562682
1718276884628061459,-0.041114041733899,0.1234161764275313,0.0071483801205806,-0.3734151626891058,-0.1773606177583377,-0.3749514977211443
1718276884628082327,-0.011237276635017,0.0294197809462658,0.0990827088669235,0.0110852872064717,-0.3475600293402924,-0.3634016617817607
1718276884629251805,-0.0162560091845109,0.002273823268789,0.1230009385523022,0.1407131881721975,-0.3121016949510954,-0.3991102289159856
1718276884630467093,0.0585285014311294,0.0367585718178443,0.1003979556887537,0.0067414225146442,-0.0578584896545347,-0.4328781896161289
1718276884631682163,-6.379225940806449e-05,0.0406065582978664,0.053778404137804,-0.107625168175728,-0.2275562221360557,-0.4421763451416302
1718276884632887307,0.0589874819578551,0.0120386834372343,0.0643391408672504,0.0309505001955906,-0.3449497475537305,-0.7645164139097818
1718276884632902976,0.0700184493989399,-0.0181232225345054,0.0727572746900438,0.1263545231122537,-0.3224934358931362,-0.7566770147506185
1718276884634049868,0.0647568687621513,0.0364349126945699,0.0843340513543731,0.1409349908994025,-0.4259833297242587,-0.5952216261721733
1718276884635294059,0.1032954782532718,-0.0150488864702287,0.1907912402443477,0.413806313507829,-0.119649994436192,-0.7037509229070081
1718276884636493287,0.041215297899774,0.0636131100759991,0.1726378781134729,0.2107912376744566,-0.1800566123725771,-0.3346071216806002
1718276884637689593,0.0390405525286205,0.0262659126582672,0.1832404029690336,0.3406645581686612,-0.1936077596545558,-0.4388833646378819
1718276884638884722,0.0655310428411286,0.0215339740928381,0.1909023790122035,0.3211519963945339,-0.1311168112978254,-0.3942744705477179
1718276884640145184,0.0589799390981212,0.0317975963356039,0.1381030898613719,0.1971799288365478,-0.1535646626122776,-0.3743610690494437
1718276884640185608,0.151441535312762,0.0138659521378299,0.1759199152709128,0.3482746982539139,0.0621419769853632,-0.7787608595305023
1718276884641352770,0.1131252575018862,-0.0264051937046286,0.1259735474059579,0.3454586255671238,-0.0123500088180971,-0.6709112219245117
1718276884642569506,0.0351895739692995,-0.0740229850495319,0.1301563476152401,0.4332499413233571,-0.0334889177444777,-0.4757807206422276
1718276884643789442,0.0666475268375749,-0.0773246165009331,0.0836066615762468,0.3598150278565264,-0.0056705748931415,-0.4705626604020429
1718276884645001298,0.0560441787889437,-0.1170192565555197,0.1003144352024325,0.4586195873185893,-0.0597676939332009,-0.4494043020707287
1718276884645029190,0.0113896517159854,-0.1219192349767583,0.133085463740019,0.5786686967856819,-0.1269567123984189,-0.4928689471901626
1718276884646211068,-0.0250078710971599,-0.1089819441608662,0.131540490585401,0.5173697840295288,-0.0180530368331952,-0.2388231492589197
1718276884647423201,-0.0834698234126537,-0.1139718131794187,0.1082032150129194,0.4486824583146287,-0.0150234295095606,0.1846855929097356
1718276884648633892,-0.0580760895618691,-0.1280065967114579,0.1362921370261321,0.592490435014962,0.0694997911318116,0.1235164333885038
1718276884649901886,-0.0761105737366151,-0.1055026928343769,0.0560750697168373,0.4945967158575377,0.0184881569233614,0.147011608324375
1718276884651027888,0.0265404283263098,-0.1530388992993366,0.0853285969660714,0.7114724284167161,0.1269555149228076,-0.1502401173180388
1718276884651048484,0.0672861750348934,-0.2388101560128386,0.1381739518424091,0.9581273160040996,0.18885709154793,-0.0636903795673248
1718276884652716842,0.0071673818159406,-0.2176250192059871,0.0613161971757847,0.7783479217247717,0.1010760767831673,0.0700994550039947
1718276884653637599,-0.0526136096918919,-0.2644903756723998,0.0431320613540565,0.823818978298747,0.1250650862047599,0.3445054666552352
1718276884654883155,-0.0547831398406656,-0.2947908494733693,0.0586636829252672,0.8647642781473112,0.1065555554773823,0.52666415223648
1718276884656132643,-0.0235665862855712,-0.2658507083238789,-0.0439517721326564,0.6515336359723244,0.0476849548918275,0.252346212518271
1718276884656167342,0.0798252481384134,-0.3197330127471669,-0.0584263795785554,0.7119398306400422,0.3942940275451268,0.3541991369715697
1718276884657341277,0.1296516096446227,-0.3067395961199774,-0.013382565082202,0.6670196881770233,0.401353725143047,0.3645260825444891
1718276884658974379,0.0925029710801387,-0.2923682248712613,-0.0613479181883549,0.5538828568964347,0.5593266098659049,0.4341609260650014
1718276884659005630,0.1724714009686074,-0.2960262305977035,-0.0974831991803708,0.4665565788393059,0.501964199497966,0.5738596295080352
1718276884660185899,0.0918387765460171,-0.3112324089893355,-0.1330283092606654,0.4654199754879478,0.4886827388216604,0.5710448888891827
1718276884661387148,0.1925437410643825,-0.3032133885000423,-0.2171727789955645,0.3379376410141592,0.6572043751414678,0.6340163103705858
1718276884662626655,0.116656516499777,-0.3395223770020764,-0.1476869947935454,0.5385245369384629,0.5691384079329097,0.7776826981592186
1718276884664903012,0.0697344033559804,-0.3020203639669504,-0.1835415954534895,0.4108489455986829,0.4353227295609133,0.795210569551419
1718276884666100928,0.0767391517767798,-0.3045403797967936,-0.1493371559670305,0.4468748202063627,0.36215557123551,0.9221657223692404
1718276884666124783,0.1658121986916024,-0.2733719872499673,-0.1287839606412048,0.3950091577782391,0.3576897200604569,0.6664723616974768
1718276884666141742,0.2662212484720289,-0.2752416073497424,-0.0392916865464252,0.5449173129385331,0.4464787671319345,0.30230676387958
1718276884667312813,0.1554967346865657,-0.2162683633871905,-0.0896594179636714,0.3612229497529959,0.2832109799437085,0.5122417612238881
1718276884668529236,0.1066979502789943,-0.2380703367776908,-0.0076906463488488,0.5196865168570514,0.1041593627147411,0.3163135863688909
1718276884669740353,0.0924507190510603,-0.1917606431223406,-0.0537800709955463,0.4161564997409672,-0.0560360282690167,0.4736137726691142
1718276884670959660,0.1048997601862097,-0.1843382798946369,-0.0887265357875409,0.3481162625705662,-0.0920208394666782,0.3747426472338623
1718276884670992184,0.0982115129051885,-0.1790614671200845,0.0587293739497945,0.5647573429959836,-0.0353309512038229,0.1927456482228458
1718276884672234455,0.1039712527255364,-0.1219478363762305,-0.0736662866873223,0.2633876646642579,-0.0728986850585279,0.1210907295256657
1718276884673410378,0.11959896674378,-0.091651842228621,-0.0896018357718121,0.1909703766387401,-0.1263970809895133,-0.0384713491700931
1718276884674689310,0.0959006922153749,-0.0983291637461378,-0.0472920874108354,0.3024137273473964,-0.0560913995645388,0.2328403501607128
1718276884675932933,0.0889596349545874,-0.0856713471140144,0.0222921566891882,0.4495348395772047,-0.1016386229413583,0.282946953976609
1718276884675946093,0.0332197377082967,-0.0686948715683163,-0.0585141494341675,0.2563003940171562,-0.0882056776390088,0.3228215537719926
1718276884677148440,0.1182888805087322,-0.0954050456802224,0.0270037047972859,0.4054784444353738,-0.1854093753838392,0.1210170941330588
1718276884678387492,0.0786136594175999,-0.0561397573521886,-0.0107469848940052,0.1814242359285922,-0.336243623467658,0.1735403337369565
1718276884679578473,0.0786776420480737,-0.0528920364742643,-0.0542228816572248,0.1151276920428503,-0.3748730059352432,-0.0145461200601417
1718276884680777743,0.0114904104381631,-0.1027391538709354,0.015822215187182,0.3425335831384729,-0.48186185833696,0.1570278182035162
1718276884682001737,-0.0632414927157645,0.0142903413460974,-0.0423346850749846,-0.0614577707203268,-0.4971057830020949,0.1080195669059356
1718276884682014584,-0.0869974782769093,0.0574505338315343,-0.0790965456130607,-0.1818227884249569,-0.5012377713806198,0.2010766627765365
1718276884683241139,-0.0106925893409249,0.0576879642058872,-0.0364025310712426,-0.1295447378020164,-0.5987451799841879,0.1639080462777419
1718276884684541615,0.0489228270096522,0.0626169132715398,0.0197156651914776,-0.0880335222869432,-0.4292751468949933,0.069639500420693
1718276884685725129,0.1231707167169288,0.0292276366345794,0.0554149197744147,0.0924728405595693,-0.3641946660461475,0.0545876932299893
1718276884686989179,0.0836539098669265,-0.0008427271440423,0.0604626720250306,0.1866051936205311,-0.3118291457862489,0.023440699804787
1718276884687027109,0.164843066056453,0.02896118990492,0.1467276394590815,0.2870987459574182,-0.2160636735506977,-0.2288690013812355
1718276884688209133,0.1005898763470076,0.0871168261839392,0.0694311866136906,0.0828576544652641,-0.3633335958556128,0.0210817953522859
1718276884689398309,0.0151959676219219,0.0132849722958051,0.2083251637829348,0.4264998121448315,-0.5434634284583866,-0.1880454377696466
1718276884690620386,0.0149785450668429,0.0521821842225925,0.1046838698735194,0.1037049219278909,-0.6356486222127329,-0.1743788464212023
1718276884691931837,-0.0165283763135508,0.0899377870067451,0.066182968589162,-0.0343680298949399,-0.6724846507305619,-0.1035945421644677
1718276884691943287,0.1201163503641182,0.1146851604005832,0.1071179553864966,-0.0722802450707846,-0.4684221924843983,-0.2583351947995762
1718276884693168182,0.0607354409048081,0.1734575982502131,0.0270006070798636,-0.3036281018684978,-0.5421899228417216,-0.0893634595627057
1718276884694384792,0.0823554740930336,0.2297643140405843,0.0531877626478464,-0.3992561876555411,-0.4673655800655421,-0.1586041561245279
1718276884695652501,0.0330956675314621,0.1164834357866746,0.1901295461575069,-0.0500867368824922,-0.5136371846882832,-0.0959494569854197
1718276884696865355,-0.0131647765838605,0.1259580855212971,0.1951303761668396,-0.0964994883082414,-0.5555414017170764,0.0405993194589257
1718276884696888141,-0.0614670632417901,0.1584867766255894,0.1511754200682702,-0.2073016430239425,-0.6909025948236334,-0.0883246381451355
1718276884698108424,-0.115307620172349,0.1235556072116443,0.1459030606219237,-0.1916557995787901,-0.7021862862687412,0.0169138256325379
1718276884699353706,-0.0823318446268718,0.0830424328769809,0.1990710073367057,0.0459934373275815,-0.7316850801749942,-0.070043100132928
1718276884700577918,-0.139283412396529,0.1234796701356168,0.0602964778850793,-0.2403406742596235,-0.7404512771218432,0.0962503840057457
1718276884701789353,-0.1109000434296875,0.110966128468001,0.1058251052841435,-0.1941660755844454,-0.6642049459344089,0.036055776695796
1718276884701801980,-0.0804148156490974,0.1295956201657528,0.0640902833869033,-0.4267289774341829,-0.5717834890787945,-0.1149059905704845
1718276884703026762,-0.1107718276088959,0.1792296893320254,-0.0192460094533789,-0.6692863306904898,-0.7730431602049238,-0.1502841218439816
1718276884704246048,-0.1315630986952616,0.1307840938436999,-0.0541604101960488,-0.6519205095891875,-0.7562893542806329,-0.0992520332953057
1718276884705465733,0.0186963324977787,0.1447340445148024,-0.1017318365910208,-0.7927319491892123,-0.6405434189772387,-0.0709544668988542
1718276884706666962,-0.0330131314405232,0.1428456180812782,-0.1973702770808596,-0.8993630116253244,-0.5790795832923831,0.0531895162567075
1718276884707934267,-0.0039073735730376,0.0878355313382072,-0.1071666041452726,-0.6723751726969428,-0.613664292813336,-0.141353431710639
1718276884707955014,0.0247515536757761,0.0981714194389961,-0.1562339870583098,-0.8442104155799321,-0.574135021418045,-0.113210402565384
1718276884709157597,0.0056215005447448,0.1513419526036569,-0.1203189721369561,-0.8543714895195725,-0.5461272939253952,-0.0999290845797225
1718276884710391207,-0.1025940927870995,0.1028331955121049,-0.1707111099002073,-0.8493457160934571,-0.4606342888623533,0.1021123994004555
1718276884715441908,-0.1470562039831078,0.0736075895209611,-0.1885858465425422,-0.7886308349832719,-0.4641923560330827,0.0170053184405823
1718276884716677566,-0.1957531419608021,0.1751985267840566,-0.2755270756600763,-1.1244364714244703,-0.679966450015982,-0.1650946084197385
1718276884716699662,-0.2683405386775453,0.1201738059550225,-0.1445868821792568,-0.9052781392983598,-0.769302067598515,-0.0167405183687472
1718276884716712453,-0.2832724923013746,0.1614889140884638,-0.2561245583756033,-1.138790375938938,-0.8525938669582444,0.0358442643802376
1718276884716721869,-0.1589594198121463,0.1671460275145761,-0.2849894534621434,-1.1934913391400412,-0.6487007404944086,-0.4154130943331187
1718276884716773528,-0.2869808585059406,0.1025263402378518,-0.2726609287142251,-0.9877796544850562,-0.604553651053559,-0.2398583899259158
1718276884718202045,-0.2310585556307173,0.1436669081670244,-0.267534047258843,-1.023837230985308,-0.489513273592523,-0.3796527882644241
1718276884718229644,-0.1290281835639069,0.1778734899299527,-0.3141730185300544,-1.1714811989581888,-0.2696040526337705,-0.394215967917143
1718276884719444191,-0.1630423936510585,0.1127227902885612,-0.2780538533673135,-0.963221645723594,-0.2963011179838973,-0.2310060157781738
1718276884720308423,-0.1117787199247645,0.1377546116451382,-0.1960444206146775,-0.8609753566242436,-0.2554824750668881,-0.5121889328961731
1718276884721535754,-0.1346055773276831,0.1030268726800482,-0.2436742596696435,-0.8522403284898173,-0.3312959689403986,-0.4767724824527112
1718276884722745194,-0.140729071196804,0.1140980726069564,-0.214731978576382,-0.8162155754822632,-0.3713291023672743,-0.444040279993753
1718276884723992839,-0.1175803082551073,0.0809270187459278,-0.1134441837893095,-0.5517358050591055,-0.1364552388165639,-0.2777771804849839
1718276884724009058,-0.1185953589603162,0.0655583093393915,-0.0685388899380588,-0.4222243311660008,-0.1921270234764383,-0.3165475696564386
1718276884725225464,-0.1227649362288016,0.0552602591425507,-0.0271521685480598,-0.3223829199123863,-0.2756425976995489,-0.278713383444326
1718276884726463491,-0.1786888851126773,0.0523253740355312,-0.1887425124930768,-0.5977085760825366,-0.4617664088231629,-0.2468176893332151
1718276884727693820,-0.2680304021452841,0.0401906191167655,-0.1867704577147918,-0.5452775293717427,-0.5823012386215216,-0.0413971582570713
1718276884728950447,-0.1963200874911206,-0.0179700150767022,-0.1051155005280306,-0.2572309950154112,-0.3938054250493454,-0.1749238344455383
1718276884728960460,-0.1482591525216408,-0.0448165656596775,-0.1110848571942579,-0.1717847237033224,-0.3295560255393072,0.0531135943431004
1718276884730168822,-0.1589346422640936,-0.0270359970142091,-0.0782233402620687,-0.129837978160921,-0.4627758478397797,-0.1282927149432307
1718276884731405983,-0.1433553946710874,-0.1177339811353677,0.1510062543281396,0.3994784108447288,-0.523945890065518,-0.0235988894533805
1718276884732619266,-0.2193936427887842,-0.1012440547261447,0.1409668474618407,0.4232800538916966,-0.5829127877254996,0.1051667704831907
1718276884733855558,-0.2244557994966367,-0.099646576040999,0.168166736359387,0.4991229040467711,-0.5322507762848723,0.0421939921762859
1718276884735124464,-0.2759442394426531,-0.1247258333769833,0.242187272060853,0.6945465876369303,-0.5777482211277087,0.2225402532572664
1718276884735147737,-0.2214862780220025,-0.0505000256682191,0.2169990394443743,0.5369954538923973,-0.649236909635218,0.0993256050125665
1718276884736366517,-0.2087647335367374,-0.0572039865537687,0.2868026750733793,0.7046866342338932,-0.5621115015530519,0.1230215445146251
1718276884737558881,-0.1791356299781946,-0.0249496094303655,0.2481273149018695,0.5915670847327975,-0.6121791077334569,0.0484479029400935
1718276884738791760,-0.091491343383341,-0.0094512092639104,0.2321175576350498,0.5938160211772572,-0.5368180449137753,0.0224645507711434
1718276884739940551,-0.1492523160207152,-0.0314722313339358,0.1987001724312715,0.5964854903515232,-0.5886495891141934,0.1353100769187951
1718276884739953222,-0.2198453793215904,-0.0757714399755266,0.19169454598643,0.6700648563845306,-0.7913591739625387,0.2217292102566271
1718276884741134614,-0.1164142921213123,-0.0858622517565956,0.2211480318777632,0.7554632551450726,-0.6220763888915117,0.1225773371004662
1718276884742380986,-0.0987458872534443,-0.0908051391696663,0.2241035000123614,0.8228997568706898,-0.6237233390956268,0.2700509390236599
1718276884743598381,-0.1072888217257034,-0.0624678336196395,0.298010371033225,0.8639227096150113,-0.8126501309982872,0.0516215130532188
1718276884744842680,-0.048579594337681,-0.0898553639927883,0.3633435311298923,1.008343494283972,-0.738146845444263,-0.101494910975467
1718276884746177370,-0.1199642102350703,-0.0454036951384826,0.3372570561927006,0.8750162635383435,-0.82571105560959,-0.0428779035999026
1718276884746201481,-0.0892511680630347,-0.1127905416495828,0.4342954918058623,1.2213662856976604,-0.744271880665124,-0.2292460855845058
1718276884747362254,-0.1161546761700638,-0.1153255313411926,0.3334413177804792,1.0368119275745171,-0.8166142898712416,-0.2138245358064307
1718276884748627096,-0.089508448550409,-0.0596230929865114,0.2441532947540683,0.7494432911867328,-0.8923418051093708,-0.511347751537022
1718276884749831879,-0.1054306379516061,-0.1247615678039073,0.2350769042984061,0.8221248081770902,-0.746884989357372,-0.2924027839603424
1718276884751093867,-0.0499383209428776,-0.1702845883589654,0.2784854614589398,0.94720019911683,-0.5754643953382883,-0.1527450234179174
1718276884751113238,-0.0675693245786849,-0.1459845320799244,0.2101943661699553,0.8344564366002377,-0.5994194707537676,-0.14919803422233
1718276884752382645,-0.0706046311684108,-0.179534068452736,0.1595536478670164,0.780679362903642,-0.65764533393355,-0.0716655379219479
1718276884753676732,-0.1124047395095763,-0.2090187680655803,0.1850671401231742,0.8512228649845517,-0.5313353220842493,0.0358474587886645
1718276884761044967,0.0198155634783527,-0.1840182709330248,0.1032266059720133,0.6928182908244553,-0.3565200973291198,-0.0482809398037776
1718276884761060740,0.0874812405979238,-0.2067984819832019,0.1160075987105711,0.742104555111512,-0.2750093345394823,-0.0394911327042649
1718276884762872586,0.1415496825254949,-0.2226634663819488,0.0702190895948651,0.6623470887049442,-0.2742263830513261,-0.3504617513212926
1718276884762891528,0.126215111163592,-0.2034247146828532,-0.029690330643911,0.488558674308625,-0.4388922645371903,-0.2439713894975296
1718276884762900556,0.0018371798943224,-0.2480948165693994,0.0504993545695337,0.6431563420831139,-0.5401583719074692,0.0986347845453362
1718276884762939202,-0.0498704765371523,-0.233102740106687,-0.0221975531199648,0.513731704680353,-0.5509948650081394,-0.1561442938953078
1718276884762972495,-0.0329353970905713,-0.2738444059965976,-0.0004260183153175,0.6545538065500889,-0.476343370768821,-0.028998815352318
1718276884763013232,-0.0701971727952886,-0.2530591294958471,0.0123598960167119,0.6593170295797314,-0.6176838145633675,-0.0866503266408764
1718276884763110239,-0.0756149379649458,-0.3133259004289521,0.0720106894590012,0.8256917100270817,-0.5151621798144713,0.0272278815661686
1718276884763589380,0.0042143440065191,-0.3356513828836703,0.0610109824947847,0.8504200879780622,-0.3972963618666933,0.0805039122708932
1718276884764820411,0.0691024598703291,-0.3398922993015918,0.0594600896180328,0.8789876025270188,-0.2521171275626848,-0.0161112254197872
1718276884766502226,0.0300420404605388,-0.3091063539776725,0.0531789883599332,0.7937958615638877,-0.2838148069332119,0.0104100003344844
1718276884766512704,0.0113490600574973,-0.2707239133007912,-0.0251349212630271,0.5822413057203386,-0.3190650154749576,0.0051324204980199
1718276884767598348,0.0802693096827313,-0.2947897825417099,-0.0070592549595883,0.6359712358487893,-0.1796652238598534,-0.1723190740213807
1718276884768843443,0.0226889999748312,-0.3022250147497602,-0.0485555319003399,0.6155758371254433,-0.178192482743702,0.105003927847577
1718276884770133732,0.0170984260459952,-0.2692905778641228,-0.0915617476208133,0.4662686712553701,-0.0612197461693973,-0.0141138637265496
1718276884770144056,-0.0403172982995903,-0.2507938423980272,-0.157774362185727,0.3298961568629594,-0.2595182658752329,0.0582680750036918
1718276884771371411,-0.1170342541063699,-0.2327278122815589,-0.0384243164187716,0.4848532405142239,-0.1775934923818305,0.2643603125737566
1718276884772589832,-0.1062952644053218,-0.1577560804929658,-0.1170075581151992,0.253667225202662,-0.0546620666486566,0.4115601446220011
1718276884773816959,-0.0450715648381133,-0.1843097539264094,-0.1283781590339582,0.3188650595081923,-0.1433706323601931,0.2313458537888711
1718276884774898605,0.0006319211396979,-0.1994493046607065,-0.1873780233260567,0.2327755536841158,-0.102714431795166,0.0449313090456212
1718276884776206244,-0.0592427161572202,-0.1769578312571253,-0.185182270378854,0.2306900603751623,-0.2471961031524917,0.1382554716759222
1718276884776217169,-0.0327286780203628,-0.148735039717709,-0.1756009688801677,0.1392157047104512,-0.1828005478564645,-0.042780366187475
1718276884777432185,-0.0706034073926767,-0.1508182110652504,-0.1667098140458544,0.0898869446528172,-0.1898199237292806,-0.0824949138236895
1718276884778651277,-0.0654953895883354,-0.118604507667386,-0.2300207893817901,-0.0907855793172058,-0.2951792294071772,-0.1589231437305517
1718276884779879584,-0.0729714611546974,-0.1354883298354702,-0.1005004787803702,0.1103866030484543,-0.2080032066483668,0.0101479958108465
1718276884781041948,-0.0542741231161331,-0.2120897002732482,0.1180959355402854,0.6168770935725745,-0.2740504078582479,-0.1468201752069986
1718276884781057728,-0.000606219343964,-0.1844386477367024,0.1059946010287181,0.5846430319696585,-0.2090842484498825,-0.0936114165277317
1718276884782234288,0.014105183018495,-0.2050913901646578,0.1827996071991134,0.7338061414515926,-0.0951951988565997,-0.0751136581898708
1718276884784125291,-0.0184030391691624,-0.1850596815555068,0.126561691659405,0.6431796676348557,-0.1580320719571374,-0.0217736182850512
1718276884784134951,0.0137773419216678,-0.1665311718525882,0.0940764486654268,0.585738607135806,-0.1746287374897623,-0.1663134140549438
1718276884785382456,0.0211188600466859,-0.1743290070346056,0.1442382604820479,0.6856441024131135,-0.1808574512041588,-0.1521074369005658
1718276884786609926,0.0448097695241974,-0.1341914142961506,0.0788566402183341,0.5447131308379124,-0.3344515943675148,-0.2032875982391119
1718276884787717825,0.1003358413609996,-0.1217445966295658,0.0517261494111974,0.4626440636538622,-0.2124611689288735,-0.245896670888079
1718276884789314356,0.105148496586002,-0.1230323850326135,-0.0076612711909879,0.3341842150861396,-0.2272525895512165,-0.2411791831045217
1718276884789329231,0.0711239123876714,-0.0741056775987765,0.0003953353341506,0.2642092909285556,-0.3796711113251253,-0.3728845829677521
1718276884790161428,0.0374015091437061,-0.0977771099064821,0.0157500580843866,0.3505880282079071,-0.3666174917997882,-0.4117733435402219
1718276884791383290,0.0529772831439185,-0.0499154968538816,-0.0227653564955627,0.1642909152944235,-0.4570991644109031,-0.3067348533469106
1718276884792535749,0.0735802359385494,-0.0791642162877171,-0.0253663660218494,0.2257634709536148,-0.4957145472299478,-0.6669446568303853
1718276884793763181,0.0687359102876492,-0.0474509730167432,-0.0326139413109307,0.1290258706848281,-0.5265641770452747,-0.6594533482774922
1718276884795175627,0.1215893729494723,-0.0276970599712515,-0.0045154563335794,0.1471599999593086,-0.4857071448409058,-0.6437853874491056
1718276884795188006,0.1055969498406802,0.0028041420206404,0.0768674646135175,0.1957469585830969,-0.3685343879128665,-0.7306372606743406
1718276884796351986,0.1205612164453033,0.0808203789361319,0.0139186940095459,-0.0908119405532836,-0.5599809525952686,-0.7405281183630148
1718276884797594231,0.0153303567518122,0.104192986653356,-0.0456688233712945,-0.3191409556384862,-0.7134503614668927,-0.869083060467496
1718276884798736344,0.0350263640454069,0.074645958104454,0.0261700121608597,-0.1716968718169465,-0.7835024369649625,-0.8478310239074474
1718276884799962288,0.0465341193064802,0.0479667465136648,-0.0531680035536194,-0.2359835801803074,-0.836497216610788,-0.8467213761589681
1718276884799983272,0.1943062187095054,0.053084372972832,-0.0729257090978014,-0.323876992042699,-0.5881444490876587,-1.0096570947201855
1718276884801203132,0.1181644094400806,0.0905177065863285,-0.2087473173427204,-0.6744831531969089,-0.6101463209849617,-0.8688999605876544
1718276884802565537,0.1938069158232514,0.1439684435307122,-0.196396887949391,-0.7766782963089117,-0.5744950043847055,-0.952761478805981
1718276884803745467,0.26565344676891,0.1399314330140522,-0.2271599342202351,-0.7940385828001334,-0.595772096839443,-1.1212401459459915
1718276884804971042,0.1984334326362472,0.1274644289544746,-0.2459720529467443,-0.8236019832275733,-0.5355802899335307,-0.8283749317744138
1718276884804982637,0.1766826263208763,0.1904009393508277,-0.244183007971579,-0.9880674939366326,-0.4481003287809729,-0.7893129035277767
1718276884806208747,0.0396844559808166,0.1585033997482385,-0.2811177827778002,-1.0027223828398726,-0.5312400071954522,-0.4041452430665751
1718276884807427140,0.0592328615288957,0.1431583747448989,-0.1821789377000966,-0.7635104066815981,-0.534810414255652,-0.3160653833285427
1718276884808698793,0.0734549644057128,0.1600662940713183,-0.1068970352245535,-0.6431628557009305,-0.4494457991861509,-0.3611590359472719
1718276884809890557,0.0236144057066291,0.1547868284358665,-0.0829761363872864,-0.6058996468804017,-0.4863272173435256,-0.0656652304633689
1718276884809929432,0.0332755548914223,0.1972797727912783,-0.1505339617999539,-0.7793281896237121,-0.5362120111326519,-0.1357096986710498
1718276884811225881,-0.0001033519997985,0.1436083433163593,0.0346806639038083,-0.4106880815050929,-0.5094596888378288,0.0728310198414677
1718276884813205016,0.0521874184734852,0.2037658775962628,0.0458152747734606,-0.4975212404602449,-0.5014271859328873,0.0995494437728962
1718276884813265007,0.1010256324755577,0.2104265627815579,0.0378190241913937,-0.4656056380328513,-0.4039538242851885,0.1376886405528761
1718276884817294275,0.0632542013451148,0.2588780471452049,0.0342380598450341,-0.5496146604013571,-0.4156984885022858,0.2806826440542252
