%time,field.force.x,field.force.y,field.force.z,field.torque.x,field.torque.y,field.torque.z
1718270149362275521,0.2567568069999686,1.375879560999978,11.354643758999991,0.7565584369999999,0.4388815340000032,-0.042431693
1718270149363494619,0.2796868069999686,1.404283560999978,11.34389675899999,0.7483014369999998,0.4448065340000031,-0.0429806929999999
1718270149364704752,0.3023288069999682,1.422636560999978,11.340942758999992,0.7414624369999997,0.4498535340000031,-0.0436586929999999
1718270149365928215,0.3121088069999691,1.438535590999978,11.346627758999992,0.7348324369999998,0.4534175340000032,-0.043678693
1718270149367173949,0.3129988069999683,1.4493565909999784,11.361727758999994,0.7294714369999997,0.4543085340000031,-0.0427756929999999
1718270149367220645,0.3178708069999683,1.4675545909999783,11.354901758999992,0.7246234369999996,0.4521065340000031,-0.041494693
1718270149368362213,0.3267528069999691,1.4733765909999783,11.348592758999994,0.7207184369999997,0.4487295340000031,-0.0400826929999999
1718270149369601129,0.3312408069999689,1.4668225909999784,11.35026575899999,0.7175494369999998,0.4449105340000031,-0.0385356929999999
1718270149370810355,0.3438798069999685,1.4697965909999782,11.368417758999993,0.7155794369999998,0.4403375340000031,-0.0364526929999999
1718270149372091243,0.3523188069999684,1.4655855909999782,11.379429758999994,0.7130874369999997,0.4348185340000031,-0.033979693
1718270149372103951,0.3649578069999687,1.468760590999978,11.406849158999991,0.7102364369999997,0.4289835340000031,-0.030712693
1718270149373245603,0.3860228069999687,1.4817925909999785,11.433886158999991,0.7072714369999998,0.4218975340000031,-0.0277216929999999
1718270149374464723,0.4026058069999686,1.492096590999978,11.476246158999992,0.7056014369999997,0.4146085340000031,-0.0248546929999999
1718270149375670915,0.4189648069999684,1.482590590999978,11.50464015899999,0.7052254369999998,0.4072135340000031,-0.0214496929999999
1718270149376885994,0.4518708069999688,1.477511590999978,11.526658158999991,0.7070684369999998,0.4000985340000031,-0.0177636929999999
1718270149378129297,0.4764198069999684,1.457822590999978,11.548482158999994,0.7085304369999998,0.3934875340000031,-0.0140766929999999
1718270149378138640,0.4968518069999686,1.445523590999978,11.585297158999992,0.7094324369999997,0.3878025340000031,-0.0103846929999999
1718270149379392187,0.5043548069999688,1.435343590999978,11.614469158999992,0.7119184369999997,0.3823915340000031,-0.0069446929999999
1718270149380605265,0.5073438069999691,1.4076275909999778,11.636370158999991,0.7163974369999998,0.3775515340000031,-0.0036216929999999
1718270149381842765,0.5142168069999689,1.3770955909999782,11.635309158999991,0.7230284369999999,0.3718985340000031,-0.0008246929999999
1718270149383117124,0.5083598069999684,1.363681590999978,11.634391158999993,0.7296664369999999,0.3660015340000031,0.002106307
1718270149383143362,0.4945198069999688,1.350706590999978,11.661139158999992,0.7339194369999997,0.3608495340000031,0.003832307
1718270149385275632,0.4684648069999687,1.3553215909999778,11.672123208999992,0.7357664369999999,0.3568515340000031,0.005683307
1718270149385286952,0.4423488069999688,1.3695455909999783,11.704987158999993,0.7381764369999999,0.3535965340000031,0.006882307
1718270149386448238,0.4204428069999687,1.3665385909999783,11.730825158999991,0.7410274369999997,0.3511915340000031,0.008352307
1718270149387663212,0.3945378069999685,1.3610729909999784,11.738641158999991,0.7438624369999999,0.3506155340000031,0.008104307
1718270149388866464,0.3606198069999689,1.3560069909999783,11.752691158999992,0.7445224369999999,0.3511615340000031,0.007452307
1718270149390330826,0.322807806999969,1.358543990999978,11.795309158999991,0.7435344419999999,0.3527675340000031,0.006001307
1718270149391267052,0.2977588069999682,1.378350990999978,11.815336758999992,0.7420684419999998,0.3538195340000031,0.004673307
1718270149391276461,0.276974806999969,1.395585990999978,11.82583775899999,0.7412274419999997,0.3557065340000031,0.002023307
1718270149392653484,0.2817478069999689,1.4029569909999784,11.821118758999994,0.7404434419999997,0.3601975340000031,-0.0007446929999999
1718270149396543331,0.2782808069999686,1.430053990999978,11.823417758999993,0.7385964369999997,0.3657815340000031,-0.0036426929999999
1718270149396551687,0.2667398069999683,1.4529099909999783,11.862910758999991,0.7336424369999998,0.3697205340000031,-0.0064366929999999
1718270149397791762,0.2554198069999682,1.4712499909999783,11.863026758999991,0.7275324369999998,0.3720335340000031,-0.0099206929999999
1718270149397804325,0.2353858069999688,1.474590990999978,11.893199758999993,0.7228014369999998,0.3743385340000031,-0.0137906929999999
1718270149397819270,0.2193278069999685,1.460378990999978,11.90734675899999,0.7202694369999998,0.3772385340000032,-0.018576693
1718270149398954144,0.1818838069999689,1.4288249909999782,11.922089758999991,0.7188804369999998,0.3796575340000031,-0.0230906929999999
1718270149400257672,0.1401508069999686,1.409650990999978,11.92198175899999,0.7172044369999999,0.3800945340000031,-0.0273546929999999
1718270149400302971,0.0901848069999686,1.4007229909999783,11.936621758999992,0.7134724369999997,0.3788645340000031,-0.0315086929999999
1718270149401454618,0.0615468069999688,1.3798109909999785,11.967067758999992,0.7084604369999997,0.3775205340000031,-0.035141693
1718270149402733090,0.0073228069999684,1.3734019909999782,11.990655758999992,0.7043234369999997,0.3758335340000031,-0.0383696929999999
1718270149403946665,-0.0344631930000313,1.359391990999978,12.00020875899999,0.7016054369999998,0.3738675340000031,-0.0411926929999999
1718270149405169594,-0.0809291930000317,1.332818990999978,12.004817758999993,0.7007124369999997,0.3705705340000031,-0.0426826929999999
1718270149405184802,-0.1235191930000314,1.3132399909999783,11.995471758999992,0.7016494369999997,0.3666985340000031,-0.0437666929999999
1718270149406408495,-0.1748781930000312,1.2983575909999785,11.979900758999992,0.7037514369999998,0.3615305340000031,-0.0441836929999999
1718270149407636400,-0.2179331930000312,1.278626590999978,11.965296758999994,0.7059964369999998,0.3543695340000031,-0.0440846929999999
1718270149408834979,-0.2697541930000315,1.263571590999978,11.952060758999991,0.7094074369999999,0.3461645340000032,-0.043317693
1718270149410139241,-0.3217391930000309,1.2483355909999785,11.925182758999991,0.7136884369999998,0.3382055340000032,-0.0417456929999999
1718270149410149780,-0.3823191930000312,1.223179590999978,11.920962758999991,0.7185284369999999,0.3299825340000031,-0.0403026929999999
1718270149411374907,-0.4602301930000313,1.2075705909999783,11.91792975899999,0.7248254369999998,0.3196745340000031,-0.038329693
1718270149412587919,-0.5300541930000309,1.1672265909999782,11.908911758999992,0.7327834369999998,0.3078995340000031,-0.035692693
1718270149413815602,-0.5960921930000311,1.143672590999978,11.893155758999992,0.7426904369999997,0.2942735340000031,-0.032922693
1718270149415027272,-0.6536881930000318,1.115241990999978,11.878291758999993,0.7525224369999999,0.2805505340000031,-0.029622693
1718270149416283591,-0.7069241930000312,1.0943129909999778,11.863232758999994,0.7615594369999998,0.2667695340000031,-0.0263266929999999
1718270149416298097,-0.751936193000031,1.0829069909999782,11.865222758999993,0.7715724419999999,0.2533675340000031,-0.0220906929999999
1718270149417479583,-0.7886141930000312,1.0615539909999785,11.860960758999992,0.7823264419999998,0.2403755340000031,-0.0171826929999999
1718270149418704166,-0.8169331930000316,1.035212990999978,11.856503758999994,0.7936654369999998,0.2269065340000031,-0.0125416929999999
1718270149419931480,-0.8494501930000313,1.0213079909999785,11.83770675899999,0.8042784369999998,0.2122115340000031,-0.0072476929999999
1718270149421187854,-0.8691071930000309,1.000288990999978,11.83446475899999,0.8136864369999998,0.1975015340000031,-0.0015646929999999
1718270149421198814,-0.8798441930000311,0.9991999909999782,11.824126758999991,0.8208994269999997,0.1850665340000031,0.004784307
1718270149422352867,-0.8777031930000316,0.995682990999978,11.814149758999992,0.8276224269999998,0.1747525340000031,0.011410307
1718270149423877307,-0.8713641930000318,0.999527990999978,11.828172758999992,0.8339884269999999,0.1643735340000031,0.018834307
1718270149425140051,-0.8733581930000316,0.998698990999978,11.802952758999991,0.8398674269999999,0.1528495340000031,0.025577307
1718270149425152482,-0.8794951930000314,1.005275990999978,11.785775758999993,0.8451854269999999,0.1420005340000031,0.032722307
1718270149426361271,-0.8725781930000316,0.999888990999978,11.76780175899999,0.8490214369999999,0.1325315340000031,0.039599307
1718270149427595754,-0.882307193000031,1.0191839909999785,11.771009758999991,0.8514324369999999,0.1240035340000031,0.045812307
1718270149428807536,-0.8876161930000314,1.016701990999978,11.749949758999993,0.8531354369999998,0.1147005340000031,0.051213307
1718270149430054535,-0.9056111930000316,1.006842990999978,11.70547475899999,0.8552074369999999,0.1055645340000031,0.056216307
1718270149431218041,-0.9152681930000316,1.001692990999978,11.669296758999993,0.857981437,0.0969435340000031,0.061495307
1718270149431227570,-0.9286411930000312,0.979694990999978,11.631037758999994,0.8590284369999999,0.0910585340000031,0.065848307
1718270149432443038,-0.9160041930000314,0.9776749909999782,11.60465375899999,0.857647437,0.0876245340000031,0.068472307
1718270149433657971,-0.9027111930000312,0.9761219909999782,11.559783758999991,0.8538604369999998,0.0863525340000031,0.069496307
1718270149435381695,-0.8847941930000316,0.986939990999978,11.54340475899999,0.848688437,0.0879205340000031,0.069601307
1718270149435392373,-0.8453671930000312,0.980796990999978,11.510196758999992,0.8426194369999997,0.0914045340000031,0.068778307
1718270149436460594,-0.8099551930000316,0.9870119909999782,11.475254758999991,0.8358324369999999,0.0956855340000031,0.067025307
1718270149437703033,-0.774264193000031,0.9983169909999782,11.44545675899999,0.8280164369999998,0.1005995340000031,0.063940307
1718270149438906103,-0.7468631930000312,1.0195299909999782,11.406143758999992,0.8196774369999997,0.1057355340000031,0.059790307
1718270149440121810,-0.7149091930000318,1.048283990999978,11.379755758999991,0.8101124369999999,0.1120795340000031,0.054442307
1718270149440139209,-0.6912771930000312,1.0771409909999785,11.337347758999991,0.8001234419999999,0.1187845340000031,0.048695307
1718270149441292888,-0.6803221930000315,1.1084809909999782,11.308917158999993,0.7899714369999998,0.1250125340000031,0.042280307
1718270149442518553,-0.6820051930000317,1.137491990999978,11.280045158999991,0.7793744369999998,0.1306445340000031,0.035727307
1718270149443746465,-0.6836301930000315,1.166534990999978,11.251107158999991,0.7685574369999999,0.1366565340000031,0.029173307
1718270149446160786,-0.6851631930000317,1.1957169909999783,11.245329158999994,0.7568664369999998,0.1426685340000031,0.023016307
1718270149446173639,-0.6865601930000311,1.224998990999978,11.246947158999994,0.7445184369999999,0.1493155340000031,0.016859307
1718270149446191229,-0.683836193000031,1.261489990999978,11.242449208999991,0.7326844369999997,0.1564015340000031,0.011507307
1718270149447415182,-0.6770571930000312,1.2904415909999782,11.231320158999992,0.7218494369999999,0.1635655340000031,0.006560307
1718270149449203244,-0.6577971930000311,1.316745590999978,11.229835158999991,0.7118344369999998,0.1708235340000031,0.002683307
1718270149449215969,-0.6405991930000311,1.3463185909999782,11.214443158999991,0.7106214369999998,0.1719705340000031,0.002682307
1718270149450467214,-0.6429801930000317,1.3501885909999782,11.23621015899999,0.7027924369999997,0.1776135340000031,-0.0011886929999999
1718270149451719913,-0.5810481930000316,1.4159975909999782,11.22774515899999,0.6907624269999998,0.1859475340000031,-0.0045416929999999
1718270149452916068,-0.6007271930000316,1.405002590999978,11.230801158999991,0.6840854269999997,0.1902935340000031,-0.0060196929999999
1718270149454120172,-0.5614841930000315,1.442618590999978,11.230739158999992,0.6785404269999998,0.1954765340000031,-0.0052246929999999
1718270149454153083,-0.5225731930000312,1.4848505909999783,11.202499758999991,0.6745794269999997,0.2000145340000031,-0.0033606929999999
1718270149455351049,-0.4839481930000313,1.522058990999978,11.190551758999993,0.6714354269999997,0.2027865340000031,-0.0009696929999999
1718270149456595839,-0.4453901930000314,1.554431990999978,11.17184875899999,0.6682294269999999,0.2045545340000031,0.001945307
1718270149457787866,-0.4196901930000314,1.564383990999978,11.156120758999991,0.6672064269999999,0.2063815340000031,0.001682307
1718270149459243021,-0.3769941930000311,1.6384159909999785,11.159228758999992,0.6629404269999998,0.2089185340000031,0.008857307
1718270149459255682,-0.3556361930000311,1.670476990999978,11.165439758999993,0.6608564269999998,0.2112635340000031,0.012985307
1718270149460374479,-0.3303951930000313,1.714419990999978,11.148051758999994,0.6608854269999999,0.2124005340000031,0.016187307
1718270149461583191,-0.3303951930000313,1.714419990999978,11.148051758999994,0.6608854269999999,0.2124005340000031,0.016187307
1718270149462800051,-0.3052141930000314,1.7633949909999782,11.138588758999994,0.6605344269999999,0.2115125340000031,0.019638307
1718270149464033733,-0.2759821930000312,1.8049559909999784,11.143865758999992,0.6607494269999997,0.2091915340000031,0.022684307
1718270149465322716,-0.2475451930000316,1.875118990999978,11.122529758999992,0.6648104269999999,0.2058035340000031,0.027347307
1718270149465335208,-0.2430651930000316,1.892503990999978,11.121754758999993,0.6634754269999998,0.2061135340000031,0.027074307
1718270149466566121,-0.2351571930000313,1.9017829909999784,11.117128758999993,0.6659814269999998,0.2053525340000031,0.028417307
1718270149467758250,-0.2317631930000314,1.9231809909999784,11.118900758999992,0.6695234269999999,0.2018485340000031,0.028817307
1718270149468972749,-0.228364193000031,1.9299729909999777,11.134507758999993,0.6728954269999998,0.1973565340000031,0.028412307
1718270149485058724,-0.2202541930000312,1.944401990999978,11.140127758999991,0.6745984269999998,0.1948325340000031,0.026810307
1718270149485071129,-0.2075181930000318,1.9663539909999777,11.182598758999992,0.6746384269999998,0.1950285340000031,0.024820307
1718270149486949192,-0.1903261930000317,1.990973990999978,11.209811158999992,0.6736014269999997,0.1958065340000031,0.022958307
1718270149486970159,-0.1603351930000311,2.018181990999978,11.230190158999994,0.6719124269999999,0.1965535340000031,0.021622307
1718270149486978159,-0.1301961930000312,2.0454819909999777,11.28067715899999,0.6693504269999997,0.1983115340000031,0.020289307
1718270149487007349,-0.0998651930000313,2.067927990999978,11.323620158999992,0.6662894269999998,0.2020965340000031,0.019100307
1718270149487018355,-0.0780481930000311,2.070672990999978,11.375053203999991,0.6636644269999998,0.2066395340000031,0.018451307
1718270149487029387,-0.0565841930000312,2.073220990999978,11.40603315899999,0.6623454269999998,0.2096595340000031,0.018996307
1718270149487045823,-0.0350771930000315,2.0660869909999784,11.438552158999991,0.6604654269999999,0.2126925340000031,0.020601307
1718270149487068969,-0.0216851930000314,2.044579990999978,11.471123158999994,0.6568874269999998,0.2169905340000031,0.022602307
1718270149487084458,-0.0038751930000315,2.030433990999978,11.51114375899999,0.6527354269999999,0.2233745340000031,0.024614307
1718270149487109001,0.0012788069999685,2.013944990999978,11.535603758999992,0.6483544269999997,0.2290365340000031,0.026486307
1718270149487137251,0.0192358069999682,2.004883990999978,11.567582758999992,0.6433834269999997,0.2351655340000031,0.028358307
1718270149487151098,0.0419258069999683,2.013316990999978,11.59156375899999,0.6361994269999999,0.2436255340000031,0.030364307
1718270149487168148,0.0778068069999688,2.029513990999978,11.644607758999992,0.6264574269999998,0.2536985340000031,0.031966307
1718270149487193319,0.0885148069999681,2.050836990999978,11.702627758999991,0.6157294269999998,0.2632015340000031,0.032231307
1718270149487204485,0.0860158069999688,2.0644499909999783,11.737256758999992,0.6075654269999998,0.2698335340000031,0.031692307
1718270149487237039,0.0659008069999682,2.043082990999978,11.764251758999992,0.6034034269999997,0.2749355340000031,0.030504307
1718270149489332284,0.0409778069999691,1.998966990999978,11.767643758999991,0.6031484269999998,0.2797295340000031,0.028141307
1718270149490737635,-0.0010381930000316,1.9449445909999776,11.769063758999993,0.6039074269999999,0.2828505340000031,0.024442307
1718270149490802624,-0.0557431930000313,1.898531590999978,11.783444758999993,0.6039074269999999,0.2828425340000031,0.019521307
1718270149490843374,-0.1101701930000309,1.857230590999978,11.795378758999991,0.6028774269999998,0.2832135340000031,0.013266307
1718270149492031822,-0.1390351930000317,1.820911590999978,11.844354758999993,0.6009944269999997,0.2845335340000031,0.006481307
1718270149493296631,-0.1721881930000317,1.781932560999978,11.88573575899999,0.5999654269999998,0.2871665340000031,-0.0004236929999999
1718270149493303994,-0.184445193000031,1.7549735909999782,11.934389758999991,0.6001454269999998,0.2886365340000031,-0.0078606929999999
1718270149494340831,-0.1882931930000309,1.718083590999978,11.974861758999992,0.6010724269999997,0.2905195340000031,-0.0158226929999999
1718270149498931986,-0.1963141930000311,1.688554590999978,12.030393758999992,0.6016584269999997,0.2929485340000031,-0.0237826929999999
1718270149500458644,-0.2044641930000312,1.654099990999978,12.079301758999993,0.6026194269999997,0.2943735340000031,-0.0312146929999999
1718270149500494974,-0.2258351930000315,1.626899990999978,12.129793758999991,0.6047844369999998,0.2910155340000031,-0.037872693
1718270149500508750,-0.2774541930000309,1.582219990999978,12.159732758999992,0.6094144369999999,0.2842465340000031,-0.0434716929999999
1718270149500523014,-0.338328193000031,1.527144990999978,12.201149758999993,0.6172194369999998,0.2751775340000031,-0.0472016929999999
1718270149500532588,-0.4039401930000317,1.4641119909999782,12.199202758999991,0.6282214369999999,0.2665355340000031,-0.0501126929999999
1718270149501448693,-0.4654961930000312,1.4034859909999782,12.192558758999994,0.6394534369999998,0.2572015340000031,-0.0512976929999999
1718270149502262845,-0.5313141930000314,1.350408990999978,12.194547758999992,0.6499034369999998,0.2458925340000031,-0.0517006929999999
1718270149503633843,-0.5929221930000312,1.319663990999978,12.200658758999992,0.6588444369999997,0.2329855340000031,-0.0493306929999999
1718270149504810245,-0.6422971930000316,1.281083990999978,12.195562758999994,0.6700744419999998,0.2205505340000031,-0.044948693
1718270149505707213,-0.679268193000031,1.2396759909999784,12.186397758999991,0.6827764369999997,0.2095915340000031,-0.038683693
1718270149506994399,-0.682427193000031,1.202857990999978,12.163045758999992,0.6965724369999997,0.2011065340000031,-0.032132693
1718270149508298648,-0.6980861930000317,1.1736169909999783,12.13415675899999,0.7089344369999999,0.1936545340000031,-0.0239846929999999
1718270149508314631,-0.7012581930000314,1.146859990999978,12.13846975899999,0.7210834369999998,0.1843975340000031,-0.0141216929999999
1718270149509497195,-0.7087671930000312,1.122595990999978,12.12908475899999,0.7332604369999998,0.1739265340000031,-0.0033346929999999
1718270149510784883,-0.7079011930000316,1.098073990999978,12.089127758999991,0.7467374269999998,0.1646085340000031,0.007066307
1718270149511991959,-0.7072351930000313,1.0584309909999785,12.058487758999991,0.7617854269999998,0.1578255340000031,0.018294307
1718270149513245842,-0.7066521930000311,1.0184849909999785,12.028162758999992,0.7779294269999998,0.1529295340000031,0.029543307
1718270149513262463,-0.710290193000031,0.9910449909999782,11.991030758999994,0.7931274269999999,0.1459285340000031,0.041436307
1718270149514476528,-0.7222991930000315,0.968649990999978,11.950954758999991,0.8079694269999999,0.1375155340000031,0.051588307
1718270149515696339,-0.7338411930000314,0.941796990999978,11.907910758999993,0.820787427,0.1295005340000031,0.060265307
1718270149516886435,-0.7362981930000315,0.949529990999978,11.869098758999993,0.8313804269999999,0.1246305340000031,0.067221307
1718270149518091610,-0.746558193000031,0.9529579909999784,11.84275775899999,0.8388704269999999,0.1211485340000031,0.073102307
1718270149518117049,-0.7520201930000311,0.993574990999978,11.804963758999993,0.843952427,0.1184655340000031,0.076979307
1718270149519356063,-0.7572021930000313,1.024572990999978,11.801395758999991,0.8480554269999999,0.1163075340000031,0.078724307
1718270149520559039,-0.7535831930000312,1.041004990999978,11.764156758999992,0.8517544269999998,0.1157155340000031,0.078477307
1718270149521788309,-0.7370031930000317,1.055069990999978,11.724071758999992,0.8549724269999998,0.1164905340000031,0.076505307
1718270149523068095,-0.7115401930000311,1.074373990999978,11.690210758999992,0.8562664269999999,0.1185525340000031,0.073997307
1718270149523096942,-0.6941411930000313,1.084225990999978,11.67699975899999,0.8557114269999999,0.1214995340000031,0.070552307
1718270149524268094,-0.6891971930000311,1.0870139909999783,11.677817758999993,0.8537804269999999,0.1243635340000031,0.066700307
1718270149525497205,-0.6844851930000315,1.0748449909999782,11.647498758999992,0.8536454269999999,0.1266135340000031,0.062054307
1718270149526742129,-0.6795491930000312,1.043371990999978,11.608803758999994,0.8523984269999999,0.1286425340000031,0.057130307
1718270149527939267,-0.6743721930000317,1.016983990999978,11.561996758999994,0.850114427,0.1315535340000031,0.052072307
1718270149527980693,-0.6685701930000314,1.005954990999978,11.545095758999992,0.8440654269999998,0.1354675340000031,0.047397307
1718270149529254651,-0.6581501930000311,1.0025819909999782,11.519495758999993,0.8363454269999998,0.1405915340000031,0.042320307
1718270149530445454,-0.6391941930000311,1.009106990999978,11.487070758999996,0.8280674269999998,0.1457255340000031,0.037770307
1718270149531665388,-0.6245821930000317,0.993434990999978,11.454833758999992,0.8206274269999999,0.1513155340000031,0.033228307
1718270149532890606,-0.6225351930000311,0.9804999909999782,11.41604175899999,0.8119184269999998,0.1560515340000031,0.029605307
1718270149534134521,-0.6288371930000312,0.982532990999978,11.392641758999993,0.8018674269999998,0.1594895340000031,0.026364307
1718270149534164478,-0.6434401930000313,0.9947359909999782,11.355026758999992,0.7901884269999998,0.1617605340000031,0.024036307
1718270149536352596,-0.6539971930000312,1.004249990999978,11.332728758999991,0.779572427,0.1641045340000031,0.021584307
1718270149538267566,-0.6606291930000312,0.996267990999978,11.297487758999994,0.7707074269999998,0.1670405340000031,0.020209307
1718270149538282046,-0.6675841930000315,1.002681990999978,11.240000758999994,0.7635474269999998,0.1688145340000031,0.018837307
1718270149539588171,-0.670307193000031,1.021551990999978,11.214302758999992,0.7552144269999999,0.1692605340000031,0.018517307
1718270149539595854,-0.6642461930000314,1.0505779909999782,11.188336758999991,0.7450114269999998,0.1699745340000031,0.018317307
1718270149540770721,-0.6536831930000315,1.101746990999978,11.19241075899999,0.7335354369999998,0.1727575340000031,0.018127307
1718270149541996668,-0.6176641930000311,1.1528179909999785,11.210619758999991,0.7222414369999998,0.1768695340000031,0.017149307
1718270149543240353,-0.5732501930000313,1.1987979909999782,11.221737758999993,0.7117484369999999,0.1821425340000031,0.016314307
1718270149543257415,-0.5252131930000317,1.251510990999978,11.26536375899999,0.7039664369999998,0.1868355340000031,0.016296307
1718270149544441535,-0.4902601930000314,1.286742990999978,11.27895675899999,0.6984064419999999,0.1903085340000031,0.016150307
1718270149545665721,-0.4685641930000312,1.299365990999978,11.307883758999992,0.6958954369999997,0.1925675340000031,0.015618307
1718270149546878376,-0.4560831930000315,1.2868679909999785,11.314891758999993,0.6972654369999998,0.1922975340000031,0.014958307
1718270149548178559,-0.3593431930000315,1.273666990999978,11.309479158999991,0.7015524369999998,0.1950115340000031,0.015129307
1718270149548191483,-0.3603051930000314,1.248350990999978,11.30371015899999,0.7062964369999999,0.1921215340000031,0.015405307
1718270149549382109,-0.3571801930000315,1.239954990999978,11.307271158999992,0.7116734369999999,0.1901605340000031,0.016626307
1718270149551190313,-0.3068521930000314,1.253871990999978,11.31804415899999,0.7146064369999999,0.1931605340000031,0.017862307
1718270149551211375,-0.2522341930000316,1.2850419909999782,11.315622158999991,0.7168534369999998,0.1963385340000031,0.020424307
1718270149552376854,-0.2018041930000313,1.3286859909999782,11.336698158999992,0.7179394369999997,0.1980395340000031,0.023638307
1718270149553704294,-0.1555051930000315,1.3849209909999782,11.329337158999994,0.7176344369999997,0.1983925340000031,0.028295307
1718270149554880327,-0.121875193000031,1.4435639909999782,11.32906415899999,0.7173824369999999,0.1991515340000031,0.032691307
1718270149556127823,-0.1009451930000311,1.5048219909999785,11.322432158999993,0.7165194369999998,0.1986745340000031,0.038007307
1718270149556152159,-0.0802881930000316,1.556142990999978,11.293801158999992,0.7168484369999997,0.1966915340000031,0.043583307
1718270149557341379,-0.0937101930000317,1.627013990999978,11.26675515899999,0.7174644269999999,0.1928235340000031,0.050218307
1718270149558553164,-0.0943171930000317,1.690849990999978,11.231274158999993,0.7170974269999998,0.1870475340000031,0.056430307
1718270149559787142,-0.1074141930000316,1.762292590999978,11.217422158999993,0.7153104269999998,0.1810455340000031,0.062237307
1718270149560980886,-0.107451193000031,1.836471590999978,11.202137158999992,0.7120004269999998,0.1760295340000031,0.067373307
1718270149562220384,-0.1031391930000311,1.8935205909999784,11.187221158999993,0.7084764269999998,0.1724975340000031,0.072782307
1718270149562241981,-0.0947081930000313,1.9332895909999783,11.194434758999993,0.7056234269999999,0.1689345340000031,0.077663307
1718270149563454850,-0.0947941930000315,1.9436215909999783,11.208021758999992,0.7033134269999998,0.1650085340000031,0.081746307
1718270149564659401,-0.0989901930000312,1.9416395909999784,11.226238758999994,0.7013124269999998,0.1621625340000031,0.083976307
1718270149565864199,-0.1031031930000314,1.920044590999978,11.242773758999991,0.6995184269999999,0.1601025340000031,0.085147307
1718270149567165134,-0.1071231930000313,1.888527590999978,11.28002275899999,0.6980564269999998,0.1595715340000031,0.085001307
1718270149567177758,-0.1110831930000315,1.837492590999978,11.300984758999991,0.6965794269999998,0.1589415340000031,0.084186307
1718270149568380448,-0.1193641930000313,1.778801590999978,11.35006975899999,0.6963474269999999,0.1593805340000031,0.081792307
1718270149569620594,-0.119111193000031,1.7200835909999783,11.396706758999992,0.6963274269999997,0.1600975340000031,0.077804307
1718270149570830058,-0.135586193000031,1.666331590999978,11.433379758999994,0.6959614269999999,0.1615265340000031,0.072490307
1718270149574294481,-0.1561771930000315,1.6201285909999783,11.470375758999992,0.6945944269999997,0.1626225340000031,0.067567307
1718270149574317293,-0.185112193000031,1.6033575909999782,11.513500758999992,0.6927204269999998,0.1640395340000031,0.061847307
1718270149575579062,-0.2135851930000312,1.5967855909999782,11.55430375899999,0.6887784269999999,0.1662115340000031,0.055054307
1718270149575592597,-0.2500751930000313,1.600299590999978,11.607969758999994,0.6830024269999998,0.1701255340000031,0.047200307
1718270149575604122,-0.3032361930000313,1.609071590999978,11.660811758999994,0.6755624269999999,0.1734915340000031,0.039199307
1718270149576678324,-0.3647171930000312,1.622983990999978,11.72189375899999,0.6668784269999998,0.1764535340000031,0.031854307
1718270149577899230,-0.4177801930000315,1.646732990999978,11.776283758999991,0.6580754269999998,0.1786665340000031,0.025034307
1718270149579188189,-0.4792451930000314,1.6703769909999782,11.823077758999991,0.6495034269999999,0.1826245340000031,0.018228307
1718270149579195636,-0.5325401930000313,1.688792990999978,11.856098758999993,0.6426064269999998,0.1867275340000031,0.011965307
1718270149580323513,-0.5692571930000312,1.6970489909999782,11.89779775899999,0.6375354269999998,0.1905015340000031,0.005976307
1718270149581573099,-0.6019871930000316,1.692826990999978,11.902240758999993,0.6340574269999997,0.1937305340000031,0.000124307
1718270149582781052,-0.6309221930000315,1.680986990999978,11.91035575899999,0.6320094269999997,0.1957685340000031,-0.0037326929999999
1718270149584019502,-0.6601851930000315,1.6493379909999784,11.93488175899999,0.6312594269999997,0.1964385340000031,-0.0070566929999999
1718270149585225767,-0.6984631930000316,1.6074879909999782,11.947197758999993,0.6328084269999998,0.1955695340000031,-0.0089136929999999
1718270149585254513,-0.7331001930000316,1.533216990999978,11.945745758999992,0.6376904269999997,0.1937945340000031,-0.0104906929999999
1718270149586726759,-0.7637541930000313,1.4661099909999782,11.931363758999993,0.6435214269999997,0.1914465340000031,-0.0108696929999999
1718270149587946299,-0.7860581930000312,1.398923990999978,11.93357675899999,0.6495554369999997,0.1891165340000031,-0.0104486929999999
1718270149589398654,-0.8170271930000315,1.326867990999978,11.953688758999991,0.6555404369999999,0.1851255340000031,-0.0083076929999999
1718270149589414698,-0.8354741930000316,1.2768469909999782,11.975863758999992,0.6615434369999998,0.1798115340000031,-0.0049766929999999
1718270149590549998,-0.8581591930000314,1.224515990999978,12.021657758999991,0.6668674369999998,0.1734165340000031,-0.0009916929999999
1718270149591780401,-0.8852571930000315,1.179369990999978,12.068298758999992,0.6729414369999998,0.1666805340000031,0.003397307
1718270149592973727,-0.9167941930000312,1.1464399909999785,12.101569758999991,0.6793814369999999,0.1583365340000031,0.008842307
1718270149594211559,-0.9614061930000316,1.120558990999978,12.158607758999992,0.6872474369999998,0.1486165340000031,0.014689307
1718270149594243027,-1.0063871930000312,1.094591990999978,12.187543758999992,0.6961994369999999,0.1359875340000031,0.021720307
1718270149595438357,-1.0688561930000315,1.0632169909999782,12.216764758999991,0.7079694369999999,0.1216695340000031,0.028493307
1718270149596655886,-1.1529311930000312,1.0193199909999784,12.207476758999992,0.7220384269999999,0.1044665340000031,0.034594307
1718270149601404281,-1.2330941930000312,0.977649990999978,12.19884275899999,0.7374434269999998,0.0856875340000031,0.040827307
1718270149602931107,-1.3174271930000314,0.933548990999978,12.18357575899999,0.7526024269999998,0.0678465340000031,0.047729307
1718270149602949166,-1.3929711930000317,0.914165990999978,12.183290758999991,0.7660684269999997,0.0515155340000031,0.054766307
1718270149602958845,-1.4384921930000316,0.907387990999978,12.16727475899999,0.7776594269999999,0.0362015340000031,0.061660307
1718270149602974343,-1.4625291930000313,0.9179419909999782,12.134831758999992,0.7881054269999999,0.0223805340000031,0.067889307
1718270149602984014,-1.4650811930000314,0.936016990999978,12.102167758999991,0.7972884269999998,0.0105655340000031,0.074123307
1718270149604053126,-1.4376721930000314,0.971353990999978,12.068956758999992,0.8053124269999998,0.0013995340000031,0.080100307
1718270149605497419,-1.4014521930000314,1.0167239909999783,12.027364758999994,0.8119064269999998,-0.0062374659999968,0.085810307
1718270149605509441,-1.3564251930000313,1.077137990999978,11.984671758999994,0.8166924269999998,-0.0136104659999968,0.091111307
1718270149606772571,-1.3067041930000314,1.135486990999978,11.94935575899999,0.8192504269999998,-0.0192564659999969,0.096674307
1718270149608103933,-1.261047193000031,1.186493990999978,11.913259758999992,0.8215104369999998,-0.0229444659999968,0.101849307
1718270149609275086,-1.2195441930000317,1.2301939909999782,11.861910758999992,0.8236864369999998,-0.0263194659999969,0.107026307
1718270149610516470,-1.1906401930000312,1.247131990999978,11.816806758999991,0.8253464369999998,-0.0303824659999968,0.111527307
1718270149610528454,-1.1702481930000317,1.259150990999978,11.771901758999991,0.8271814369999998,-0.0347134659999968,0.1161613069999999
1718270149611272050,-1.1581511930000312,1.2614899909999782,11.732851758999994,0.8284804369999997,-0.0386714659999968,0.119863307
1718270149612480966,-1.1627171930000315,1.259180990999978,11.684671758999992,0.8286564369999998,-0.0422814659999968,0.122896307
1718270149613762263,-1.1838341930000311,1.247440990999978,11.657084758999993,0.8269984369999999,-0.0456624659999968,0.124989307
1718270149615060660,-1.2046141930000314,1.2359639909999784,11.627174758999992,0.8240314369999998,-0.0482774659999969,0.125880307
1718270149615079715,-1.2293911930000314,1.222161990999978,11.611285758999992,0.8201704369999999,-0.0495694659999968,0.126242307
1718270149616286552,-1.2495501930000317,1.201408990999978,11.586631758999992,0.8144624369999999,-0.0503914659999968,0.126196307
1718270149617564401,-1.2823111930000315,1.1782369909999784,11.57549875899999,0.8085334369999998,-0.0509244659999968,0.125220307
1718270149618793887,-1.3151101930000313,1.164785990999978,11.55645475899999,0.8029414369999999,-0.0513444659999968,0.123981307
1718270149620034246,-1.3393041930000316,1.146513990999978,11.535664758999992,0.7970624369999999,-0.0514794659999968,0.121676307
1718270149620114965,-1.3548301930000313,1.128421990999978,11.520979758999992,0.7902974419999999,-0.0514604659999969,0.118568307
1718270149622154737,-1.3901971930000314,1.079720990999978,11.48202275899999,0.7781664369999999,-0.0504734659999968,0.110902307
1718270149622941306,-1.3856671930000315,1.097157990999978,11.473588758999991,0.7766124369999999,-0.0500354659999968,0.110628307
1718270149624225396,-1.388412193000031,1.076457990999978,11.44247875899999,0.7704544369999998,-0.0480234659999968,0.106604307
1718270149624241551,-1.3784861930000314,1.0581089909999783,11.426286758999993,0.7645284369999997,-0.0452874659999968,0.102321307
1718270149625525913,-1.3472251930000314,1.0569849909999782,11.38691475899999,0.758112437,-0.0416954659999968,0.097770307
1718270149626839727,-1.3114461930000314,1.068351990999978,11.353907158999991,0.7503054369999997,-0.0375334659999968,0.092684307
1718270149628044680,-1.2628271930000314,1.1116689909999782,11.33550415899999,0.7415464369999998,-0.0330604659999968,0.087329307
1718270149629459678,-1.1973511930000311,1.1548879909999783,11.294632158999992,0.7334134369999998,-0.0284174659999968,0.081976307
1718270149629465046,-1.1279181930000317,1.2050519909999782,11.255560158999993,0.7268894269999998,-0.0227104659999968,0.077441307
1718270149630609707,-1.0672861930000312,1.2500159909999784,11.209555158999994,0.7220734269999998,-0.0179092659999968,0.073045307
1718270149632768043,-1.006939193000031,1.3045495909999782,11.164140208999992,0.7184684269999998,-0.0142632659999969,0.068782307
1718270149634061683,-0.9425581930000316,1.351590590999978,11.127220158999991,0.7156454269999997,-0.0111692659999969,0.064920307
1718270149634077083,-0.8868381930000313,1.398543560999978,11.078401158999991,0.7132634269999997,-0.0084812659999969,0.063053307
1718270149635369992,-0.8526551930000312,1.442798590999978,11.046081158999993,0.7122004269999996,-0.0073052659999968,0.061855307
1718270149635384092,-0.8273061930000312,1.5063905909999782,11.024013158999994,0.7122584269999996,-0.0073232659999968,0.062122307
1718270149636595668,-0.8018871930000311,1.560347590999978,11.001558158999991,0.7117604269999998,-0.0080822659999969,0.062246307
1718270149638097560,-0.7762091930000314,1.6243695909999782,11.003479158999994,0.7094054269999998,-0.0077142659999969,0.063698307
1718270149639445811,-0.7547581930000316,1.6810175909999785,11.029973158999992,0.7067494269999999,-0.0061522659999968,0.066357307
1718270149639458857,-0.7420481930000316,1.7374349909999782,11.074427158999992,0.7049774269999998,-0.0047482659999968,0.070620307
1718270149640684049,-0.7340741930000314,1.7713609909999783,11.135363158999994,0.7055784269999998,-0.0042842659999968,0.075291307
1718270149641992949,-0.7307841930000314,1.7876489909999784,11.159565158999992,0.7090414269999997,-0.0042612659999968,0.080242307
1718270149643417626,-0.7362961930000314,1.784034990999978,11.177468158999991,0.7142534269999997,-0.0047482659999968,0.085732307
1718270149643428218,-0.7591851930000313,1.7801115909999785,11.21978415899999,0.7210264269999999,-0.0069302659999968,0.092023307
1718270149644610711,-0.7905331930000314,1.7567085909999782,11.224909208999993,0.7277904269999997,-0.0098652659999968,0.098837307
1718270149645812103,-0.8262391930000315,1.7356855909999782,11.260029158999991,0.7348174269999997,-0.0136362659999968,0.105384307
1718270149646998464,-0.8618161930000312,1.7245885909999783,11.279387158999992,0.7413014269999999,-0.0175432659999968,0.111660307
1718270149648236784,-0.8801691930000315,1.7039215909999783,11.305219158999993,0.7465484269999999,-0.0202502659999968,0.117401307
1718270149648258543,-0.8895661930000311,1.717836590999978,11.322095158999993,0.7497834269999999,-0.0206992659999968,0.1226133069999999
1718270149649504420,-0.8770901930000314,1.7395755909999782,11.35212315899999,0.7500074269999998,-0.0178692659999968,0.127029307
1718270149650829978,-0.8641121930000315,1.7763645909999783,11.379632758999993,0.748222427,-0.0135342659999968,0.130244307
1718270149651984014,-0.8551811930000313,1.815928590999978,11.41957375899999,0.7451694269999998,-0.0109072659999969,0.131977307
1718270149653623871,-0.8674641930000313,1.8531685909999784,11.466038758999993,0.7419064269999999,-0.0104122659999968,0.133163307
1718270149656212017,-0.8123901930000312,1.993893590999978,11.502549758999994,0.7218124269999998,0.0001157340000031,0.126188307
1718270149657456186,-0.8464301930000311,1.984068590999978,11.524974758999994,0.7221944269999998,-0.0017292659999968,0.126049307
1718270149657466840,-0.8533421930000316,2.0049595909999782,11.545356758999992,0.7154594269999996,0.0009137340000031,0.121102307
1718270149658704516,-0.8558561930000315,2.0284805909999784,11.565090758999991,0.7078724269999999,0.0035047340000031,0.115881307
1718270149659981417,-0.8497111930000314,2.027588560999978,11.590212758999993,0.6999844269999997,0.0070387340000031,0.109334307
1718270149661244614,-0.8347851930000314,2.031805590999978,11.614160758999992,0.6908284269999998,0.0119847340000031,0.102253307
1718270149661250101,-0.8110041930000313,2.0264815909999783,11.643814758999993,0.6802314269999998,0.0186127340000031,0.094242307
1718270149662396384,-0.7868551930000314,2.031236590999978,11.679509758999991,0.6680034269999997,0.0262467340000031,0.085563307
1718270149663622763,-0.7668001930000314,2.028850590999978,11.70671375899999,0.6550384269999998,0.0333157340000031,0.076475307
1718270149664830755,-0.7509381930000312,2.0290019909999777,11.740935758999992,0.6416744269999998,0.0399307340000031,0.067116307
1718270149665949593,-0.7350401930000312,2.024301990999978,11.767114758999991,0.6282514269999998,0.046301734000003,0.057488307
1718270149667349229,-0.7445921930000312,2.0048479909999783,11.824128758999992,0.6149184269999997,0.0528747340000031,0.048264307
1718270149667369669,-0.7586021930000313,1.977900990999978,11.852961758999992,0.6025884269999997,0.0588717340000031,0.040239307
1718270149668404385,-0.7856691930000315,1.933483990999978,11.875693758999994,0.5920424269999999,0.0644077340000031,0.032888307
1718270149669670517,-0.8301421930000312,1.878978990999978,11.899930758999991,0.5833774369999999,0.0675037340000031,0.026199307
1718270149670847734,-0.8749601930000312,1.824200990999978,11.910728758999994,0.5762404369999997,0.0697097340000031,0.020310307
1718270149672163969,-0.9409361930000312,1.7719349909999782,11.915811758999991,0.5687214369999998,0.0719177340000031,0.015753307
1718270149672174828,-1.0155791930000313,1.719570990999978,11.93744275899999,0.5616544369999998,0.0732155340000031,0.011991307
1718270149673335317,-1.0903271930000316,1.6819269909999783,11.945825758999993,0.5545364369999997,0.0736085340000031,0.009422307
1718270149674574230,-1.1440351930000314,1.656344990999978,11.963203758999994,0.5479664419999999,0.0747305340000031,0.007526307
1718270149675795965,-1.1894351930000313,1.620786990999978,11.982564758999994,0.5421344419999998,0.0765115340000031,0.006703307
1718270149677083270,-1.2224471930000314,1.606779990999978,12.00449275899999,0.5380734369999999,0.0799905340000031,0.007102307
1718270149677091424,-1.2303051930000315,1.5974879909999782,12.00524175899999,0.5351164369999999,0.0827665340000031,0.008166307
1718270149678247049,-1.2256881930000314,1.5903849909999783,12.030625758999994,0.5330434369999998,0.0861335340000031,0.010172307
1718270149679481806,-1.2215291930000316,1.572977990999978,12.043271758999994,0.5334744369999997,0.0897525340000031,0.013260307
1718270149680739379,-1.2180311930000312,1.555042990999978,12.049248758999994,0.5369724369999999,0.0908355340000031,0.016351307
1718270149682082622,-1.2196371930000316,1.519229990999978,12.065672758999993,0.5444304369999998,0.0895755340000031,0.020517307
1718270149682092829,-1.2218541930000315,1.4780259909999782,12.060429758999993,0.5548944369999999,0.0860385340000031,0.024820307
1718270149683261609,-1.2284971930000317,1.443923990999978,12.06368875899999,0.5663274369999998,0.0827905340000031,0.029531307
1718270149684494269,-1.2309981930000315,1.397544990999978,12.07485875899999,0.5780474269999999,0.0790005340000031,0.034373307
1718270149685675069,-1.233635193000031,1.385449990999978,12.10104375899999,0.5897424269999999,0.0733975340000031,0.039074307
1718270149687614924,-1.2321111930000317,1.3758819909999782,12.119257758999993,0.6014584269999999,0.0659745340000031,0.043495307
1718270149688804372,-1.2265441930000314,1.3685449909999785,12.146221758999992,0.6140734269999997,0.0587425340000031,0.048456307
1718270149688863993,-1.2337621930000315,1.383097990999978,12.149909758999993,0.6274104269999998,0.0516365340000031,0.053025307
1718270149690132259,-1.236693193000031,1.395304990999978,12.184222758999992,0.6400554269999997,0.0443565340000031,0.057855307
1718270149690140761,-1.2439131930000311,1.414919990999978,12.195769758999992,0.6527924269999997,0.035605534000003,0.062676307
1718270149691507038,-1.2597531930000314,1.429646990999978,12.215757758999992,0.6657044269999998,0.0253225340000031,0.068020307
1718270149692737780,-1.2887061930000312,1.431775990999978,12.22192775899999,0.6806764269999998,0.0139395340000031,0.073902307
1718270149693884615,-1.3137081930000314,1.4115619909999784,12.198302758999994,0.6975644269999998,0.002274534000003,0.079791307
1718270149695570341,-1.343156193000031,1.383753990999978,12.17500375899999,0.7156854269999998,-0.0093344659999968,0.085688307
1718270149695585362,-1.3809061930000313,1.3462059909999782,12.113412758999992,0.7336994269999998,-0.0198144659999968,0.091457307
1718270149696720661,-1.3929451930000314,1.3187959909999778,12.082618758999992,0.7495984269999998,-0.0296034659999968,0.097749307
1718270149697964939,-1.4001331930000311,1.314000990999978,12.035146758999993,0.7624674269999998,-0.0380704659999968,0.103629307
1718270149699316387,-1.3896171930000314,1.3147109909999783,12.000445758999993,0.7718664269999999,-0.0439584659999969,0.108572307
1718270149699328819,-1.365909193000031,1.337756990999978,11.94249175899999,0.7793134269999998,-0.0469954659999969,0.113521307
1718270149703689438,-1.3163301930000315,1.3610499909999785,11.90567075899999,0.7849724369999999,-0.0473054659999969,0.117676307
1718270149705156197,-1.2619241930000311,1.3969819909999783,11.858473758999992,0.788365437,-0.0452744659999968,0.120502307
1718270149705167187,-1.2027701930000312,1.4358029909999783,11.817114758999992,0.789374437,-0.0418974659999968,0.1226553069999999
1718270149705185373,-1.1600731930000312,1.475044990999978,11.773698758999991,0.7882234369999999,-0.0375444659999968,0.124004307
1718270149705199563,-1.1297981930000314,1.502309990999978,11.750233758999991,0.7858634369999999,-0.0333904659999968,0.123882307
1718270149705221682,-1.1122861930000314,1.527060990999978,11.71018375899999,0.7841544369999999,-0.0299584659999968,0.122826307
1718270149706327550,-1.1116361930000311,1.5274209909999783,11.676637758999991,0.7821844369999998,-0.0267904659999969,0.121235307
1718270149707398086,-1.1106511930000311,1.518163990999978,11.64127575899999,0.7792264369999997,-0.0220874659999968,0.118715307
1718270149708617334,-1.1178251930000314,1.5238109909999782,11.618722758999992,0.774930437,-0.0164094659999968,0.115000307
1718270149709865431,-1.1203831930000312,1.5175279909999784,11.594031758999993,0.7691734369999998,-0.0100014659999969,0.110211307
1718270149711132227,-1.1183831930000314,1.513945990999978,11.57608375899999,0.7619054419999999,-0.0022524659999968,0.105157307
1718270149711142685,-1.1246071930000312,1.510576990999978,11.548296758999994,0.7537804369999999,0.0053547340000031,0.098898307
1718270149712251914,-1.1223421930000312,1.512063990999978,11.573393758999991,0.7452704369999998,0.013860734000003,0.092514307
1718270149713436850,-1.115480193000031,1.5114859909999785,11.56682175899999,0.7351884369999999,0.0224547340000031,0.085585307
1718270149714632044,-1.1212501930000314,1.5231819909999782,11.573777758999992,0.7248414369999997,0.0309367340000031,0.077724307
1718270149715849500,-1.1143151930000312,1.532559990999978,11.595657758999993,0.7140104369999997,0.0382607340000031,0.069719307
1718270149717275380,-1.1117271930000312,1.5443389909999778,11.595731758999992,0.7036464269999998,0.0448727340000031,0.062242307
1718270149717283506,-1.1052691930000311,1.538598990999978,11.612596758999992,0.6950424269999997,0.0515717340000031,0.055445307
1718270149718401043,-1.1032811930000317,1.535085990999978,11.607273758999993,0.6877854269999999,0.0575567340000031,0.048783307
1718270149719596822,-1.1017921930000314,1.521499990999978,11.603573758999993,0.6823804269999997,0.0608967340000031,0.042779307
1718270149720699051,-1.1132981930000312,1.5054289909999783,11.60291675899999,0.6773974269999999,0.0621167340000031,0.038628307
1718270149721935576,-1.1250721930000311,1.494089990999978,11.596669758999992,0.6733424269999998,0.0623147340000031,0.035540307
1718270149723339464,-1.141329193000031,1.494974590999978,11.584648758999991,0.6696554269999998,0.0603987340000031,0.033506307
1718270149723357164,-1.1496141930000316,1.4955505909999782,11.582739758999992,0.6677024269999998,0.0563497340000031,0.032666307
1718270149724376501,-1.149575193000031,1.505874590999978,11.560366758999994,0.6660624269999997,0.0518017340000031,0.033154307
1718270149725608068,-1.1498571930000314,1.5306625909999785,11.526353758999992,0.6654634269999997,0.0467197340000031,0.035642307
1718270149726801792,-1.133343193000031,1.550493590999978,11.509829758999992,0.6649914269999998,0.0415577340000031,0.039459307
1718270149728112705,-1.121596193000031,1.5821805909999782,11.496862758999992,0.6664184269999998,0.0349047340000031,0.045144307
1718270149729210741,-1.1017921930000316,1.6039025609999782,11.470904758999993,0.6692394269999998,0.025754734000003,0.051883307
1718270149729217932,-1.0865941930000311,1.622918560999978,11.42494375899999,0.6735634269999997,0.0155137340000031,0.060087307
1718270149730424995,-1.0846501930000314,1.634117560999978,11.396699758999992,0.6802264269999998,0.004037734000003,0.069498307
1718270149731643256,-1.091639193000031,1.6450055909999783,11.363259758999993,0.6886514269999998,-0.0091112659999968,0.080107307
1718270149732828870,-1.0989031930000317,1.655738590999978,11.330157758999992,0.6981714269999998,-0.0241582659999969,0.090711307
1718270149734152140,-1.0979011930000313,1.6564625909999782,11.282697758999994,0.7088704269999997,-0.0390482659999968,0.101587307
1718270149734161803,-1.1012391930000311,1.664397590999978,11.244826758999992,0.7198794269999997,-0.0532692659999969,0.113670307
1718270149735349835,-1.0960641930000317,1.6624895909999782,11.221359758999991,0.7309804269999999,-0.0666992659999969,0.1252253069999999
1718270149736568582,-1.0868041930000314,1.6726545909999782,11.220673758999991,0.742662427,-0.0802002659999968,0.136656307
1718270149737759350,-1.0857911930000317,1.6584215609999784,11.203120758999992,0.7540674269999998,-0.0925502659999969,0.147156307
1718270149739408098,-1.0764211930000314,1.6390395909999782,11.208851758999993,0.7662794269999997,-0.1034892659999968,0.157807307
1718270149739422610,-1.0839051930000316,1.624519590999978,11.219935758999991,0.7785844269999999,-0.1139722659999969,0.1671333069999999
1718270149740579997,-1.0867521930000312,1.5981565909999782,11.220584758999994,0.7892094269999999,-0.1243522659999968,0.174983307
1718270149741801928,-1.0976461930000312,1.5867359909999783,11.233332758999994,0.7982804269999999,-0.1333752659999968,0.181237307
1718270149743117325,-1.1165131930000312,1.5756119909999784,11.259322758999993,0.805399427,-0.1398892659999968,0.186699307
1718270149743127604,-1.126665193000031,1.5694549909999782,11.274880758999991,0.812131427,-0.1452432659999968,0.190436307
1718270149744305289,-1.1365391930000317,1.558626990999978,11.29596475899999,0.8177154269999998,-0.1499522659999969,0.193105307
1718270149745529736,-1.1460671930000317,1.547938990999978,11.298446758999992,0.8226484269999998,-0.1532652659999968,0.193781307
1718270149746745875,-1.163467193000031,1.5474039909999782,11.313016758999993,0.8253124269999998,-0.1540772659999969,0.192999307
1718270149747876103,-1.2053371930000312,1.587157990999978,11.324128758999992,0.8225774269999999,-0.1557382659999968,0.191114307
1718270149749154226,-1.2172671930000312,1.594894990999978,11.325152758999993,0.8202944269999999,-0.1526712659999969,0.187529307
1718270149749178224,-1.2340971930000313,1.6049049909999782,11.324976758999991,0.8193444269999999,-0.1536082659999968,0.187651307
1718270149750318958,-1.2472501930000313,1.651602990999978,11.348649758999992,0.8046194269999999,-0.1412562659999968,0.176865307
1718270149751547191,-1.2485771930000311,1.690458590999978,11.386617758999993,0.7926174269999999,-0.1322252659999968,0.169666307
1718270149752818171,-1.2368061930000316,1.7221555909999782,11.413561758999991,0.7796384269999999,-0.1213112659999968,0.160475307
1718270149754113615,-1.2367461930000316,1.722164590999978,11.42108675899999,0.7794204269999999,-0.1206802659999968,0.160479307
1718270149754126080,-1.2043711930000311,1.7414325909999782,11.440835758999992,0.7538024269999998,-0.0953602659999968,0.139722307
1718270149755880680,-1.2043711930000311,1.7414325909999782,11.440835758999992,0.7538024269999998,-0.0953602659999968,0.139722307
1718270149757216034,-1.2096251930000317,1.7242399909999782,11.492060758999992,0.7269554269999997,-0.0690062659999969,0.115375307
1718270149757224099,-1.2270071930000317,1.6949639909999783,11.51250375899999,0.7133104269999997,-0.0568782659999968,0.102460307
1718270149758474896,-1.2445051930000317,1.660725990999978,11.540862758999992,0.7000464269999997,-0.0452512659999968,0.089677307
1718270149759436164,-1.2620521930000312,1.621491990999978,11.546827758999992,0.6873764269999998,-0.0332402659999968,0.077032307
1718270149760550834,-1.2795901930000313,1.5969859909999782,11.569136758999992,0.6742234269999997,-0.0211242659999968,0.065185307
1718270149761754196,-1.2926611930000311,1.589867990999978,11.576769758999994,0.6597304269999998,-0.0084462659999968,0.053865307
1718270149763099180,-1.2927511930000315,1.575046990999978,11.599672758999994,0.6602144269999999,-0.0080512659999968,0.053872307
1718270149763112489,-1.3026601930000314,1.530899990999978,11.665183758999992,0.6336924269999997,0.0159797340000031,0.033634307
1718270149764211331,-1.3209261930000311,1.5009769909999782,11.69361675899999,0.6230944369999998,0.0265687340000031,0.025122307
1718270149765391036,-1.3383661930000317,1.466234990999978,11.694469758999992,0.6257794369999997,0.0252957340000031,0.025263307
1718270149766596047,-1.3583261930000312,1.455413990999978,11.763961758999992,0.6042524369999999,0.043417734000003,0.011277307
1718270149767820434,-1.397216193000031,1.3984679909999782,11.741672758999991,0.6084604369999999,0.040158734000003,0.011015307
1718270149769233550,-1.4363711930000311,1.3664299909999782,11.798943758999991,0.5961244369999998,0.0505127340000031,0.001960307
1718270149769249216,-1.4525891930000314,1.347260990999978,11.809610758999993,0.5937394419999997,0.0535377340000031,-0.0002956929999999
1718270149770321022,-1.4526591930000314,1.342333990999978,11.79474875899999,0.5941164419999998,0.0530377340000031,-0.0001656929999999
1718270149771528879,-1.4610281930000313,1.3177129909999783,11.801492758999991,0.5944974419999998,0.0553187340000031,-0.0006806929999999
1718270149772616239,-1.4838171930000312,1.289167990999978,11.839940758999992,0.6020854419999999,0.0543087340000031,0.003094307
1718270149773822974,-1.4625371930000313,1.301438990999978,11.832201758999991,0.6017574419999999,0.0552967340000031,0.002964307
1718270149775149975,-1.4468261930000312,1.3004039909999785,11.833302758999992,0.6067464369999999,0.0536677340000031,0.007377307
1718270149775157600,-1.439883193000031,1.3187349909999782,11.85848975899999,0.6126414369999998,0.050974734000003,0.012457307
1718270149776319249,-1.4277571930000312,1.324834990999978,11.86553275899999,0.6315004369999997,0.0392777340000031,0.027409307
1718270149777543623,-1.4277571930000312,1.324834990999978,11.86553275899999,0.6315004369999997,0.0392777340000031,0.027409307
1718270149778653475,-1.4475781930000315,1.317010990999978,11.880581758999991,0.6598894369999998,0.0188257340000031,0.045694307
1718270149779884023,-1.4604781930000317,1.304586990999978,11.872808758999993,0.6610784419999998,0.0179847340000031,0.045430307
1718270149781233091,-1.4854221930000313,1.2839999909999782,11.862529758999992,0.6928164419999998,-0.0064572659999968,0.066235307
1718270149781239226,-1.4982521930000312,1.271676990999978,11.870390758999992,0.6933494419999997,-0.0071712659999968,0.066368307
1718270149782480436,-1.5198781930000311,1.248598990999978,11.878947758999992,0.7121514369999998,-0.0215582659999969,0.077708307
1718270149783726789,-1.5375461930000311,1.203261990999978,11.880361758999992,0.7324334369999997,-0.0369842659999968,0.089049307
1718270149784787255,-1.5596411930000311,1.150423990999978,11.85109275899999,0.7539474369999999,-0.0533612659999968,0.099989307
1718270149786180742,-1.573296193000031,1.107272990999978,11.829154758999993,0.7757854369999999,-0.0692242659999968,0.110670307
1718270149786199156,-1.5782351930000311,1.0840479909999785,11.80026075899999,0.795868437,-0.0850852659999968,0.122004307
1718270149787306073,-1.5827961930000312,1.0660699909999778,11.800891758999992,0.8138234369999999,-0.0999342659999968,0.133201307
1718270149788494818,-1.5782891930000311,1.063297990999978,11.768562758999993,0.8293124369999998,-0.1136312659999968,0.143188307
1718270149791482699,-1.5775591930000314,1.0584969909999784,11.772580758999991,0.8423764369999998,-0.1263782659999968,0.152636307
1718270149791494173,-1.5636281930000313,1.0664039909999783,11.766288758999991,0.8531624369999999,-0.1384002659999969,0.160742307
1718270149791513583,-1.5533051930000314,1.0772349909999783,11.750520758999992,0.8613554369999997,-0.1483422659999968,0.168179307
1718270149792532265,-1.542432193000031,1.103175990999978,11.75424375899999,0.8671074369999998,-0.1567752659999968,0.174015307
1718270149793822792,-1.5395301930000316,1.1245379909999782,11.762588758999993,0.8710684369999999,-0.1633202659999968,0.178390307
1718270149795103771,-1.5235511930000312,1.1535429909999784,11.761076758999993,0.8735684369999999,-0.1691372659999968,0.181560307
1718270149795119647,-1.5282411930000313,1.170773990999978,11.748820758999992,0.8739914369999999,-0.1745402659999969,0.183256307
1718270149796239932,-1.5497291930000316,1.183182990999978,11.757359758999996,0.8739524369999998,-0.1797232659999969,0.183888307
1718270149797443801,-1.5751951930000314,1.1932319909999782,11.741440758999993,0.8734554419999998,-0.1833332659999968,0.1835953069999999
1718270149798538708,-1.6003861930000314,1.1837879909999782,11.745711758999994,0.8722954419999999,-0.1853962659999968,0.181845307
1718270149799830793,-1.6166691930000312,1.1745739909999782,11.723711758999992,0.8700304369999998,-0.1856602659999969,0.178100307
1718270149801208747,-1.6366071930000314,1.168247990999978,11.715018758999992,0.865179437,-0.1838442659999969,0.173689307
1718270149801226990,-1.6517821930000314,1.1696859909999784,11.734685758999992,0.8577874369999998,-0.1803102659999969,0.168477307
1718270149802403813,-1.6621241930000312,1.183907990999978,11.752663758999992,0.8474694369999999,-0.1753182659999968,0.1627233069999999
1718270149806116600,-1.6677961930000311,1.1959119909999782,11.78387775899999,0.8355874369999998,-0.1679672659999968,0.156043307
1718270149807682491,-1.6648521930000313,1.207945990999978,11.799249758999991,0.8234724269999999,-0.1593302659999968,0.148970307
1718270149807699180,-1.6575601930000312,1.222450990999978,11.806570758999992,0.8111604269999999,-0.1498632659999968,0.141633307
1718270149807718652,-1.6500821930000311,1.232215990999978,11.837173758999992,0.7976944269999997,-0.1392512659999968,0.134831307
1718270149807758575,-1.6382781930000316,1.259205990999978,11.859669758999992,0.7837694269999997,-0.1285862659999969,0.127760307
1718270149808721744,-1.6221131930000312,1.288864990999978,11.897285758999992,0.7687734269999998,-0.1186032659999968,0.120811307
1718270149809928286,-1.6117011930000311,1.305830990999978,11.914364758999993,0.7431244269999997,-0.0996012659999969,0.107862307
1718270149811218404,-1.603081193000031,1.315744990999978,11.914420758999992,0.7423504269999998,-0.0989582659999969,0.107994307
1718270149811230563,-1.587815193000031,1.320091990999978,11.918391758999991,0.7318664269999998,-0.0902262659999968,0.102926307
1718270149812394490,-1.5726741930000312,1.3390589909999784,11.915552758999992,0.7217744269999997,-0.0821472659999969,0.098255307
1718270149813609800,-1.5490231930000316,1.3532525909999782,11.920427758999994,0.7111724269999998,-0.0746692659999968,0.093710307
1718270149814903328,-1.5170651930000312,1.3820555909999783,11.90343075899999,0.7011654269999997,-0.0680742659999969,0.089559307
1718270149816188957,-1.4898421930000314,1.408019561999978,11.903884758999991,0.6931044269999999,-0.0628232659999969,0.086479307
1718270149816211865,-1.4674391930000312,1.421354590999978,11.891360758999994,0.6875284269999999,-0.0602942659999968,0.084327307
1718270149817397642,-1.4584631930000311,1.421858590999978,11.873009758999991,0.6853284269999997,-0.0601312659999968,0.082713307
1718270149818702445,-1.4625551930000311,1.405003590999978,11.840905758999993,0.6846924269999999,-0.0618162659999969,0.081763307
1718270149819955465,-1.4711561930000316,1.3952895909999778,11.824900758999991,0.6850284269999997,-0.0644742659999968,0.081213307
1718270149821639006,-1.4758201930000312,1.392781590999978,11.802923758999992,0.6863164269999997,-0.0689672659999968,0.081454307
1718270149821647355,-1.4850591930000312,1.402442590999978,11.77466375899999,0.6884124269999998,-0.0763302659999968,0.082347307
1718270149822471955,-1.494804193000031,1.411672590999978,11.755938758999992,0.6926974269999998,-0.0849672659999969,0.084047307
1718270149823684644,-1.4878211930000314,1.430533990999978,11.722670758999993,0.6979444269999998,-0.0943342659999968,0.085878307
1718270149824832197,-1.4766981930000314,1.466444990999978,11.684060758999992,0.7033814269999997,-0.1032752659999968,0.089045307
1718270149826132597,-1.4742041930000314,1.4973489909999782,11.662186758999992,0.7092104269999997,-0.1123622659999969,0.093147307
1718270149827341331,-1.4804241930000317,1.5330489909999785,11.641553758999992,0.7157664269999997,-0.1232502659999969,0.097907307
1718270149827349608,-1.4829371930000317,1.556141990999978,11.623692758999992,0.7243544269999999,-0.1357002659999969,0.104002307
1718270149828647460,-1.494256193000031,1.559294990999978,11.592004758999993,0.7349074269999999,-0.1485332659999968,0.110636307
1718270149829907673,-1.5059021930000318,1.552338990999978,11.554269758999991,0.7470924269999999,-0.1616152659999969,0.117944307
