%time,field.linear.x,field.linear.y,field.linear.z,field.angular.x,field.angular.y,field.angular.z
1718270149364904313,0.2218000142197106,0.3276230586581719,-0.0130640460364315,-0.8743900871076629,0.23383802604133,-0.3797817907989939
1718270149366183919,0.1655289698080578,0.3562676112891119,0.0050820626083504,-0.9034002581102044,0.1080839040908915,-0.390950239877407
1718270149366194197,0.0991482743308772,0.3073590096540138,0.0206045205417503,-0.8251440878904848,-0.0680963388279872,-0.4327318729570967
1718270149367353474,0.1921254047255787,0.2786216973589908,-0.031825365116709,-0.8126647559897513,0.0034654418007993,-0.570196178896655
1718270149368568699,0.2277991624076416,0.2394787610810403,0.0168064162574123,-0.5961761900224489,-0.0850691993944403,-0.5612652838679602
1718270149369786619,0.1502874919057691,0.1649994170374928,0.0487182521793683,-0.3983078438529306,-0.1143777379473371,-0.4388333963448791
1718270149371001202,0.1920447986720545,0.1672860057160509,0.1175409748702682,-0.377380700143412,-0.1701652975861916,-0.648117476928534
1718270149372353319,0.1012951000521211,0.1638097286882442,0.0501223512720703,-0.4127302433507957,-0.1850953640102953,-0.4813796027395838
1718270149372404625,0.0293523069831466,0.0269692940007611,0.1114665656624629,-0.0892754352865759,-0.2054376663915071,-0.3914578099346422
1718270149373457424,-0.0569697011607445,-0.0208597468007175,0.1178795540577332,-0.0125527380753658,-0.3132110805081725,-0.42713365907155
1718270149374671419,-0.0675773767275403,0.0309437306195161,0.1121403501093685,-0.1910313842157583,-0.5695881373360394,-0.6873508970770308
1718270149375844625,-0.1333879266424767,0.0322238188369169,-0.0075009877341849,-0.3732438140752442,-0.6298679912790669,-0.5692674822799666
1718270149377249197,-0.1243727069910162,-0.0208668739879164,-0.0244269062773083,-0.2077993738277896,-0.6255337987642698,-0.6814254469448042
1718270149377257036,-0.127979886172709,-0.0148292508509628,-0.0429770353415336,-0.2174253426819193,-0.6149461203910512,-0.7125618676515196
1718270149378308218,-0.0954915667485141,-0.0611281128744257,-0.0938558347321878,-0.184216610158335,-0.6088054525581398,-0.6847330539793939
1718270149379611602,-0.0932586323947566,-0.0445447830067836,-0.0622443797829178,-0.1479688063962121,-0.5981277631210004,-0.6166154603424646
1718270149380859230,-0.1638864477286481,-0.0644015931159571,-0.0483378777225079,-0.0587550688025933,-0.630572122077114,-0.4468701866546837
1718270149382011220,-0.1804683362394374,-0.1230010931498731,-0.0433516157037458,0.1279913936756644,-0.620914045668764,-0.5371037562408357
1718270149383413148,-0.2818553628186266,-0.1972771356438139,-0.0161123040777704,0.3050450673909912,-0.6223758905070216,-0.4016245756570607
1718270149383424928,-0.2101886884475563,-0.2063328678511509,-0.0212685971129476,0.3423737821037468,-0.6077878608938933,-0.594285500198553
1718270149385587335,-0.1439308768000375,-0.2500993993792667,-0.096317054033802,0.2600228596681146,-0.4578600332859594,-0.466889234423714
1718270149385601925,-0.2269715208898186,-0.2907498596407615,-0.1158978169801685,0.3348830042574506,-0.4938992388242581,-0.4105711849159508
1718270149386724136,-0.2316958092920746,-0.2760314923824181,-0.1318540282483576,0.2734586415551304,-0.6851169335648939,-0.428979419023641
1718270149387897233,-0.1562922431804294,-0.338329442699204,-0.0908279073340324,0.47437947920232,-0.6106591429412545,-0.4260775033354974
1718270149389103553,-0.1893301513581589,-0.4237636434452202,-0.0326524719616692,0.8001931154325022,-0.5341894754969012,-0.2495349413696014
1718270149390600856,-0.1710448617266613,-0.3574072259027194,-0.0387355542104774,0.6831026730838047,-0.491508368800443,-0.1063140096798442
1718270149390636765,-0.2166998696340654,-0.3327088165520333,-0.1318795685137881,0.3993445517097014,-0.4775259158634208,0.0677880856137334
1718270149391485699,-0.2584870761545816,-0.3450521340115726,-0.1380482180401692,0.4409367465296718,-0.5998055280444852,0.0848959222897892
1718270149392831857,-0.24481302015972,-0.4201608544078666,-0.0259952201079371,0.7389705043732978,-0.5316242063662305,0.106132334141091
1718270149396836226,-0.2900124485983004,-0.4367683412589762,-0.0865550870874747,0.6921240538560938,-0.4819308892983887,0.232521883512607
1718270149396846704,-0.2903871959621704,-0.4308433467691904,-0.0755771121199699,0.7802297007803162,-0.4726946280458811,0.1376502010885349
1718270149398223195,-0.2650505939559613,-0.3972338273906356,-0.1486794434403984,0.5470158441914894,-0.441878207914148,-0.0014125511354574
1718270149398230947,-0.1953264121177904,-0.3496957826489871,-0.2445553444848835,0.2814644144630543,-0.4119555273000005,-0.3291759483304961
1718270149398253211,-0.1884080820632171,-0.4206007713564406,-0.1522452941081151,0.5294426348592135,-0.4097353867224231,-0.4239908215467806
1718270149399234350,-0.1729961674957857,-0.4438278495082065,-0.2013020501389648,0.461794116854951,-0.3020840851834537,-0.3242528603413003
1718270149400554860,-0.1962590052112958,-0.3933162144664198,-0.2749628718082508,0.3018970660397536,-0.211853619632978,-0.3037543516786493
1718270149400564257,-0.1341107926216482,-0.3739617766955344,-0.2506263119918224,0.238836772786687,0.0187397896367071,-0.2668101714922152
1718270149401687461,-0.2553294900254772,-0.3346222592925944,-0.2271262623921069,0.2247739717143786,-0.2367245176438111,-0.2213422602827813
1718270149402957058,-0.1857316689009353,-0.3303649093264794,-0.2278215521811269,0.2797492099706358,-0.2568659493107582,-0.4678173188525782
1718270149404211632,-0.1924785746390187,-0.3577593792404866,-0.1495854469757658,0.4687650443564504,-0.2462136018826001,-0.5063449877933991
1718270149404230174,-0.2034574415859176,-0.2984697066640105,-0.1136116573792459,0.4058339515197129,-0.2982676667728453,-0.5874905082019195
1718270149405351812,-0.1588218948187694,-0.2540211379584899,-0.1409598073371378,0.3227124665599152,-0.140466488370561,-0.5428403011118345
1718270149406639031,-0.1277510212000157,-0.1939333035247574,-0.1594712619472994,0.1612332066530716,-0.2091969516893994,-0.5658268519828868
1718270149407887499,-0.1405634792550906,-0.1865968229821198,-0.1435877713512774,0.1476991531569587,-0.1940940451599476,-0.5531860626027788
1718270149409138536,-0.1249588388724184,-0.1140817108692779,-0.1789544830780873,-0.0133415439965379,-0.224456932050197,-0.500141090558227
1718270149410390510,-0.206705426818059,-0.0870013569889034,-0.1183413203049196,0.0255465736924787,-0.2604205588953782,-0.6475239547642674
1718270149410422583,-0.1729491569999824,-0.1737996095800824,0.0698155954834615,0.4718573066053673,-0.1285526962852812,-0.4434054872271438
1718270149411518287,-0.0498246039126237,-0.1423578472781592,0.0046213431949232,0.3008936976084057,-0.0301993125193537,-0.6162680223275558
1718270149412727743,-0.1510291407675339,-0.0543961388526162,0.0320167434330297,0.1707527184934747,-0.1471731539606182,-0.3654276562711802
1718270149413975830,-0.1248422345653647,-0.0501531532700407,0.1063879640229419,0.2936155560562613,-0.2001313416719093,-0.3696555635255341
1718270149415208294,-0.1636201834760631,-0.0340109493248131,0.1852980150946569,0.4132805327421731,-0.2205803192614564,-0.0082796066475434
1718270149415223730,-0.1017254003913823,-0.0764466285053585,0.2746930807450297,0.6053333412236008,-0.1036136841358626,-0.193802924466785
1718270149416494960,-0.0871239320167206,-0.0638607690351107,0.278301476240909,0.6185102726847165,-0.1732836264616595,-0.195201182438519
1718270149417634349,-0.083982383575868,-0.0719526271400608,0.3271861412051632,0.7103688421610856,-0.2057643384706501,-0.2267959553715225
1718270149418839941,-0.0155473805860482,-0.0058276617795373,0.2661158940359932,0.4656675790771001,-0.2733758452234797,-0.3921489205234299
1718270149420080553,-0.02909328041056,-0.0418532407207908,0.2926167180549224,0.5371105606280038,-0.1183379026401651,-0.1197145156300514
1718270149421602522,0.0029805336945696,-0.050552004841749,0.2861250444528059,0.5492653148279071,-0.1480292256839392,-0.3151597567846246
1718270149421617410,0.0533831346663929,-0.0784594322079892,0.2203531038533789,0.4657138611584595,-0.0350666378612651,-0.141492959942188
1718270149422483765,-0.0460892983227316,-0.073521180460774,0.2476487929093892,0.4288293422080976,-0.0825396321444424,0.0303158964008661
1718270149424206183,-0.1463309499589033,-0.0603737730653312,0.2166013923579416,0.310400263103539,-0.1174716928891606,0.3330794100818425
1718270149425546614,-0.1915062480744306,-0.0383104906661572,0.2444412770234818,0.4139329831721048,-0.1480713137005408,0.454447940388598
1718270149425558143,-0.0783498284068019,-0.1001680536865135,0.2534858933932978,0.5242046069342953,-0.0321093245523651,0.3443217900746423
1718270149426597858,-0.1042865519125105,-0.0891256176917602,0.2126318790175151,0.4081304023435077,0.0264805106540823,0.5584825276464519
1718270149427785831,-0.1174987921806918,-0.0654836262740887,0.2654042165504152,0.541923984355487,-0.0431601385745855,0.5041695133641912
1718270149429006498,-0.0776068796651524,-0.1260211946043029,0.4147081868858859,0.8693175466117431,-0.0951271635504105,0.5103181333982194
1718270149430270841,-0.1205173607784515,-0.1253552309201828,0.3866836890078765,0.8063270743134124,-0.1309239378735206,0.7328664516847858
1718270149430284210,-0.198718513304088,-0.1203051230517747,0.2005072114143804,0.5451917654986908,-0.146098545759202,0.7600022880913965
1718270149431424023,-0.1851091397392271,-0.1706826810052732,0.3177079320818303,0.8325631144109908,-0.175318594751395,0.7910620651788767
1718270149432632417,-0.1681930898787892,-0.1638663762084753,0.261668985754056,0.7401278559459394,-0.1513682896916103,0.8164153557791284
1718270149433891790,-0.1981319063337579,-0.1308695047656053,0.2267608021257093,0.5747585970126861,-0.3401027373797015,0.6789351927274976
1718270149435652929,-0.1597058005123198,-0.1038771250940487,0.2240167779714838,0.4875388443407476,-0.1506197763267381,0.7783724035530925
1718270149435667164,-0.1823881321000817,-0.1155963089508823,0.1662879829300534,0.452882513457779,-0.3139718714985371,0.5912685430069848
1718270149436629628,-0.1221562654946437,-0.136600265569149,0.1123164283758899,0.3790242206946765,-0.0428503894366662,0.8457441757655831
1718270149437875129,-0.0912847504378174,-0.1345690312928069,0.1324457429690913,0.3555363130291721,0.0605010943034539,0.8520005731663943
1718270149439089236,-0.1281467730315984,-0.1209214966747076,0.0196249451392109,0.1036679989304038,-0.0403131858771934,0.8664870338873585
1718270149440382080,-0.085661677245532,-0.0787890273392633,-0.0943815199292575,-0.23630738518581,-0.094455913212973,0.7813375003875995
1718270149440404134,-0.0208683450734148,-0.0496931327388878,-0.0496303950015129,-0.2462377682338686,-0.1621556713417671,0.5072100027012851
1718270149441586167,-0.0881634232467944,-0.0920735901732341,0.0829269125810934,-0.0480719967642735,-0.156737424560762,0.661405542907411
1718270149442740511,-0.0666255409952301,-0.0654181876438849,0.0392767039950489,-0.1897926084726097,-0.0222415123488008,0.8809313778904097
1718270149443961399,-0.0433274119524845,-0.0666981265967447,-0.0404218348330114,-0.3386957788309609,-0.127351990319568,0.7061709295590672
1718270149446619862,0.0271316785420469,-0.067987386265333,-0.0298636725721176,-0.3320552879374183,-0.1423646383868107,0.5651102960426412
1718270149446793476,-0.0059361317931977,0.0004247418257538,-0.1869873593824264,-0.7730551035172464,-0.2272640778397649,0.5793232171186904
1718270149446805894,-0.0323331590506342,-0.0218098664374663,-0.1191339240741563,-0.7015077411481874,-0.3767057807828083,0.3821716723903779
1718270149447526444,0.0307273379216923,-0.0021726643508192,-0.1454575099211423,-0.71410501820794,-0.1708069764973826,0.422631552548788
1718270149449416194,-0.0286453594713204,0.0190670251657189,-0.1332934772250715,-0.6366755598843687,-0.0717239950370256,0.6383461594852174
1718270149449430700,0.0997235354291896,0.1154246878784186,-0.057973187609228,-0.7034766735002003,0.1246262368534025,0.4890385327827409
1718270149450621139,0.0479220699645013,0.0731677252500555,-0.082938194032427,-0.6397216611520262,0.0608223091765792,0.474724677218209
1718270149451912382,0.1608734796631032,0.0880828570180844,-0.0182707152016764,-0.4660074989414673,-0.0505666461568971,0.1137689001923873
1718270149453104698,0.1646428988047517,0.1231780769759184,-0.0736208454341402,-0.6721645634540174,-0.1353415893807708,-0.1980349953178263
1718270149453122580,0.1146928970664151,0.1739731130604686,-0.0305832720123378,-0.6512290175258214,-0.1674878717296974,-0.1536690367865205
1718270149454339688,0.0713265951462204,0.2102088079732244,-0.0609893722617882,-0.7697736890318467,-0.0492423621788501,-0.1708902054237321
1718270149455524824,0.1300685363130997,0.190857438711192,-0.1195528472393312,-0.8067389902958274,-0.1365421757690539,-0.4976169198276361
1718270149456765197,0.0315226297660502,0.1899228214441299,-0.0963298354671137,-0.7146001558705635,-0.142341653035736,-0.3724647963549604
1718270149458008056,0.0016860908873336,0.2389490835993959,-0.0814854481687438,-0.8409560531119151,-0.2034717213856346,-0.2364016011570108
1718270149459452885,-0.0478406629685126,0.2354765034870858,-0.0731104063494759,-0.8365000587989924,-0.0662718729621821,-0.2210461671858569
1718270149459462426,-0.1078264963227592,0.2197627756517237,-0.0116809141098218,-0.6980202041012284,0.0266920858142061,-0.0985363491754946
1718270149460554022,-0.0787497089167306,0.1555202904080448,0.010073739350366,-0.5264851241113445,0.1044923212016892,0.0024653752605164
1718270149461810861,-0.0682289680883299,0.1106836580160284,0.1248024408806253,-0.2159622442677024,0.0330029144128004,0.0017198570267111
1718270149463057163,-0.0750080708436895,0.1181125604861705,0.1195179374116003,-0.1776920360379637,-0.0484064635424789,0.0728753652349286
1718270149464332709,-0.0475174493982023,0.1095973492355342,0.1611550637371323,-0.1155613746701727,0.0542778137002551,0.096319986795903
1718270149464343573,-0.0611182671495769,0.1281158995624579,0.1655536562725281,-0.2200231526880008,0.1195758290328984,0.1661320146749141
1718270149465489721,-0.062788538270624,0.0908992593935262,0.1473388953066485,-0.0889837163965854,0.0200188394363334,0.179394873825629
1718270149466744167,-0.1152303264463553,0.0653866108145835,0.1343579363364632,-0.0547469479051801,0.1250498555125171,0.2685750858171356
1718270149467951534,-0.0910248308466521,0.0482349396724168,0.2148710773189991,0.1249972501876558,0.2750869922279385,0.4705654969684314
1718270149469227038,-0.097225977537716,0.04081348180831,0.1774181931866295,0.0856617819931815,0.2547810773957047,0.4506322264589378
1718270149469239716,-0.0756746181877441,-0.0024709670740307,0.1861700702077738,0.1108458765729065,0.1170901992872734,0.3121710087047822
1718270149485458686,-0.0418702408738567,-0.0699143388650088,0.1401933648630183,0.2222547956278658,0.0174716381899769,0.3484592083668847
1718270149488916648,0.0144449331123981,-0.1098935704422588,0.2060981988185272,0.5454423019358712,0.1161503211293275,0.200052045645051
1718270149488930610,-0.0587652689097447,-0.0854323638239476,0.2346055665328103,0.5326315582294258,0.0177641430233024,0.273618064795891
1718270149488963897,-0.0624211044895152,-0.1098618987668066,0.2239516090204994,0.5919452815849837,0.0970167238756645,0.3035618748955894
1718270149488984489,-0.054721169537265,-0.0963690540315681,0.2542073086570272,0.7041814017509751,-0.0140143740719516,0.2324461020352592
1718270149488990664,-0.0850791245329484,-0.1249899669487451,0.3517954305826763,0.9925057775271052,-0.0804563684461261,0.2423852786817831
1718270149488999609,-0.0872927392221425,-0.1415757851082227,0.4257109232539214,1.2103650704546003,-0.1151155114449559,0.0616664670625547
1718270149489013216,-0.0911471053221325,-0.2383398797168932,0.5570206155325976,1.672046174199332,-0.2215292266253017,0.1129618455917713
1718270149489023378,-0.0832858001791002,-0.2205012913999692,0.4128455120388752,1.404618320822093,-0.2164711945965336,0.0764719248128084
1718270149489053691,-0.0521380084678211,-0.2092057621160639,0.3818936760344278,1.3036974451374557,-0.0858550628498764,0.0154175277155673
1718270149489063704,-0.1777060904233386,-0.1889546886304964,0.3367206169852955,1.2037064020942476,-0.2660173596398521,0.1540500484522289
1718270149489073659,-0.2109273571006732,-0.1930177363182368,0.3450397343320757,1.222527790571797,-0.3743246868457965,0.1394066551134996
1718270149489080445,-0.2332998787360154,-0.2224050889086047,0.360114147430881,1.30356452247833,-0.3937774109928549,0.2631721524552644
1718270149489099526,-0.1718367235102982,-0.2115646488536763,0.3617254159858878,1.3443889959231596,-0.3084022979068906,-0.0085457782876565
1718270149489112087,-0.1225463859414362,-0.2336688437563574,0.3532009411818343,1.3665188536929906,-0.237946378793083,-0.1969471754398064
1718270149489120428,-0.1155361491572087,-0.1652088191183,0.3341726821981337,1.20051278231352,-0.3612877859134653,-0.2315887457367375
1718270149489132514,-0.102822820721467,-0.1099791453352802,0.2775210472918684,0.964699408843524,-0.3167876863732635,-0.1005075793203632
1718270149489147461,-0.064255876634834,-0.1123510142108294,0.2397263304097799,0.93762197284683,-0.2618759548030822,-0.0099061580248863
1718270149489155417,-0.0281640402486598,-0.1692815087463051,0.153574391470938,0.8501697204486344,-0.2168750504076618,0.1298900273175074
1718270149489945340,-0.0426209214481356,-0.1878260983226765,0.1280002239327827,0.8366896867438431,-0.1584594812851803,-0.0863908590724356
1718270149489954418,-0.0950413975824654,-0.1587058529668153,0.1406130280584475,0.752428472913126,-0.1334120593447063,0.0174372761875343
1718270149491008837,-0.0558292919245465,-0.1226245789655115,0.1114289406747101,0.4934371046360533,-0.1488761439750602,0.1156023090848179
1718270149492156454,-0.0993579187011149,-0.1606233673229284,0.0552742678227638,0.4733437249743433,-0.320654494417237,0.0725240964871055
1718270149493413131,-0.0324665283707061,-0.1181526000779655,-0.0289794861827162,0.150696951109338,-0.2946038457787157,-0.0515511747172303
1718270149494483954,-0.0589189305413944,-0.1673900701651947,0.0110271883598118,0.3470550448373244,-0.398705710515562,-0.0498852055054704
1718270149499066435,0.000772659632933,-0.1726253605682937,0.0406768708861077,0.3727713816746974,-0.3055481390822963,-0.0800575858282747
1718270149500948092,0.0212167919468988,-0.0757060802061991,-0.1691310778116722,-0.1686408263331887,-0.2657757676133881,0.0609246298148971
1718270149500960972,-0.1202831685521985,-0.1029267166527785,-0.2126776578997627,-0.214717448136392,-0.3619027147612382,0.198027382502102
1718270149500983379,-0.1381073533677274,-0.1251990401928844,-0.130773928677203,0.0332528990019611,-0.4041408873001618,0.2567903210887736
1718270149501003117,-0.0563007886878138,-0.1207371694754755,-0.2536165155087871,-0.1519276184744585,-0.3356978994119695,0.0541457133349372
1718270149501015659,0.0244026766545714,-0.1097452501463456,-0.2449235879726447,-0.2180204651189616,-0.2432033062286189,-0.0427911460710654
1718270149502108742,0.0500176632981107,-0.1051665184839272,-0.3895409714796389,-0.5369806793769538,-0.1822444151307901,-0.000399536339769
1718270149502127228,0.0910623044209902,-0.1010609603017851,-0.3867304109212248,-0.4857956274332242,-0.1207745631165025,-0.0406839800606951
1718270149502907237,0.0595249278877943,-0.1282155528191946,-0.3163661568602019,-0.3336165265038066,-0.1862198602797721,-0.1270903509648078
1718270149504250973,0.0392462038577775,-0.1600080874928822,-0.2996603497251937,-0.3011440806673486,-0.280888693022648,-0.0022122837307794
1718270149504967439,0.0326673369445361,-0.1431199463454062,-0.3013897030298351,-0.3120345147831018,-0.2412140835409553,-0.1208047811385992
1718270149506362509,0.0362540520237152,-0.1710062762809017,-0.2855188860401675,-0.274095566169612,-0.1548664837611044,-0.0220306604167754
1718270149507305933,0.0501071079519111,-0.1049168217359967,-0.2946395254579589,-0.399713619466417,-0.1149653578514183,-0.121905571442514
1718270149508515455,-0.0646893109922779,-0.0511903137644043,-0.2926331181722787,-0.4874710485945182,-0.1722017544960934,0.0788271384410169
1718270149509685073,-0.0876016696356897,-0.0859757163647486,-0.2085654391785416,-0.2410447628451661,-0.2366661365953496,0.1535032941608857
1718270149510954203,-0.0629240927720932,-0.1521885623402241,-0.1561314773503356,0.0260237372790502,-0.1628928655592615,0.108163438449227
1718270149512222330,-0.0015503229703237,-0.10208381432805,-0.1613935987258705,-0.0572118211829475,-0.143056873475656,0.0459744059688819
1718270149512235016,0.0175858490354975,-0.11870010527248,-0.0762978422491476,0.0869057270458885,-0.1183660313726537,0.1425259096069715
1718270149513450300,0.0490972933457294,-0.1986415932870483,-0.0651196784577977,0.2580766372982001,-0.0728986421137804,0.2055888364168086
1718270149514635429,0.0389818916190192,-0.1779974192287862,-0.1011795874924658,0.1712362630268626,-0.0496736574069456,0.1692021252988503
1718270149515867680,0.1100635979846013,-0.211728180602573,-0.07290270467978,0.3074357100950549,0.0077094071242536,0.0807898079724028
1718270149517078973,0.1371574930105615,-0.194986209296351,-0.1516131561344795,0.2168446250180868,0.0700745751427494,0.0887344613711126
1718270149518359356,0.0595245883506745,-0.1936451234389504,-0.1224828309614918,0.2218785811196681,0.0396139831915825,0.4487752568678299
1718270149518376300,0.0320766011711113,-0.1972249726667919,-0.1802898008899018,0.1428732336254191,0.079573255434736,0.6055781135158925
1718270149519554062,0.0588497761394781,-0.1768876745124716,-0.2306183588639366,-0.013921989143784,-0.099205875336909,0.4382150336710441
1718270149520744318,-0.04329718900654,-0.2108717350379161,-0.1545663553711645,0.2080161798453773,-0.2045487254737839,0.5329814007373106
1718270149521995927,-0.0520346478017332,-0.2120379750704315,-0.0662094098739322,0.3885369823530928,-0.1110831106691739,0.7056666786651837
1718270149523332179,-0.0213899922017741,-0.2170356784680134,-0.0222319071008119,0.5056794504781167,-0.0771971947791013,0.6165751429225496
1718270149523345096,-0.0184892093784887,-0.2206143541643523,0.0546116231808406,0.6496150861447536,-0.0634320322712649,0.5766737326783999
1718270149524448251,-0.0071407764252806,-0.1790557609975074,0.1098668818706028,0.6423600141533806,-0.0360109629828957,0.5665909564207723
1718270149525692401,0.0453519952398598,-0.1271279285280085,0.0769485463746103,0.4943653984139138,-0.0223361491859567,0.4864678772769613
1718270149526875629,0.0414438621717245,-0.1294260718053094,0.1498987905229629,0.5530436483860235,-0.01559103941527,0.4481731147667862
1718270149528232726,0.015814757946345,-0.0812063067720053,0.0988113607693345,0.3819986481531108,-0.0127568674785826,0.4313391659104083
1718270149528248347,0.0570099727203223,-0.040793756813694,0.0104298291384455,0.1736861799648461,-0.0846110827985941,0.4270986122920396
1718270149529416990,0.0809712232260026,-0.0478941660582972,0.0405491297984695,0.1900886719056502,-0.0432662463424346,0.5292439563450181
1718270149530627813,0.0621930448823525,0.0027877828667211,0.0126158260078949,-0.017354921323497,-0.0777913467628444,0.4303299146610208
1718270149531823431,0.1454535140208477,0.0425455719294613,-0.0168835409873497,-0.1446502975746963,-0.0832428391778277,0.2263047400101856
1718270149533162241,0.0840230531134024,0.0754970112914997,-0.1390369963714167,-0.4537892006720591,-0.1155651875579993,0.2895828747794309
1718270149533175423,0.0351183110317078,0.1192024517776746,-0.1042605034082483,-0.5341683621938285,-0.255217294393432,0.1346502029894226
1718270149534350643,0.0776802199213962,0.1761366011802073,-0.1273551725793454,-0.6915732774822563,-0.1214664464240541,0.1540023139110308
1718270149536625529,0.0188828238517311,0.1841998870085216,-0.110747577478817,-0.7402030601171723,-0.2827025750157966,-0.0239900618971594
1718270149538450394,0.0068173753718706,0.2296126872065195,-0.1814075093806703,-1.044509995182802,-0.394181350608463,-0.164747909482073
1718270149538473795,-0.0176584271179005,0.2229711715101937,-0.2091440987481846,-1.1062406892391086,-0.3180933843854022,-0.1325112291851268
1718270149539797538,0.0281509413226698,0.2286473996800476,-0.1693035272355946,-1.0323356283102596,-0.2150088571439637,-0.3238790720266646
1718270149539804797,0.0064804965869008,0.2167872645863239,-0.2046770344438873,-1.0755652462500764,-0.3091198806313929,-0.2526891099229232
1718270149540922037,0.0093673609407356,0.1982108924097116,-0.2542389177887859,-1.1053639677274747,-0.3626918911961266,-0.1353598239671323
1718270149542224498,-0.0363756211120583,0.2732891623519657,-0.2544821780217469,-1.310850228404825,-0.4317962785454952,-0.2607169126838198
1718270149542232763,-0.0051601566607247,0.3015312807788504,-0.1985973641673769,-1.3046356323488657,-0.4510946893495201,-0.2088068688355719
1718270149543472054,-0.0888392185498966,0.3163935956928262,-0.2180781942652705,-1.3296133896287845,-0.6371110272809847,-0.2032363532765358
1718270149544639384,-0.0464868523364253,0.1975623138753424,-0.0967589226671711,-0.9088001949031104,-0.6848782705804627,-0.3896713324086192
1718270149545823214,-0.0480136590326821,0.2103762504818816,-0.1541078051597395,-1.022101661312633,-0.639064339290803,-0.3765065199252657
1718270149547058125,-0.0053518580646345,0.2756715231532922,-0.1655295547721652,-1.0888365665161368,-0.5755450892950278,-0.4709270634631781
1718270149548427010,0.0547748259667495,0.2355920597518837,-0.0367040626125528,-0.7682453777354961,-0.6608432340826201,-0.6416221549137344
1718270149548433793,0.0003634279728486,0.2004639950811474,-0.0762143999982807,-0.7726155819890409,-0.7370791579514302,-0.5790076357132661
1718270149549566994,0.0316936065646075,0.1569161130362757,-0.0201953268625218,-0.5320575513892867,-0.644113438222491,-0.6589123889497496
1718270149551423159,0.0159669635594723,0.2247902975018891,-0.0073592257043288,-0.6292288041535324,-0.756334625935239,-0.6421184766117549
1718270149551431318,-0.018044277438778,0.2947542759901667,-0.0392685256382517,-0.8312232701664499,-0.7113380386403398,-0.4654047524340619
1718270149552563024,-0.023591326656812,0.2655176971047219,0.0125468882760119,-0.6865314205683128,-0.6088621969391825,-0.248635657429515
1718270149553853039,0.0176594754172986,0.2172269404446012,0.0754873382086003,-0.496891757051104,-0.5638403532704964,-0.3341245241656835
1718270149555033839,0.0339475201240449,0.174930451225438,0.127370864568395,-0.3138294225489733,-0.5458796525580515,-0.2534030017633236
1718270149556366203,0.0067696216710935,0.1773831026270161,0.0266414857063879,-0.4417610298364698,-0.5505590998260559,-0.2481902536833294
1718270149556375084,0.0339445645286784,0.1831543205653222,0.1084837734687608,-0.3471515816867484,-0.5019115867698614,-0.4568905584835857
1718270149557526622,-0.0315606283983393,0.1637055106343482,0.1417259104006081,-0.2006408641238314,-0.4689462275372835,-0.3265944760639153
1718270149558736975,-0.0079226794144826,0.154176861680446,0.1545087928457033,-0.119497392922506,-0.3993325487998453,-0.3473031816046114
1718270149559962679,-0.0538750644325292,0.1512573244863533,0.2074760881562186,0.0188998186512819,-0.3751146298611401,-0.2713370154379845
1718270149561191514,-0.0376597026880156,0.1370139244371512,0.2038607729509378,0.0566698003724153,-0.3444464189879888,-0.2970264364946969
1718270149561199355,-0.1070450194164505,0.176386541547858,0.1565246717314747,-0.1068519256001204,-0.4674976554641292,-0.2326051622038234
1718270149562403067,-0.1629570787699647,0.0685222249471752,0.3198035691664314,0.296663061077984,-0.4702376493260397,0.0320885047537682
1718270149563648595,-0.0914231742768695,0.0817824737861803,0.26639531794567,0.1972156159202397,-0.3465972273607882,-0.0379477335862155
1718270149564823708,-0.1218332246856679,0.0391674154772141,0.2335834022034342,0.2898944598501098,-0.2699801000441244,-0.0163219019333017
1718270149566044649,-0.1943006811556932,-0.0003728458489387,0.3339113816531492,0.5882679665298091,-0.2531147471607381,0.1038241541535351
1718270149567395199,-0.1667318555906351,-0.0281261891161309,0.3306888049933258,0.6802686541847525,-0.1649842060023813,-0.0853929849165087
1718270149567432133,-0.2187961909374111,-0.070528519715603,0.3224738227809698,0.8524430895812074,-0.2644212563047868,-0.1103717221630921
1718270149568593156,-0.2220218321852152,-0.1224189859448333,0.2453064180251577,0.852041382491919,-0.3698314206794799,-0.0930001079479731
1718270149569812901,-0.2008965558601631,-0.1081961418774806,0.3195425197920382,1.026876487828297,-0.302827963324581,-0.1113767376682503
1718270149571001308,-0.2046129212147457,-0.1368488512529579,0.3793745425919391,1.2079242453722157,-0.3849824718533097,0.0612472329111477
1718270149574480408,-0.1978793218606826,-0.1714145516534383,0.4305493266372383,1.415043620754369,-0.4466351721187628,0.1467435294324353
1718270149574506480,-0.2850851627792178,-0.1587633550873071,0.3279753774535568,1.1767003508052591,-0.5744455695735384,0.1150196043511632
1718270149575863239,-0.1741347210419515,-0.1841798973249473,0.2974034625784751,1.189717717267189,-0.4482750771821842,0.0117173415331241
1718270149575873711,-0.2388020931207367,-0.2047079850242461,0.2951076869587063,1.2614692512549612,-0.5139375399345832,0.0851948499582871
1718270149575881242,-0.1957779095758309,-0.2140930067152902,0.3054423260976449,1.3107482033054223,-0.3462804745694053,0.0259912935960139
1718270149576844489,-0.1659003209622987,-0.2062450523309087,0.2703546078628493,1.2555701371176893,-0.4065871542727731,-0.0183370118074617
1718270149578070806,-0.0927491811970789,-0.1634324835565609,0.2248944064879987,1.0586258359414276,-0.4732382312607033,-0.2520096801281959
1718270149579445730,-0.1957600416978021,-0.1443439138777676,0.2107930491340847,0.9158110767115806,-0.4641819981108939,-0.0502936490370681
1718270149579456955,-0.0945396166761532,-0.2044791143589495,0.1565148730992678,0.9658603032162668,-0.4359069717104378,-0.0499768838829004
1718270149580525917,-0.1475568368812024,-0.2103842801586201,0.1263363726771635,0.9973894448684236,-0.578378870235444,0.0536510649878317
1718270149581767390,-0.1478863377779687,-0.2285978376367692,0.1109260847847532,0.9308818755109428,-0.4869346484868691,-0.0601080551446453
1718270149582979809,-0.1772383579684653,-0.2347722747989319,0.1334561441308986,0.9842710343784908,-0.4116127682529115,0.0628859886543933
1718270149584217404,-0.1405187026732785,-0.2004434612528545,0.0066539081130971,0.6930073098037846,-0.416630536922274,-0.1223661433104767
1718270149584246815,-0.1407206968064666,-0.1960505091097648,-0.0644240796028968,0.4062371024332778,-0.4008999849777058,-0.2749591302836333
1718270149585449079,-0.2009387165968192,-0.1518501378401737,-0.1044270992333213,0.1717447080983959,-0.4063342030119937,-0.0591034888921913
1718270149586923218,-0.1065893784793536,-0.1779781822894557,-0.1698521832550549,0.0448384564824568,-0.4079684511681014,-0.3398037110412205
1718270149588124033,-0.1292095253519411,-0.1800391785830829,-0.2171563028938454,-0.0438379267902244,-0.571294920597179,-0.4196341774486032
1718270149589605655,-0.0548338574032585,-0.1976847583302798,-0.2777459286270469,-0.1444215139242493,-0.5286397057718554,-0.5759175055942314
1718270149589610994,0.037518870510385,-0.17342402178112,-0.2869069206155448,-0.2102749486858295,-0.3799436512403479,-0.4642625440553208
1718270149590693527,0.0629497532237061,-0.1754146581380972,-0.1781458427153906,-0.0653959015891446,-0.4230971677066919,-0.6012634817169036
1718270149591974582,0.1070418215404293,-0.1486708792335613,-0.2307446316083146,-0.2519286923119401,-0.3037663452825693,-0.4919800460981721
1718270149593191786,0.1398395129650648,-0.1405935841101349,-0.3053622840052481,-0.3335433244147361,-0.2174043356610456,-0.6504314932219291
1718270149594412695,0.1307580662399918,-0.2814445829254027,-0.0751715520280424,0.2601057333369029,-0.0725125374677494,-0.6457552435611603
1718270149594420786,0.1258014734894549,-0.2500759328397891,-0.0809595957353351,0.2219146324148477,-0.008063936253675,-0.608172061557171
1718270149595631279,0.033191234486551,-0.2170186529584855,-0.1727268861650382,0.0458053575204289,-0.1315246647297385,-0.5761257992328712
1718270149596839631,0.0333389152702918,-0.2648210862439862,-0.1359373666360922,0.2407648208927369,-0.1640555349783629,-0.4005933501617612
1718270149601576129,0.0546747733950841,-0.2015893915346715,-0.2072644761348087,0.0224118200657751,-0.217139024551318,-0.5667276599000742
1718270149603402559,0.0133528004409467,-0.2085028683607613,-0.2154452275843977,0.0718562365246581,-0.2437630836652117,-0.4479534192692872
1718270149603417257,-0.0364083359392068,-0.2578195445561705,-0.1522507924105846,0.3099623109964294,-0.3459503886214748,-0.3019871650887365
1718270149603429363,-0.0486490610693253,-0.2657443689099559,-0.2699623646184674,0.1509497600096136,-0.3226199079231973,-0.341157895516565
1718270149603441366,0.0256380979792947,-0.2723076097953233,-0.2214820115072732,0.2681166147437293,-0.2678936090610129,-0.2471681236191528
1718270149603451424,0.049141385242901,-0.2494984286846543,-0.13435606121423,0.3664035853379079,-0.2568513575051402,-0.246316655873522
1718270149604810542,0.0741690202681393,-0.2677680662995303,-0.1044645738441747,0.4599264320564147,-0.2060292599866101,-0.2655743775943708
1718270149604830968,0.0392459568005144,-0.325705998161252,-0.0301502020652306,0.6839644236721834,-0.3201117432682506,-0.0514851336999573
1718270149606079573,0.0337584352590074,-0.3128617046593732,0.0328162161603787,0.8133242988236655,-0.2781985765812686,0.0670167201123579
1718270149606091546,-0.0041793097530648,-0.371980740009863,0.1499621245814143,1.2049621334694562,-0.3332547439310419,0.0546656887682018
1718270149606946611,0.0745801117725191,-0.3276958938618841,0.1543125827286693,1.1974554356363272,-0.2930708909405066,-0.1273661528240343
1718270149608271686,0.0725182653237725,-0.307786623703881,0.1213670451939752,1.123941585300951,-0.2665167588786186,0.038245419272871
1718270149609473291,0.0903097103963405,-0.2765624251452371,0.0033681731082772,0.8323341173343743,-0.2910823846073305,0.0889998897413137
1718270149610666269,0.0876289654473437,-0.2287437833543989,0.0162467783705583,0.7314272165444496,-0.3011361308654036,0.1360622827566944
1718270149611459879,0.1149408988812315,-0.3057329816516929,0.1423199328090557,1.0316678505519403,-0.2313847147362779,0.1375760682058006
1718270149612626285,0.1247967261927735,-0.3214427864269544,0.1693218816525392,1.1158598670640751,-0.2038757776934569,0.3163562358890666
1718270149613990703,0.0948044002545056,-0.3591122203711489,0.1114977549677166,1.0809050046700084,-0.3117039984094152,0.227266982220137
1718270149615298734,0.0879860343608527,-0.3279890885866173,0.0462721780915302,0.9163222757432296,-0.262969236313582,0.2388801286200311
1718270149615308711,0.0217745140497208,-0.315843349201635,0.0056818083027934,0.8271958208163455,-0.322932170411994,0.247387496022173
1718270149616411497,-0.022742646095645,-0.2617447155892988,0.0481526028389773,0.7716486215391106,-0.4069953276076068,0.2976665039243328
1718270149617745212,0.0571374867881154,-0.2159454131767671,-0.0077803767196756,0.5519798551791203,-0.3490436329551432,0.1780493108479588
1718270149618951227,0.0402824315483988,-0.1743294655029054,-0.0031851643018573,0.4726358919513012,-0.3041005823256456,0.3948574464039969
1718270149620275132,-0.0078574436717171,-0.1464493131703348,0.0634111245788386,0.4911068228189419,-0.2189273998809319,0.565418464899461
1718270149620286711,-0.0750202134025967,-0.1722691267619655,0.200398585314761,0.8125488331253323,-0.2692022198134556,0.7114846790837557
1718270149622237291,-0.0217178901477288,-0.1587439949291984,0.1541565047526781,0.7401005218790053,-0.2129834103164435,0.6884386271464301
1718270149624040914,-0.028347344770991,-0.137037543336177,0.1712626471768784,0.7677963402612781,-0.2970210953979257,0.5320608680602512
1718270149624055003,0.0507712454736302,-0.052138615332478,0.1050566854141501,0.3981052663802316,-0.2573875598177136,0.1974580221252766
1718270149625365678,-0.0011233900383743,0.0053884399622474,0.1092419159861385,0.244557244440127,-0.3746627091916669,0.3278595347559337
1718270149625386164,-0.0604153219193242,0.0250854529791198,0.1156841215544449,0.2514145385670154,-0.4284977101423693,0.3120485249837754
1718270149626606407,-0.1360088178083071,0.0661729088888388,0.0841386618543252,0.0410295464562924,-0.3137727184429106,0.487432828818054
1718270149627857368,-0.1630967766216482,0.1919308502443749,0.0088141010028538,-0.3759874465888022,-0.4383387938541295,0.4545150439712911
1718270149629234913,-0.1030333552675959,0.2268742651173134,0.0590498752542339,-0.4177721281786698,-0.3504054077709252,0.4474069019524531
1718270149629274176,-0.0813693433984215,0.2090861446056043,0.1701487032633694,-0.2240200811122974,-0.4379680216476944,0.4638794549498948
1718270149630428445,-0.0694838183011568,0.2053711609372343,0.1513271059329384,-0.2806029222939171,-0.4714374447411089,0.4927963900023796
1718270149632650956,0.0390135501330529,0.2056760286386882,0.1650444802769839,-0.2910536011821644,-0.3786971821040092,0.3782538696950787
1718270149633911924,0.0407428076750584,0.2286197479730365,0.1088735210930488,-0.4232752577182619,-0.3183751327163592,0.46249772591073
1718270149633929126,0.0558351580146612,0.2712613559008979,0.0964928690601117,-0.5540828664749989,-0.4450946770629716,0.2263408106069152
1718270149635216864,0.039007777240352,0.3000754438757292,-0.0116336690183913,-0.8271222868438814,-0.5106106005353721,0.1657542324828507
1718270149635225690,0.1159971902260794,0.314378849998653,-0.0677020207209706,-1.0160472119387265,-0.4372456746868054,0.0571394633704101
1718270149636433411,0.0780762379694982,0.2988349512715141,-0.0822542078731349,-1.0772080786965674,-0.3467002188961045,-0.0756521181438011
1718270149637949192,0.0884133418102759,0.2812638703718105,-0.0203488060151705,-0.8601664893673553,-0.4269627258064303,-0.0027853135475284
1718270149639304402,0.105404813037958,0.3054648021780321,-9.399791285278832e-05,-0.9111645431895612,-0.4572569381907749,-0.1099514509431728
1718270149639326113,-0.0360276636824843,0.312471875781327,0.0509155265856953,-0.8425774832978807,-0.6475837764506369,-0.0012620654346043
1718270149640535240,0.026012733501662,0.3363451619228822,0.0092603258916143,-0.924601401029474,-0.4888926150635191,-0.0565242244993196
1718270149641870068,0.031893822419525,0.3165992355959137,0.0364561319019573,-0.8302215294158343,-0.4904204897392918,-0.1593976536983974
1718270149643245302,-0.0473509423966205,0.2492341827587429,0.0425717205987314,-0.6546048057501535,-0.4787661403054044,0.1676629432107039
1718270149643260436,-0.019915628289995,0.2534139726685385,0.0205266982317848,-0.6035821174613187,-0.314117940376615,-0.0256138987885067
1718270149644406006,-0.1036609207331412,0.2449729997086327,0.0535095457729449,-0.5369314272120055,-0.3699075921257716,0.1196519269055307
1718270149645632487,-0.0798212671726177,0.2123814268060651,0.0837869884890597,-0.4096380826174437,-0.2637016075340813,0.0984755202185143
1718270149646831282,-0.0152187834342284,0.2437026809073815,-0.0290792779034665,-0.6115494314653844,-0.1647576918527483,-0.1262641661512089
1718270149648095799,-0.0393481172259641,0.1507685496856664,0.0997651771590892,-0.2228428211229583,-0.1983521401490183,-0.0878506335232805
1718270149648109422,-0.0134309471070054,0.1477019513943994,0.0797946418564759,-0.3038946909414976,-0.1198574990562126,-0.0107395726327619
1718270149649355163,0.0529868264051665,0.2151293390243199,0.0684632260956527,-0.4051855126785215,-0.1071554436214582,-0.2232626914440651
1718270149650564616,0.0513121759850138,0.1934383839558367,0.0772977988008953,-0.3985711189392554,0.0593766967673874,-0.0709242594781103
1718270149651796794,0.0082866414931401,0.1623458683622397,0.0546027325159985,-0.3054350474428375,0.0723793500570187,0.0171489920600379
1718270149653453151,0.005797459976792,0.133025630028826,0.0583827783975297,-0.1731824310465718,-0.0682517241269513,-0.0631048273366421
1718270149656296620,-0.0138411825283491,0.0701502649787106,0.0915165059845485,-0.0089533380296829,-0.1303934911813482,0.1157871564433891
1718270149657603344,0.0144740402245795,0.0449210120943035,0.1061629494347775,0.1543613612585901,-0.1026755913956017,0.1476863377250294
1718270149657619235,0.020754023761495,0.0170032827652261,0.066279703065757,0.1438382469521577,-0.1635050849452788,-0.0136204958348402
1718270149658766609,0.0461044201244408,-0.025162942178424,0.1400449640656938,0.4404109425829472,-0.1961915996252514,0.0556831995113933
1718270149660050625,0.0084956794366547,-0.0614937388974566,0.1289232797038063,0.4900294841176948,-0.0845845641042761,0.0851140194105914
1718270149661350205,0.0300614180726884,-0.0983497310085396,0.0673688980860628,0.4558146970629558,-0.0130618845631997,0.1437921808321677
1718270149661357529,0.1553945874603488,-0.1181772158808803,0.0583302071225762,0.4861017379063477,0.0334155974480801,0.2096931116080142
1718270149662457988,0.0925054554077063,-0.1606661708246561,0.1019128061910136,0.6528245326789222,-0.0800735472252528,0.2734610809368036
1718270149663675613,0.1410917983303229,-0.1015967813324887,0.0445626188754163,0.4560831597859937,-0.1695411803323189,-0.0150348924141304
1718270149664892075,0.1617215744774124,-0.05811707929286,0.0822371772436025,0.4152999979311825,-0.0832881788286683,0.0598265211232343
1718270149666104474,0.1384643349864903,-0.0629026012244503,0.1250498438773323,0.474038478923047,-0.1395289438737913,0.0537482701827566
1718270149666112799,0.1023675439210905,-0.0960511826997623,0.0889818390680448,0.523775062347361,-0.1781017736741031,0.2158128226427132
1718270149667457043,0.1324804463754998,-0.0565360156108683,0.0807037434224051,0.4618012573853693,-0.2089000049756178,-0.0053130990474208
1718270149668544784,0.1573818285405255,-0.0480902368117737,0.1088401613908036,0.4337940759508308,-0.0990315480182697,0.1150199595868877
1718270149669761724,0.183056928896637,-0.0319539353535816,0.1472501181352711,0.4567995903920425,-0.1409997073163987,-0.0987811003756751
1718270149671012123,0.1084007912193522,-0.0145168343505883,0.1071942840029521,0.3525078129343657,-0.1990603634321178,0.094027615680117
1718270149672293043,0.1073828311705062,-0.011949015672458,-0.0419800500327472,0.1658821987426661,-0.2409381515244986,-0.0012201512725627
1718270149672301442,0.0355028024718264,-0.0528381804988134,0.0034595741371705,0.357051793922399,-0.3713120106324796,-0.1891695524774882
1718270149673489456,-0.0142862751460496,-0.0304232007146735,0.0015878005048697,0.2470243886880216,-0.4753470031115431,-0.0207614931019277
1718270149674737986,0.024535117744603,0.0543101704596374,-0.121963038287802,-0.1539705216947119,-0.5953120384796723,-0.0179050035120394
1718270149675937438,0.0532495456596076,0.0163037666547842,-0.1245007368496615,-0.1395443133586933,-0.6400041722448575,-0.1353140369275298
1718270149677213413,-0.0003415987069142,0.0072831700604106,-0.1106251589937784,-0.1292385078636726,-0.6999980060509584,-0.0100610292302397
1718270149677222612,0.0569024073833662,0.0211156273482192,-0.1667459172046431,-0.2331606717606513,-0.6961956726725886,-0.2626903834642671
1718270149678398111,0.1085754476297629,-0.0518640780652543,0.0038899571049023,0.1185265092169159,-0.6779610008518048,-0.4185182283914525
1718270149679616381,0.0581088192565243,-0.0370752207777177,-0.051218722678708,0.0296802059084266,-0.6940545183052413,-0.3923259572922948
1718270149680893927,0.028569285877162,-0.0207945561048861,-0.1373112877924032,-0.1074530779135786,-0.8417928374361308,-0.4983274412526502
1718270149682223238,0.0285334361560746,-0.0638980828588767,-0.1407026672203984,-0.1062289226532829,-0.798118983304126,-0.4818711910778405
1718270149682233771,0.0390707297109219,-0.04669488923941,-0.0820186984339768,-0.0296781963768755,-0.7594243535698781,-0.5107056753585306
1718270149683395804,0.020559212875276,-0.0433901008310447,-0.1921256490516535,-0.1990602516602531,-0.9088479682262908,-0.5925251266171397
1718270149684624712,-0.0005967865501161,-0.0642719181853293,-0.3376235872017135,-0.4903844995104635,-0.8295518990647227,-0.1913338358785091
1718270149685825387,0.1205449877840414,-0.0673332889420472,-0.3013974641968213,-0.4340357089376928,-0.6537547656945583,-0.279001486499761
1718270149687717062,0.0747868068131042,-0.0585852280349251,-0.3097704330027641,-0.4526806431425888,-0.623032066126315,-0.345620369216477
1718270149688959225,0.1007757899994847,-0.0931942038942638,-0.2949046344659579,-0.3443655261697725,-0.6081072169183528,-0.3094731500721582
1718270149688980861,0.0850380334567638,-0.1447579279841164,-0.2744058760470796,-0.191838564283394,-0.5978436883317203,-0.3579252995790424
1718270149690249302,0.0973170080002458,-0.1472592705565801,-0.2930496231533356,-0.1597799457667734,-0.563723944963945,-0.4102458616002816
1718270149690258772,0.0308745967606453,-0.1149558486313791,-0.4243010832466831,-0.3704288188567973,-0.5490740796858709,-0.1541367371205842
1718270149691567725,-0.0892882321275606,-0.1395155472579279,-0.3841131729495604,-0.2377429044844196,-0.6418691808142488,-0.0191815647138806
1718270149692797715,-0.0276560923051531,-0.1503716548803135,-0.2614772310767043,-0.0098268232323607,-0.5897010954586054,-0.0411646419803029
1718270149693990837,-7.059934696633519e-05,-0.1204917357893572,-0.3055664540597197,-0.116551058216442,-0.5682450614485868,-0.0709387880310166
1718270149695688313,-0.0118059267814649,-0.1200445373842551,-0.2439970548850646,0.0056743138682425,-0.5403800923430452,0.0047058794682624
1718270149695700535,0.0228723873334823,-0.1331340058968536,-0.1948510331937608,0.148951045048462,-0.4741728207647701,-0.0095491976207979
1718270149696872559,-0.0344091308123907,-0.1499842911592848,-0.1376095695597493,0.2965307348162699,-0.4437153134572967,0.1719128647170888
1718270149698146592,-0.0014592138654038,-0.2249571538780682,-0.113612239951783,0.4657384400487705,-0.3921175209096534,0.108177479115214
1718270149698200571,0.0426340562228446,-0.2356789385181316,-0.0172916335393844,0.7117986774749303,-0.2124743432553319,0.098044335047617
1718270149699436937,-0.0212235914282653,-0.2436461684833778,-0.0179161777485195,0.7461969055619815,-0.1201285238395491,0.535336452815784
1718270149703754378,0.0080429879913446,-0.2263565092813249,-0.0379629941856998,0.7220487105932457,-0.1983270465267768,0.4230605505750588
1718270149705483932,0.0534199941781167,-0.261957093283378,0.0301182474503433,0.9693721082588648,-0.0676643039931618,0.3087280035252356
1718270149705496996,0.064904742634599,-0.2185409774344778,-0.0504243150173931,0.8212068588331772,-0.1235771483883559,0.2050685338513623
1718270149705513593,0.0257277905554062,-0.2204262387727899,-0.0029945773909501,0.915414370548634,-0.1846064804093881,0.0251092387109911
1718270149705525834,-0.0231000502387464,-0.2636819740590149,0.1398003883941729,1.3311619726370931,-0.1564205906465537,0.1899556017935374
1718270149705538160,-0.0062582459958907,-0.2715942696172722,0.1792632139454623,1.37603473765361,-0.1789824119239454,0.0736713989162838
1718270149706402935,0.0020503042905633,-0.2663566710941568,0.2037877555893339,1.426115114213917,-0.2122616702080829,0.0635044144653074
1718270149707565989,-0.0073179252809991,-0.2527770013432648,0.1901507869796119,1.3597514358148983,-0.0677504019849102,0.2076372127719588
1718270149708746613,0.0348416325965361,-0.2026016979838962,0.1930991762876021,1.2219079216632391,-0.1025409947541802,0.0725856192701261
1718270149709950799,-0.0287098528005758,-0.1874536833934952,0.1896715304658145,1.2204166803058671,-0.1366905467398344,0.3150031697371185
1718270149711254219,0.0317059333757978,-0.1939830231555626,0.2335829832802078,1.2752428972962424,-0.00749064209229,0.2931361258668525
1718270149711267565,0.037616244122721,-0.1960504691914937,0.2512945165611132,1.2868679492915454,0.1044964070145465,0.2771397972384763
1718270149712404365,0.0519128825153103,-0.168342829442086,0.1645944706217409,1.026905200784351,-0.0107319778512049,0.1743130247196142
1718270149713607537,0.0922672461480086,-0.1438971696494137,0.0991480910504573,0.8971819418670509,0.043804348537898,-0.0552778308907925
1718270149714783836,0.0001469618987723,-0.166058949991904,0.1355598796753205,0.8735264038722308,-0.0283219568343906,0.0957565951973044
1718270149715986186,-0.0386576780783893,-0.1192832533870538,0.1331092673547284,0.6834164757790411,-0.1061226134143104,0.0184444348753422
1718270149717498831,0.0111161145408573,-0.0548841069356398,0.0541813336903591,0.4742409358092169,-0.1927193969859978,-0.263873384084788
1718270149717528197,0.0385476943669532,-0.0134348750901279,0.0956945796958031,0.3855734945795687,0.03005542046519,-0.0555440854118325
1718270149718414849,0.0834610365117776,-0.0293384095387079,0.1031390809785227,0.4373344408782859,-0.0680985305330049,-0.2633217475647707
1718270149719659176,0.0633655244438899,0.0318816109448568,0.1152769701185866,0.3495150709956717,-0.1850203286695217,-0.215691337460461
1718270149720838464,-0.0003688741874069,0.0669769044321096,0.0225608804890481,0.1043223714542438,-0.3810731952495745,-0.2675066366041845
1718270149722083447,-0.0084789700633474,0.1558846635725696,0.0404701563911091,-0.0619795813268322,-0.4146779349717848,-0.176546870753873
1718270149722093677,-0.0123481525748988,0.2149335991698182,-0.0307935756821915,-0.3425865003726857,-0.4334002136691416,-0.2505860961273294
1718270149723461800,0.0490291493177575,0.1824579041930634,-0.0546225749129438,-0.3527646434641588,-0.4499960764497574,-0.4189396407897269
1718270149724569960,0.1010536335379295,0.1514720590927712,-0.0324754197289485,-0.2997308936443101,-0.4381608303179738,-0.6301277378913158
1718270149725739403,0.0412874670410724,0.1178659248457742,-0.0866260853725482,-0.4048478952929333,-0.40519629815152,-0.4747211870330833
1718270149726935353,0.1091833724906755,0.1585858452721237,-0.1761981982165777,-0.6645976256206063,-0.4134419603859244,-0.6945776590045045
1718270149728223860,0.0908422701030034,0.1488144600632125,-0.1083605468261956,-0.7061793465096976,-0.3573488953252973,-0.6936303757978383
1718270149728234664,0.0447358823773504,0.1431770939244736,-0.1311079945036989,-0.7446189845177804,-0.5113943899108979,-0.5422950139221983
1718270149729397002,-0.0100388380744436,0.2203104261823122,-0.2421147534689543,-1.00773360376898,-0.6268657640063707,-0.588327641718333
1718270149730613862,-0.0135217473270194,0.1682734205847852,-0.1458391153056676,-0.8030205927122753,-0.5027102075921084,-0.2906569024238296
1718270149731781453,-0.0560905678281699,0.1984476200063168,-0.1412528487445434,-0.8851028872746383,-0.5985139475219672,-0.3179094435839044
1718270149732981198,-0.0655463552712087,0.169077900343479,-0.1631554799122875,-0.8314366643372599,-0.767489537578673,-0.4872839891689189
1718270149734303101,-0.1161858244642934,0.2378805542778815,-0.2267311422199886,-1.1761431927225403,-0.8089332066382778,-0.3300963261774094
1718270149734311642,-0.048592534828416,0.2115760963054901,-0.1723741237012983,-1.05458532990267,-0.7831798554223851,-0.3338287998041804
1718270149735517472,-0.0110807170235648,0.2679628120309878,-0.1947356969190979,-1.145677325600466,-0.7870799905624707,-0.443289828786292
1718270149736742157,0.0149784638947103,0.2177181127205296,-0.1351699630595747,-0.910240693993864,-0.7350042864875823,-0.5568961811172163
1718270149737913424,0.0404330535190798,0.1115324856365792,-0.1284821393511697,-0.6619634370142089,-0.7380485357237998,-0.6918280084205572
1718270149739517970,0.0324565998600677,0.1223044496608852,-0.097724665542023,-0.5948124893213902,-0.5760963532145265,-0.4175592032755782
1718270149739548750,0.0083725643303609,0.1910223648409162,-0.1476342881505847,-0.8178394768482526,-0.6642918798588427,-0.4483865014249951
1718270149740738179,-0.0111911224603099,0.1735925430223827,-0.1197767185126765,-0.6855619755587449,-0.6720697294500102,-0.3928741030703838
1718270149741958101,0.007361229178696,0.1134882691452837,-0.0947696789182742,-0.4622827360183854,-0.6508515584575113,-0.3472191129841874
1718270149743231528,-0.0059377121610957,0.0983707911412391,-0.1616417649667511,-0.437571736768233,-0.6646064522889913,-0.204575174920033
1718270149743245174,-0.0140955939712197,0.0458982634559737,-0.0617284985584204,-0.1529555386299007,-0.633693450475532,-0.032090152091244
1718270149744363665,0.0721280082831108,0.0084118814799836,-0.0059764697137073,0.1151513822470018,-0.5867024726814851,-0.040197800119237
1718270149745595343,0.0295974908892389,-0.0443619966158993,0.0649097648465156,0.381088242159158,-0.6656653709144916,0.1426678455623078
1718270149746808603,-0.0447254326741719,-0.0089180864481905,0.0405450265555248,0.2750335084625395,-0.7584058964535921,0.1289259371162616
1718270149747982673,-0.1262221926944406,0.0019683230403671,0.0272398456253609,0.1792257488555187,-0.8357092147386337,0.2597535823311584
1718270149749298543,-0.036969869435084,-0.0375771540746613,0.0563193855198259,0.4059574596053465,-0.7126482735757742,0.1830358427364808
1718270149749305463,-0.0789926604876475,-0.0244967904671805,-0.0077355547028286,0.2637698663480641,-0.6239645854274438,0.3133571894180276
1718270149750458984,-0.0720399651184817,-0.0570676886024443,0.077006049248383,0.479647662720828,-0.6446056537773354,0.2810559744349619
1718270149751690350,-0.0145882680101654,-0.0790609784617893,0.106449592963264,0.549244309123043,-0.6875294950753159,0.2922142328963924
1718270149752974286,0.0011478543063393,-0.02196779950843,0.0426352639048301,0.3333313864375715,-0.7589417827794867,0.2262033808556467
1718270149754230501,-0.0453210815354001,-0.0154673595943709,0.1635795899034294,0.4729201037113227,-0.7746575216127576,0.3646283347198344
1718270149754240990,-0.0173466274557196,-0.0281130975087028,0.1815400447905517,0.5746662785807165,-0.6354103271689769,0.3204728717729901
1718270149756026228,-0.1027207519453226,-0.0080284827157031,0.1786078437198307,0.54681039504365,-0.7043330744990903,0.4565486915158539
1718270149757354535,-0.0660788440102197,0.0124333587065264,0.2183805408199783,0.5737036987396815,-0.7028929929208498,0.5237409841900595
1718270149757366096,-0.0229104472053035,-0.0067802020121554,0.1706135966559518,0.5714169785540121,-0.5646360370012563,0.2540546348804358
1718270149758539843,-0.1104395771656196,0.0358506378130137,0.1961951795244109,0.4724206308413545,-0.6229537204859378,0.3901663372267889
1718270149759507646,0.015432798527726,0.0698741101504013,0.2250178773080358,0.4022150422427776,-0.560796388803732,0.336902468969118
1718270149760680538,-0.0021899018798697,0.0495766954755198,0.1638931156493715,0.3435006708785393,-0.6046463480971745,0.3847664438601914
1718270149761902439,-0.0076248263959919,0.1028846069305938,0.141876050313553,0.1072468826892867,-0.6579863745904457,0.3141351206235127
1718270149763200450,0.0120294845935072,0.1330402939061824,0.1031888617319176,-0.0368548546109232,-0.5508239719518087,0.2925724349728681
1718270149763265677,-0.0356319432037021,0.0553746082234867,0.1944001745233097,0.1449092091965062,-0.5774883548957532,0.3341065880817693
1718270149764355933,0.0249571786989691,0.0442974739287527,0.2460743581559817,0.2338379269540953,-0.4490895456581218,0.2349995756150869
1718270149765576083,0.0420319601717249,0.1166624770781924,0.2041879455682237,0.0227125354376558,-0.4198246239966296,0.1915694460180659
1718270149766773431,0.0386893776742054,0.0775534990250453,0.1805470425103487,0.0326702114044808,-0.3500429390469128,0.0613278393834427
1718270149767978370,0.0233860434353664,0.0581911082118917,0.1114146690335661,-0.0859657150171259,-0.4057924063623968,-0.0938963095315206
1718270149769351720,0.0393903552027765,0.0654030031411355,0.0821527509776568,-0.0917569549194181,-0.481040548681357,-0.1089706259971898
1718270149769406907,-0.082996371226437,0.0469123263117742,0.0678991011150723,-0.0870311872010558,-0.5313272189502386,0.0073661113148463
1718270149770396017,-0.0440064164039167,0.0763180342297721,0.0588181765464672,-0.2246543785527817,-0.414836284763706,-0.1715250778100508
1718270149771581896,0.0555793394310969,0.1103728777976698,0.0141631198187822,-0.3765614092365195,-0.481773262793124,-0.5130317917811201
1718270149772759238,0.0733871519925887,0.1787985220207372,-0.1088837376516873,-0.6774644257734961,-0.5532708471060449,-0.6022132491678913
1718270149773960919,0.0729298610873618,0.0803621666530481,-0.028629203969192,-0.3518245445286437,-0.3547605879231841,-0.3903436741203149
1718270149775310879,0.1101044306649008,0.0010377559868198,0.0381589777700297,-0.0530745798245703,-0.4047210100280766,-0.5039283289154592
1718270149775331512,0.0051939940154682,0.0665571627447539,-0.1095620901038264,-0.3824083750333166,-0.4853147789748085,-0.6255174204384173
1718270149776377698,0.0788627361606918,0.0105224148199428,0.0335965239725566,-0.1060657581404596,-0.3016329627718686,-0.5802217900876923
1718270149777598910,0.0722207009622495,0.0755975144769065,-0.0212696768309459,-0.3382902779404741,-0.4212530777517007,-0.7356696735509503
1718270149778790962,0.0604140908731612,0.0806956746804496,-0.0629810032610291,-0.3775066564991432,-0.4818733731353217,-0.8385974457981158
1718270149780014134,0.0230982053012977,0.0778446657435689,-0.049893316714347,-0.3059545495037906,-0.4963738171561189,-0.6819846967504454
1718270149781332527,0.063471776727514,0.0048550911454554,-0.0100204147678372,-0.070877319341548,-0.4504735136397814,-0.6206545793780516
1718270149781368472,0.0103879877598086,-0.0231267133867312,0.0107747787713276,0.087139537135846,-0.4340560302940889,-0.4252146715114038
1718270149782545015,0.0317562852621186,0.0404560636815158,-0.1230900830635927,-0.2142706323555168,-0.4615878329904142,-0.3233486610079583
1718270149783788883,0.0197582589571283,0.0283600450907169,0.0208367836495166,0.0333432164625486,-0.5982922185568393,-0.2790467953018493
1718270149784958267,0.0272632403200742,0.009675213786212,0.0861699359430136,0.1863249942050712,-0.4161515847115453,-0.2083772207391708
1718270149786300885,0.0921170981701646,-0.064343118654428,0.0754747935301031,0.3379610288253301,-0.4048984523374696,-0.3896099551127299
1718270149786313110,-0.0013433112390325,-0.0714276125452985,0.1077788340014234,0.3874061190267242,-0.393059086008589,-0.1970899314391267
1718270149787414709,-0.0017561752612537,-0.1323458029408902,0.1659849823182738,0.6392326505562127,-0.5039897686689568,-0.15959595504466
1718270149788627749,-0.0046048651494414,-0.1649391797475863,0.106693865681556,0.7242843953029212,-0.5878473276189755,-0.240824039108378
1718270149791646818,-0.0067006206347812,-0.1900520864338719,0.1119002916425055,0.8596426194181126,-0.4888318536965459,-0.106215694693859
1718270149791653384,-0.0434395319785512,-0.2103261918272887,0.1553593796297226,0.926814408817946,-0.5817736680618607,0.0443415114256879
1718270149791681362,-0.0072423622238662,-0.2173852787631141,0.1087475793918063,0.8266250711259807,-0.498159197965215,0.234470941798508
1718270149792601038,-0.0033388071984111,-0.2318291306222746,0.0761367912390503,0.883918889151021,-0.5889548318412285,0.2194772656896686
1718270149793870265,-0.0664800673874871,-0.2457107841604987,0.0581697194121076,0.9517558446357852,-0.6074651963881912,0.291772307183296
1718270149795250546,-0.077349630119032,-0.3173297681155914,0.2060591431500473,1.3137709414436651,-0.5970698891329762,0.4302182772267515
1718270149795277746,-0.1248837367531396,-0.2623321315033521,0.0234604223322365,0.98876587290889,-0.6234676234230628,0.5179360947812683
1718270149796298051,-0.0786804785408137,-0.2793562575316854,0.0935061368081757,1.1833894521554271,-0.6108730550516069,0.4523506791459891
1718270149797507909,-0.1181338517972593,-0.2531240202148479,0.0777443010533095,1.0423367567747404,-0.6455638856827276,0.6091446996902518
1718270149798690874,-0.0747580063179843,-0.2382454613538364,0.0998442384797686,1.0690312349403357,-0.6535030335457856,0.4997807882857483
1718270149799972323,-0.0927330975366229,-0.2207755741942864,0.1148370564594134,1.1753408216404009,-0.6013988849226106,0.6016589964421886
1718270149801328161,-0.1879429928386157,-0.2111804790701613,0.0170280209360099,0.9252169886818368,-0.570622551539048,0.8778841361699362
1718270149801338830,-0.0728730901257938,-0.2536384834745973,0.0152801555031786,0.9900787810017316,-0.3984461812068093,0.6149258343081031
1718270149802564896,-0.0104028751609957,-0.2030543715226805,-0.0997341429440216,0.7394612900957641,-0.3223316341026816,0.53808274039548
