%time,field.linear.x,field.linear.y,field.linear.z,field.angular.x,field.angular.y,field.angular.z
1718270149366065633,-0.0022420014548513,0.0111180291272247,-2.333791892575668e-05,-0.2080310607551882,0.2559451402936761,-0.0735806672700597
1718270149366076982,-0.0020665817930899,0.0115562397910914,-0.0002162468412923,-0.2097537574669597,0.2555209564972797,-0.0749161598300292
1718270149367291780,-0.0015585445601425,0.0118747194962174,-0.0005772001124177,-0.2113296307243388,0.2553969414029398,-0.0766575603078313
1718270149368512876,-0.0009548128844199,0.0120455821726468,-0.0007228780320155,-0.2120267022280117,0.2549627412321283,-0.078236345298846
1718270149369735493,-0.0006771153629085,0.0119509161292353,-0.0007327151706968,-0.2119870461603601,0.2544590573904328,-0.0792528140560433
1718270149370930950,-0.0002604430357703,0.0118934386589988,-0.0004832555970228,-0.2119197411519456,0.2537937352673811,-0.0809711503891951
1718270149372234614,-0.0002024120480137,0.0118482937695682,-0.0004964868876904,-0.2120294826666621,0.2531288689725275,-0.0819571486969939
1718270149372271835,-0.0004014754187566,0.0113244336083033,-0.0002752123422035,-0.2109878874472385,0.2524448127145424,-0.0825621232778515
1718270149373406924,-0.0008910113296686,0.0106866984273745,-4.254700516903576e-05,-0.2097899269618398,0.2514219735836355,-0.0832745879895772
1718270149374620126,-0.0013714958946173,0.0103072897192339,0.0001558975449988,-0.2093847773191147,0.249534726676997,-0.0849082651911885
1718270149375785030,-0.0020467108371432,0.009977917530923,-9.342540389069288e-05,-0.2097120433996004,0.2475734558210365,-0.0860054489237561
1718270149377008327,-0.0026273151419582,0.0094942837217808,-0.0003771391600103,-0.209438184764585,0.2457778762516874,-0.0874573331893625
1718270149377015826,-0.0031690923207515,0.0090843032825914,-0.0006991830991812,-0.2092520005780337,0.2441532647384866,-0.0889417658829262
1718270149378245437,-0.0035451808555958,0.0085488030301099,-0.0011768079337854,-0.2089883528633316,0.2426628062728753,-0.0902392357592659
1718270149379521049,-0.0038815183031337,0.0081271766684714,-0.0014961106398219,-0.2086410152069561,0.2413114136155155,-0.0912185271305771
1718270149380816215,-0.0044484373770095,0.0076743203430706,-0.0017342995299175,-0.208020608854949,0.2399258868457864,-0.0915380451468265
1718270149381946182,-0.0050304357983459,0.0070504514545046,-0.0019333125358463,-0.2067919886409161,0.2386611230375243,-0.0922054799187864
1718270149383262062,-0.0059380219593887,0.00620994335572,-0.0020140446855879,-0.2050360064711684,0.2374662605128521,-0.0923643278216983
1718270149383273591,-0.0065121630509067,0.0054081126205025,-0.0021065832713667,-0.2033066166991441,0.2363880670837252,-0.0932582976512828
1718270149385424544,-0.0068029931288453,0.004512476690326,-0.0024672841074014,-0.2020315263545235,0.2359135785526968,-0.0936507636981564
1718270149385457169,-0.0073808864253635,0.0035393315378691,-0.0028691973765554,-0.2005952943944039,0.2353083659204696,-0.0938457371668075
1718270149386576812,-0.0079354923169301,0.0026966158546539,-0.0032973382273539,-0.1995062701639529,0.2340169552232781,-0.0941349271011443
1718270149387796033,-0.008176677812395,0.001689119675223,-0.0035421057048664,-0.197771149041331,0.23306740205206,-0.0944325298472266
1718270149389007242,-0.0085283518202704,0.0004432177655054,-0.0035558186099491,-0.1949824147941641,0.2324386402106841,-0.0940991499185676
1718270149390422040,-0.0087947373112863,-0.0004673657071849,-0.0035949399498555,-0.1928447057804741,0.2319783000419133,-0.0933049345137649
1718270149390459297,-0.009217703809989,-0.0012260371790326,-0.0039754132739417,-0.1919071376329066,0.2315659627420575,-0.0919724070645068
1718270149391400234,-0.0097699726131983,-0.0019824313289462,-0.0043503851916662,-0.190877129913121,0.2306992713012826,-0.09071932453071
1718270149392724521,-0.0102383806704828,-0.0029680412717189,-0.0042880971120111,-0.188820815057785,0.2301129561577729,-0.0895208760646874
1718270149396671228,-0.010846631394041,-0.003951525360589,-0.0044574504446564,-0.1870854572631966,0.2297144150735324,-0.0879832713845804
1718270149396702184,-0.0114200273480367,-0.0048521702144962,-0.0045775984063855,-0.1851452316092276,0.2293407467734457,-0.0869395885698664
1718270149398015244,-0.0118693557709092,-0.0055771872983069,-0.0049619511808645,-0.1841892474497634,0.2290668706486389,-0.0865041386388474
1718270149398023334,-0.0120423811687066,-0.0060912508750896,-0.0056720679410893,-0.18425311917079,0.2288830279896362,-0.0873184356359613
1718270149398034202,-0.0121915351226398,-0.0068467273671271,-0.0059914315071253,-0.1833702410112906,0.2286808490517841,-0.0884272944650443
1718270149399081032,-0.0122874180608135,-0.0076500122436046,-0.0064710317302335,-0.182773382672522,0.2288517407805738,-0.0890965562816153
1718270149399100776,-0.0124772506207951,-0.0082275265748876,-0.007190746763895,-0.1827781435081704,0.2293000955949325,-0.089651797627728
1718270149400440121,-0.0124395034459982,-0.0087132736147691,-0.0077720925829042,-0.1829827625008396,0.230517824365853,-0.090043578821857
1718270149401609900,-0.0128650756135371,-0.0090422023982321,-0.0082306418539862,-0.183191547725849,0.2306657211911892,-0.0902533404476534
1718270149402875270,-0.0130161197740098,-0.0093560658756427,-0.0086660171564332,-0.1831498886046162,0.2306967032921655,-0.0913688187382119
1718270149404060134,-0.0131954849713632,-0.0097720528024818,-0.0087919190867502,-0.1823911899538925,0.2307323602343542,-0.0925543530411835
1718270149404082073,-0.0134155263100706,-0.0099644941075516,-0.0087874036729039,-0.1818949958863517,0.2305483407334197,-0.0939624379792119
1718270149405296117,-0.0134706456454975,-0.0100054100100152,-0.0088979135902564,-0.1817159401882788,0.2309278578387226,-0.0951143279842227
1718270149406544070,-0.013423534916359,-0.0098501873306868,-0.0090796493406171,-0.1821136191357683,0.2309945500754317,-0.0962820952658387
1718270149407783459,-0.0134428596880172,-0.0097068845656505,-0.0092005001108832,-0.1824980184241404,0.2310874618846102,-0.0973349885805765
1718270149408971082,-0.0134186771269845,-0.009334627906609,-0.0094537455393405,-0.1834131941534047,0.231035272452216,-0.098138414032473
1718270149410244240,-0.0137109949736623,-0.00891727221941,-0.0094765858259284,-0.1840842337364948,0.2308329516854547,-0.0994475189639436
1718270149410253022,-0.0138700441413832,-0.0088744085244394,-0.0088204299263484,-0.1830431445098107,0.2311075516323372,-0.0999347038056201
1718270149411430822,-0.0135792854331989,-0.0087403648302132,-0.0084689069025278,-0.18269340957261,0.2316978854403978,-0.1010515363462477
1718270149412644103,-0.013699317849889,-0.0083149556771177,-0.0080567779129588,-0.1828240775624847,0.2317909139644111,-0.1011880620478145
1718270149413892636,-0.0137268742610662,-0.0079281932722181,-0.0074136752877711,-0.1824716969259616,0.2316616691869669,-0.1013649601587605
1718270149415138408,-0.0139074900701476,-0.0075308466819868,-0.0065413216213129,-0.1816872491881268,0.2314513876102614,-0.1002397096704451
1718270149416377114,-0.0138599206046376,-0.0073372983718278,-0.0054182075907839,-0.1802396217234061,0.2316700020481836,-0.099919988165559
1718270149416385969,-0.0137759615329222,-0.0071278249989541,-0.0043768592816848,-0.1788382860146346,0.2315972583087537,-0.0996628419994168
1718270149417550323,-0.013700818637179,-0.0069789239277483,-0.0032419320004159,-0.1771862691210705,0.2313939827210945,-0.0995684299672672
1718270149418772116,-0.0133934825730977,-0.0066132985417032,-0.0024206814455402,-0.176535176559848,0.2309401057712793,-0.1001139635972129
1718270149420006427,-0.0131717119740739,-0.006420996608947,-0.0015638462256553,-0.1756430433548393,0.2310773055887441,-0.099644790829616
1718270149421497423,-0.0128611009956705,-0.0062869765699236,-0.0007938470108509,-0.1747452383092693,0.2310781269254089,-0.099956118980679
1718270149421507482,-0.0124001134387734,-0.0062757798652682,-0.0003187906430794,-0.1741930649756847,0.2314765548208734,-0.0996327402775544
1718270149422418518,-0.012349774047802,-0.0062566555587892,0.0002281328831138,-0.1737833286509981,0.2316556959372776,-0.0987290706345246
1718270149423943771,-0.0126782554834036,-0.0062000248447767,0.0006274892502607,-0.1738064884179666,0.2316745447148402,-0.0968114231103416
1718270149425237425,-0.013152278288282,-0.0060758410635237,0.0011083090343816,-0.1734127992557522,0.2315660842045627,-0.0946264060513241
1718270149425256940,-0.0131795847955504,-0.0061965940894226,0.0015963406253131,-0.1726122939752322,0.231878978842306,-0.0930388045528226
1718270149426447538,-0.0133073037901478,-0.0062743816607834,0.0019088162197989,-0.1722665488104987,0.2323728232342102,-0.0908070304245335
1718270149427717842,-0.0134813929997636,-0.0062666666308641,0.0024025601763334,-0.1714258677426168,0.2325555318417769,-0.0889600795205
1718270149428920117,-0.013503064353041,-0.0064896219226413,0.0034186332549261,-0.1694171126399479,0.2325229450234822,-0.087239506858583
1718270149430182227,-0.0136882101342618,-0.0066995907366582,0.004265281913596,-0.167765691189739,0.2323544288880731,-0.0848383648411923
1718270149430197978,-0.0141531153919444,-0.0068815328686894,0.0043776278012441,-0.1671665239359623,0.2321341964343671,-0.082523756773883
1718270149431345764,-0.014538078330038,-0.0072417471087764,0.004929850592778,-0.1655204975073458,0.2318146261520703,-0.0802692789047768
1718270149432581823,-0.0148386684337516,-0.0075552762867874,0.005249822838362,-0.1643051173079945,0.231602688546801,-0.0780861000613074
1718270149433811156,-0.0152342547735019,-0.0077317887004053,0.0054357347637048,-0.1637465815482639,0.2307042947100079,-0.0765580470613576
1718270149435537145,-0.0154670003105591,-0.0078044914587824,0.0056160492862289,-0.1635056195581024,0.2305632177886195,-0.0747610205125811
1718270149435555380,-0.0157749404096165,-0.0079236490821598,0.0055894556291803,-0.1633628860395864,0.2298219301293022,-0.0737621646591068
1718270149436551014,-0.0158480403871103,-0.008119510921329,0.0053865842286232,-0.1634559018496314,0.230122601372598,-0.0718767090947415
1718270149437819327,-0.0158129862623647,-0.0083007673769121,0.0052926747080339,-0.1635818586594997,0.2307655032291198,-0.0700848420990082
1718270149439023865,-0.0159270253136178,-0.0084270313020067,0.0048109663049258,-0.164575598268625,0.2309742022277982,-0.0683441197563863
1718270149440232773,-0.0158873742054827,-0.0083983585871859,0.0039667781046282,-0.1666928090491399,0.2309538534045143,-0.0670119836214778
1718270149440246367,-0.0156242903969402,-0.0082751040110961,0.0033703641753322,-0.1686355729910374,0.2306752654913886,-0.0667444069389203
1718270149441481686,-0.0156396058293715,-0.0083261931866823,0.0033204696531872,-0.1696649379738291,0.2304280748859921,-0.0658845136278217
1718270149442654493,-0.0155840378542671,-0.0082840426540398,0.0031254793808831,-0.1711025362315186,0.2306850718068398,-0.0642434310602166
1718270149443904069,-0.0154566300125727,-0.0082587958618723,0.0026647818461935,-0.1729477294434932,0.2305242444669837,-0.0633270644464594
1718270149446437252,-0.0150902928492,-0.0082490375488855,0.0022899929684621,-0.1745991126587162,0.2303090232773782,-0.0629497608295861
1718270149446454265,-0.0148842186812251,-0.0079973552175871,0.0013768683518665,-0.1777188945918484,0.2297880985142073,-0.0624960927119292
1718270149446483949,-0.0147981009548335,-0.0078549334941368,0.0007938534280861,-0.1803148175205085,0.2287515125339157,-0.0627518071423616
1718270149447480274,-0.0144935120794873,-0.0076586289126912,0.0001664713580088,-0.1827457974192032,0.2285424958458889,-0.0627904351670186
1718270149449307712,-0.01443756788992,-0.0074061895994063,-0.0003631737374813,-0.1847001198054063,0.228700546562667,-0.0619866132122535
1718270149449316443,-0.0139210433489071,-0.0068271650823232,-0.0005726144202208,-0.1867538546364813,0.2295483480046863,-0.0617467181541258
1718270149450575521,-0.0136408557677318,-0.0064545475436011,-0.0008562195221043,-0.1884229723027921,0.2300803935251629,-0.0615310712955837
1718270149451829839,-0.0129732923595649,-0.0060605472272381,-0.0008811110960831,-0.1893410255381026,0.2301496613259668,-0.0626090536559617
1718270149453032843,-0.0123479319061861,-0.0055722448901769,-0.0011070027015764,-0.1909665664540984,0.2298935054367085,-0.0646979017184621
1718270149454254908,-0.0119577153526337,-0.0049379375782996,-0.0011586867415151,-0.1924086579179434,0.2295350269480916,-0.0664113914105677
1718270149454267805,-0.0117587646224487,-0.00422252588293,-0.0013206480701611,-0.1941974529551945,0.2296252272370258,-0.0680114786819745
1718270149455478012,-0.0113579214155835,-0.003634496120912,-0.0016845494610052,-0.1960085550266929,0.2293796459537735,-0.0706518273282907
1718270149456716299,-0.0113488382248927,-0.0030937350932557,-0.0019361886171278,-0.1973688983991531,0.2291287561978469,-0.0725937502122801
1718270149457975629,-0.0114466161601823,-0.0024125273142665,-0.0021159280157222,-0.1991200684806485,0.2286629208235339,-0.0738631213782112
1718270149459321122,-0.0117150245476115,-0.0017930215038123,-0.0022542027432967,-0.2007539726346437,0.2287318396616952,-0.074960462187967
1718270149459334234,-0.0121793413505349,-0.0012739883487931,-0.0021606841326751,-0.2017905721675418,0.2291237842283,-0.0755105115541044
1718270149460493682,-0.0124973205472138,-0.0010241084703219,-0.0019989364582331,-0.202160719467787,0.2297584773882696,-0.0756406632173393
1718270149461726986,-0.0127498122732685,-0.0009491362381191,-0.0014332617787572,-0.2014122791702607,0.2300741922062013,-0.0757588909826713
1718270149462994160,-0.0130067666194512,-0.000843385506464,-0.0009360079717445,-0.2006307994017854,0.2300589236319588,-0.0756028233377144
1718270149464170341,-0.0131432098366469,-0.0007669870395358,-0.0003294879972598,-0.1997307244158167,0.2304165203137823,-0.0753693938242028
1718270149464179360,-0.0133198918700109,-0.0006194124861038,0.0002436607753352,-0.1993260926320917,0.2309812739519016,-0.0748940341412616
1718270149465405546,-0.0134890726731121,-0.0006106211268518,0.0007055666472199,-0.1985095632624593,0.2311327431792051,-0.0744076734414501
1718270149466690518,-0.0138391498100562,-0.0006862141757843,0.0010841786723749,-0.1976703882068251,0.2316549994402152,-0.0736276135427594
1718270149467894761,-0.0140740337367009,-0.0008094254945887,0.001731343513289,-0.1962703786880597,0.2326853180858886,-0.0721645286765559
1718270149469129472,-0.0143159842204348,-0.000940624658325,0.002192446827525,-0.1951579613055227,0.2335580244997067,-0.070883601251029
1718270149469156451,-0.0144625290178238,-0.0012110919393849,0.0026538456200565,-0.1940700280553382,0.2338574261703164,-0.0702033354380084
1718270149485147426,-0.0144769917675439,-0.0016991905046932,0.0029165627153932,-0.1926809165679087,0.2337723926702011,-0.0694324352399306
1718270149487511860,-0.0142878366776092,-0.0022871045486411,0.0034072118489719,-0.1902387109219007,0.2340616207046593,-0.0692531444986422
1718270149487518549,-0.0143864217197157,-0.0027319020405955,0.0039705121315324,-0.1880538933797337,0.2339725276203675,-0.0688023996763128
1718270149487523570,-0.0144931717027232,-0.0032264784849177,0.0044590297592571,-0.1858370062768849,0.2341876750030764,-0.0682630486425634
1718270149487541786,-0.0145674006818949,-0.0036285694035295,0.0050279356854508,-0.183390190526798,0.2339827348383001,-0.0680087742335985
1718270149487554595,-0.0147504247499655,-0.0041019642731885,0.0059199555851398,-0.1800809743336905,0.233556707958071,-0.0677219992927876
1718270149487562881,-0.0149302755388829,-0.0045973840841069,0.0070229443414606,-0.1762318362920589,0.2330453993256375,-0.0681027994180762
1718270149487573021,-0.0151140307063224,-0.0054079047234374,0.008531294465676,-0.1709844937422286,0.2321907314529554,-0.0682463959536474
1718270149487579020,-0.0152580449090433,-0.0060898520073749,0.0094058077257201,-0.1671165306779571,0.2314274306280662,-0.0684972192503633
1718270149487599769,-0.0152820398760131,-0.0066792421732517,0.0101144731512643,-0.1638932254228841,0.231203169984957,-0.0689313306018861
1718270149487608286,-0.0157693182201821,-0.0071525240425397,0.0106214185124468,-0.1612500768064103,0.2303344728400842,-0.0688071805326543
1718270149487615493,-0.016343083438787,-0.0076088889140853,0.0111399865382265,-0.1587002638216328,0.2291377187826856,-0.0687354676165202
1718270149487633133,-0.0169579449071331,-0.0081433330795026,0.0116943796977199,-0.1560006553087247,0.2279652955857564,-0.0682035148816408
1718270149487646794,-0.017304157658391,-0.0086037869785886,0.0122333926495245,-0.1533087572676346,0.2271908898746664,-0.0687002804492556
1718270149487656321,-0.0174513360540657,-0.0091173965055379,0.0127201205549316,-0.1506844354576421,0.2267281141663086,-0.0698297530743332
1718270149487689808,-0.0175702195945312,-0.0093495854706473,0.0131223282532004,-0.1488087488382547,0.2258368131073687,-0.0709808336262415
1718270149487711565,-0.0176417481125442,-0.0093722117509911,0.013309926019397,-0.1478724733970423,0.2251716030338006,-0.0715491799074355
1718270149489468551,-0.0175756300690939,-0.0094130957912178,0.0133685408428749,-0.1470320465708736,0.2247452461696272,-0.0717341761463698
1718270149489474502,-0.0173905212724733,-0.0096706754300435,0.0131331614858499,-0.1464984348549144,0.2245056067042368,-0.0713903802384093
1718270149490956266,-0.0172822681207603,-0.0099858982938783,0.0128469797238654,-0.1459798258113231,0.2244835369904379,-0.0718622386781066
1718270149490995799,-0.0173843266841758,-0.0101801882172596,0.012651680891913,-0.1457341496731757,0.2245332741271754,-0.0719079569664356
1718270149492100387,-0.017340762185099,-0.0102388323275342,0.0123883343220946,-0.1463820949721557,0.2245068149286433,-0.0715865442089818
1718270149492114278,-0.0174680305575917,-0.010444000245194,0.0119609918897752,-0.1469740411938427,0.2238364695971061,-0.0714461377114796
1718270149493384561,-0.0173464162212173,-0.0104883754799356,0.0112788907896503,-0.1486296447402585,0.223299385584206,-0.0717699688541088
1718270149494448879,-0.0173385548792322,-0.0107211798363348,0.010816469920116,-0.1493645071467218,0.222408535146266,-0.0720583597228554
1718270149499036019,-0.0171199781747107,-0.0109654502089085,0.0105146564594717,-0.1498829067490357,0.2219142811121482,-0.0724295562636627
1718270149500738865,-0.0168509241824563,-0.0108465795278797,0.0094818032626446,-0.1522868633289651,0.2215844666863878,-0.0722514131269091
1718270149500753085,-0.0171272862839849,-0.0108489568974985,0.0083866881157666,-0.1546095460866116,0.2209114930724071,-0.0715851545345025
1718270149500774960,-0.0174509665124256,-0.010944161136281,0.0076908431452388,-0.1557854726050942,0.2201187425755372,-0.0707569157190078
1718270149500787350,-0.0174538195200434,-0.0110261756920003,0.0066072661282084,-0.1575079906704357,0.219617248847169,-0.0707368401189212
1718270149500806271,-0.0171662136158565,-0.0110718125108361,0.0056485934907287,-0.1592959097139264,0.2194757349042262,-0.0710693116177711
1718270149501562681,-0.0168137149999303,-0.0111074447662703,0.004239429331524,-0.1620787177902324,0.2195419047579037,-0.0712146177051352
1718270149502307455,-0.0163450666959009,-0.0111352026817651,0.0029533837956911,-0.1644223110920256,0.2198041668327207,-0.0714904274765589
1718270149503674558,-0.0160333253905223,-0.0112703699613787,0.0020264596888994,-0.1660004300493092,0.2197850255457416,-0.0720575556199655
1718270149504865218,-0.0158225597634436,-0.0115214723880671,0.0012304830266236,-0.1673219927617817,0.2193981254728528,-0.0721201218711369
1718270149505816341,-0.0156550597605003,-0.0117001194659658,0.0004832861355341,-0.1685675779934639,0.2191692170762711,-0.0726113906865472
1718270149507109798,-0.0154885796703677,-0.0119768388555961,-0.0001551940491128,-0.1695702563977109,0.2192579250967562,-0.0727009742394106
1718270149507222345,-0.0152861204769224,-0.0119989385572736,-0.0007887630664764,-0.1709533724010158,0.2194628585291649,-0.073148142106439
1718270149508443136,-0.0155221520588783,-0.0118329507939458,-0.0013780938512185,-0.1725463231476034,0.2194218552074365,-0.0728219694857301
1718270149509597764,-0.015821344201438,-0.0118187172209807,-0.0016245134010001,-0.1731136180370548,0.2191316470713157,-0.0722537250991968
1718270149510909887,-0.0160060627695542,-0.0120583674609823,-0.0016741765266895,-0.1726657483826382,0.2191182647967114,-0.0718981317621536
1718270149512120809,-0.015951891836108,-0.0121044667713192,-0.0017551569453003,-0.1725692838665655,0.2191595512720523,-0.0718006244638099
1718270149512128536,-0.015833706530282,-0.0122176213953098,-0.0015331623724991,-0.1719636747254913,0.2192723047888228,-0.0713536491539648
1718270149513387989,-0.0156117758124402,-0.0126238830363822,-0.0013044483821554,-0.1707880745767034,0.2195251433372791,-0.0707086790120237
1718270149514573371,-0.0154463133526053,-0.0129315061398584,-0.0012407814791914,-0.1700325167594932,0.2198244966216125,-0.0702462209363867
1718270149515817941,-0.0150336080664518,-0.0133477351937655,-0.0010911495564621,-0.1688422203867214,0.2203002447107418,-0.0701415554751961
1718270149517010749,-0.0145554110834379,-0.0136801100577704,-0.001254873103441,-0.1680832132622893,0.2209499744419705,-0.0700113255886275
1718270149518280053,-0.0143988888240355,-0.0139917559753642,-0.0013093780186466,-0.1673640239475491,0.2214294476269273,-0.0685681092230304
1718270149518287607,-0.0143542899992126,-0.0143028966924156,-0.0015845790969868,-0.166992666136492,0.222003808936345,-0.0666586057466955
1718270149519488096,-0.0142131481532075,-0.0145270489403502,-0.0020333733526376,-0.1672176152814901,0.2218676810872672,-0.0655075007891085
1718270149520704768,-0.014455581920515,-0.0148700071504658,-0.0021796876026507,-0.1666065206474804,0.2213501009767187,-0.0640890322179146
1718270149521916333,-0.0147078151200928,-0.0152024751041466,-0.0020034860276439,-0.1653789608991564,0.2212079597116867,-0.0621360967472195
1718270149523231109,-0.0148242253671949,-0.0155401472254449,-0.00169185881439,-0.1638161175818524,0.2211962821002066,-0.060651429178544
1718270149523257126,-0.014920251381031,-0.015877103087805,-0.001137153307336,-0.1618429016666724,0.2212278637848043,-0.0594080551754846
1718270149524391386,-0.0149655598145731,-0.0160488386089382,-0.0004354230359897,-0.1600445174997957,0.2213493921015396,-0.0582772140313068
1718270149525603150,-0.0148152354531915,-0.0160314129406966,7.88395451935403e-05,-0.1589172225989958,0.2215018695657645,-0.0575000803853067
1718270149526835576,-0.0146921065550717,-0.0160387492656383,0.0008104907431701,-0.157646459960408,0.2216550084488167,-0.0568929127300654
1718270149528132053,-0.0146711122149675,-0.0158834333836755,0.001291598984301,-0.1570832348651713,0.221803506775705,-0.0563666029475747
1718270149528142494,-0.0145006206960903,-0.0156065091066014,0.0014055144738257,-0.1573019380371714,0.2216697827625282,-0.0558646799294178
1718270149529356871,-0.0142553865342852,-0.01539090997656,0.001617905741795,-0.1574167450868567,0.2216934330516118,-0.0549964085923626
1718270149530580187,-0.0140974893777441,-0.0150195644090893,0.0017092695834065,-0.1582585461801581,0.2215808804492835,-0.0545265490743519
1718270149531769871,-0.0136461063697926,-0.0145437888973653,0.0016831190946327,-0.1594743426801882,0.2214512009040971,-0.054806591796242
1718270149533003797,-0.0134547912553892,-0.0139957153548941,0.0012099031320016,-0.161703032295523,0.2212059970099735,-0.054797174472057
1718270149533102493,-0.0134544471015245,-0.0133402419100163,0.0009021098347952,-0.164028810468869,0.220463348556264,-0.0553239980297938
1718270149534296473,-0.0132944584056015,-0.0125362069176622,0.0005325569031,-0.1667300684681934,0.2202627076935815,-0.0557067782530497
1718270149536437647,-0.0133594185315183,-0.0117728952855587,0.0002510360489276,-0.1693872674738037,0.2194779345992214,-0.0566812271560505
1718270149538385471,-0.0134600737080359,-0.0109080823557672,-0.0002706230923582,-0.1729455257309153,0.2183384530133153,-0.0580624708682115
1718270149538394271,-0.0136391767779789,-0.0101388049373342,-0.0008562481345838,-0.1764485754260873,0.2175568822130414,-0.0591889182035966
1718270149539712936,-0.0136328446449004,-0.009409287405821,-0.0012545242006191,-0.1794130370246381,0.2172031963754751,-0.060905868557078
1718270149539721432,-0.0137033373156061,-0.0087795413660468,-0.001756042489323,-0.1823205213843806,0.2165193583507603,-0.0622067975676087
1718270149540867847,-0.0137541566070552,-0.0082640667653601,-0.0024049628996941,-0.1851303047206312,0.2156834757537266,-0.0629625468187868
1718270149542151364,-0.0139674237941983,-0.0075090560944523,-0.0030120693843672,-0.1885029411084403,0.2146424027692095,-0.064104483168088
1718270149543388321,-0.0140462438276956,-0.0067044338528104,-0.0033743345353405,-0.191621512324305,0.2135979581839642,-0.0649598501105831
1718270149543419605,-0.0144237331160591,-0.0059017263922129,-0.0037894313047114,-0.1946290586064621,0.2119378283644613,-0.0657231303561017
1718270149544581643,-0.0146139496806183,-0.0055883670537987,-0.0037384198431814,-0.1959068369120712,0.2102161419783236,-0.0671087066597693
1718270149545763655,-0.0147933795218922,-0.0052415334392788,-0.0039130252201979,-0.1975566919412695,0.2087789762285932,-0.0683362882265838
1718270149547000154,-0.0148027055108151,-0.0046706686680487,-0.004128192589924,-0.1993816706015132,0.207661594528633,-0.0698129800232749
1718270149548339669,-0.0145912559025028,-0.004279943487376,-0.0038651696250176,-0.1999472040395373,0.2062908879288463,-0.0718041678685763
1718270149548349077,-0.0145961207743852,-0.0040353514905942,-0.0037793247403252,-0.2005507207644996,0.2047222344778428,-0.0734175292645941
1718270149549498843,-0.0144859392685091,-0.0039554763174878,-0.0035063297323356,-0.2002908416420379,0.2035880170403275,-0.0752078608850162
1718270149551331899,-0.0144422227547506,-0.0036182782207449,-0.0032188957633015,-0.2004721907995979,0.2020977147066233,-0.0768116312016797
1718270149551345014,-0.0145272559362535,-0.0030374117369758,-0.0030819463069678,-0.2014436854130019,0.200854716276085,-0.0776575420357711
1718270149552505564,-0.014625004808873,-0.0025958241427299,-0.0027742252176425,-0.2018688035464606,0.2000464055852016,-0.0776678175202152
1718270149553791634,-0.0145628478353983,-0.0023508109826079,-0.0022681802472508,-0.201628711804222,0.1994277399248154,-0.0780207938911379
1718270149554984917,-0.0144460201133263,-0.0022643509638877,-0.0016195727279689,-0.2008002855181919,0.1988804559114121,-0.0780759511980058
1718270149556282173,-0.014438559058632,-0.0021590813550759,-0.0013987485654382,-0.2005677256006732,0.1983163015371878,-0.0781340442950278
1718270149556295084,-0.0143321581595603,-0.002024873778632,-0.0008999510257303,-0.2000640700026714,0.1979310627850885,-0.0789764643478835
1718270149557481692,-0.0144736703623567,-0.0019563990062335,-0.0003224671730236,-0.1991189770726691,0.1976558548264372,-0.0792996785668319
1718270149558671342,-0.0145160824889581,-0.0019121584359271,0.0002532837558854,-0.1980063460508502,0.1976141269671881,-0.0797005475728494
1718270149559915703,-0.0147229239862232,-0.0018664377009367,0.0009765787849768,-0.1965223526718285,0.1976229478352592,-0.079817262596919
1718270149561110222,-0.0148533313484415,-0.0018616605234467,0.0016292768170212,-0.1950636622397636,0.1977004663238625,-0.0800457113259519
1718270149561129422,-0.0152285035354519,-0.001698175007968,0.002057912574508,-0.1943610838289518,0.1972816249746995,-0.0800431595975766
1718270149562359928,-0.0157785412727615,-0.001928329002433,0.003054370908135,-0.1922709821724038,0.1968477412862755,-0.0790984021959403
1718270149563597333,-0.0160227318412583,-0.0020768438509459,0.0037800268985251,-0.1907459849691007,0.1968646754943142,-0.0785136703570307
1718270149564777296,-0.0163610669879791,-0.0023561347413411,0.0043345625269477,-0.1890312102314831,0.1971232858283273,-0.0779197131411379
1718270149565989449,-0.0169404570184212,-0.0027453524371942,0.0052216260107144,-0.1863803460364291,0.1973863663006438,-0.076954828908185
1718270149567322245,-0.0173759540735182,-0.0031929480623846,0.0060345551858735,-0.183625433797276,0.1979149843860755,-0.0767788470690397
1718270149567331680,-0.017972032646316,-0.003749342618484,0.0067635912199991,-0.1804715863578171,0.1980024947218805,-0.0767238962662038
1718270149568528752,-0.0185371240538857,-0.0044417560082898,0.0071646757483541,-0.1775750946699816,0.1976668232004423,-0.0766264419086683
1718270149569766389,-0.0189862170101353,-0.0050183343091655,0.0078202071825969,-0.1742664945981796,0.1975757515258756,-0.076617430121814
1718270149570960432,-0.0194207754315906,-0.0056473494978101,0.0086573489555111,-0.1705496747741325,0.1971614133236615,-0.0759899433237875
1718270149574383167,-0.0198049629159119,-0.0063488221653591,0.0096310507914041,-0.1663530768540386,0.1965256996721911,-0.0751122260924104
1718270149574395616,-0.0204877470012299,-0.0069454712920379,0.010168533175762,-0.1633401428747871,0.1954444485412985,-0.0744317434185033
1718270149575744758,-0.0207189464826368,-0.0075862554181253,0.0105703235049033,-0.1604855466793226,0.1948825093865344,-0.0741948730181132
1718270149575753349,-0.0211807042369328,-0.0082512347638126,0.0109518166200919,-0.1575523215557337,0.1940946923063786,-0.0737142669702178
1718270149575764895,-0.0214592456669643,-0.0088989819271673,0.0113613454743516,-0.1546277111269636,0.1939538197183186,-0.0734959504959761
1718270149576802777,-0.0216188717243985,-0.0094698072372559,0.0116306989759216,-0.1520844916288545,0.1935707208746227,-0.0734613413905371
1718270149578013666,-0.0215108962071041,-0.0098434336593664,0.0117335716676484,-0.150407141679376,0.1929391162181262,-0.0742884549761309
1718270149579350361,-0.0218022540872015,-0.0101238097719017,0.0117991460484389,-0.1493213016135256,0.1923607212270665,-0.0743128651538327
1718270149579356809,-0.0217119209899679,-0.0106094232733872,0.0116818093688167,-0.1480705131778653,0.1918988154035524,-0.0743390009322169
1718270149580476704,-0.0218365055295638,-0.011085302314088,0.0114843451126758,-0.1467343337633186,0.1909174960826201,-0.0739882651664573
1718270149581713380,-0.021963949218051,-0.0115980014129721,0.0112669122537759,-0.1456806915654185,0.1903180632881231,-0.0740893522503957
1718270149582925784,-0.0222008231308598,-0.012101309027691,0.011168799065587,-0.144444835066305,0.1900103002118106,-0.0737354458516732
1718270149584146499,-0.0222967884008488,-0.0124494609106335,0.0106312481183537,-0.1443046895308093,0.1896680797451522,-0.0740917523795166
1718270149584153733,-0.0223980469626964,-0.0127651801038741,0.0098940902127395,-0.1451556476774832,0.1893753955512379,-0.0749803737780572
1718270149585381059,-0.0227245906849487,-0.0129054469864418,0.0090852360988494,-0.1467231881527134,0.1890506255588066,-0.0750085030273178
1718270149586867834,-0.0226904263968771,-0.0131427348653047,0.0081155057308416,-0.1485634624491849,0.1887086551689978,-0.076070978216708
1718270149588087083,-0.0227542126058714,-0.0133807512488067,0.0070620070500481,-0.1505190353132749,0.1877596732196569,-0.0773460340190799
1718270149589504620,-0.0225524789151027,-0.0136765639273864,0.0058797072519804,-0.1526284206807311,0.1870091241393041,-0.0790988589888721
1718270149589529748,-0.0220411304569665,-0.0138722206487847,0.0047641763820249,-0.1547594917454808,0.186826134413598,-0.0803106014856678
1718270149590638050,-0.0214884568827354,-0.0140723548482481,0.0041410516897328,-0.1561431941375387,0.1864662988673577,-0.0819425736757376
1718270149591923398,-0.0208284363358094,-0.0141714667732836,0.0033748861056592,-0.1580644074563473,0.1865338093081389,-0.0830601346927915
1718270149593097667,-0.0201096921434046,-0.0142459767266604,0.002395023883832,-0.1600984665357898,0.1868766786451888,-0.084689936090566
1718270149594342207,-0.0194882485741382,-0.0148436830872684,0.002334664998707,-0.1597682030768417,0.187687580444774,-0.0861938601444263
1718270149594363750,-0.0189391389970823,-0.0152909075829632,0.0022522058271232,-0.1595848617494769,0.1886390585354825,-0.0874652089912213
1718270149595581450,-0.0187771023990223,-0.0155946982856279,0.0018328883656461,-0.1600431659126123,0.1890291456323356,-0.0885439792616051
1718270149596782975,-0.0186284205796113,-0.0160639308542867,0.0015763261257469,-0.159730675307747,0.1892410028679545,-0.0889236352692061
1718270149601534558,-0.0184138457354264,-0.016278366232428,0.0010720996441479,-0.1602265898926151,0.1892178089168213,-0.0899157191778838
1718270149603213542,-0.0183679441964828,-0.0165161305602693,0.0005714929636108,-0.1604815828428611,0.1890773826407816,-0.090427404864193
1718270149603222378,-0.0185076236583565,-0.0169312629182739,0.0003347918270224,-0.1598262325675679,0.1885518966178845,-0.0903975959081163
1718270149603233704,-0.0186802025344756,-0.0173575320354072,-0.0003236142929853,-0.1597900516235099,0.1881342813742597,-0.0905497317791197
1718270149603246564,-0.0185666014751503,-0.0177897909468162,-0.0007617932664887,-0.1593138817044244,0.1879264075495976,-0.0903782141809652
1718270149603283605,-0.0183755077809156,-0.0181206821200148,-0.0008548468260156,-0.1584987182728161,0.1877551728463874,-0.0902520694451151
1718270149604144010,-0.0181085417934527,-0.018509290890305,-0.0008432729778899,-0.1573910537209736,0.1877612938101735,-0.0902381953557146
1718270149604155149,-0.0179905773188733,-0.0190965508895009,-0.0005717824280284,-0.1555332729077044,0.1873282071894297,-0.0894728919060935
1718270149605595372,-0.0179009770495836,-0.0196073489765717,-0.0001027787003043,-0.1533321960786184,0.1870627515795565,-0.0883651986530141
1718270149606895493,-0.0179561838150189,-0.0203128026212991,0.0007472313017344,-0.1498510705850415,0.1865958759047384,-0.0874199378146096
1718270149608172251,-0.0177169699863936,-0.0208186723284418,0.0015347867742304,-0.1466509274546581,0.1862927268941151,-0.0872419363897928
1718270149609405082,-0.0175039488809172,-0.0212315003405832,0.0021309910414141,-0.1439417131459853,0.1860915462621249,-0.0864901411086068
1718270149609415444,-0.0172407445410194,-0.0215184738937061,0.002242488350085,-0.1424782080126036,0.1857927964715503,-0.0856330269317514
1718270149610622230,-0.0170074607382215,-0.021628948222259,0.0023882762162082,-0.141453976842268,0.1854575267263477,-0.0846871887035753
1718270149611393122,-0.0166902736202661,-0.0220346784511611,0.0029814762433827,-0.1393632089763212,0.1853813251061501,-0.0838262132074698
1718270149612595351,-0.0163587257421769,-0.0224870118791539,0.0036248592210937,-0.1370799073225406,0.1853924724743021,-0.0823925137309678
1718270149613944699,-0.0161602546784239,-0.0230626293451756,0.0040028705847622,-0.1350563905033459,0.1849839384411208,-0.0814101146081843
1718270149615222260,-0.0159985953438244,-0.0235003879253434,0.0041119171867047,-0.1337407146647165,0.184764555594946,-0.0804682981149218
1718270149615233951,-0.016087856603159,-0.0238810958799163,0.0040648066133187,-0.1327972757834848,0.1843224037016722,-0.0795735577004692
1718270149616359522,-0.0163285085088288,-0.0240564956828845,0.0041789242458667,-0.1320673579441834,0.1835853030179381,-0.0785651702620572
1718270149617674973,-0.0162515709267828,-0.0240741501739728,0.0040811154097634,-0.1321384810628356,0.1830971069324585,-0.0780752998121446
1718270149618897498,-0.0162387226677219,-0.0239611912084873,0.0040102953203757,-0.1324296364315614,0.1827910715847736,-0.0768256825106835
1718270149620175345,-0.0163999723061119,-0.0237783253188162,0.0041901676243161,-0.1325681936546643,0.1827946054998503,-0.0750448369110517
1718270149620183806,-0.0167898410054838,-0.0237268207781645,0.0048598368096983,-0.1314580299932289,0.1825910070841655,-0.0728654440626272
1718270149622221665,-0.0169500742150698,-0.0236508851630383,0.0053066784463474,-0.1306467732951293,0.182585283909179,-0.0709324922085792
1718270149624026128,-0.0171196212635982,-0.0235219936532202,0.0057829825051864,-0.1297423935791229,0.1822452150378939,-0.0697104670994469
1718270149624044143,-0.0169841671320305,-0.0231121271550179,0.0059822277547034,-0.1302082046646688,0.1820546188567444,-0.0697890184108215
1718270149625337929,-0.0170489852749226,-0.0225433820241824,0.0061861630451334,-0.1311393257351532,0.1814265275414083,-0.0693578094851453
1718270149625347814,-0.0173238752664771,-0.0219655624256057,0.0064035218474215,-0.1319144669208405,0.1806296305334598,-0.0689971116076211
1718270149626597384,-0.0178529217566574,-0.0212987968177166,0.0064932793899205,-0.133345010400238,0.1802951221373711,-0.0679969744534345
1718270149627858901,-0.0184376132832168,-0.0202386899335685,0.0063063308896039,-0.1361391760656706,0.1795032573656694,-0.0671748355007821
1718270149629221582,-0.0187554266191772,-0.0191477010465356,0.0063250534018237,-0.138818886308146,0.1790715752603286,-0.0664192464221405
1718270149629229395,-0.0189710959580373,-0.0182182851537009,0.0067549269831013,-0.1405327453973519,0.1783279412656115,-0.0656366694773846
1718270149630414888,-0.0191283077181654,-0.017383679047684,0.0070876313180669,-0.1422876523927165,0.1774948050251328,-0.0647831464912913
1718270149632641814,-0.0188787540157474,-0.0166186505709195,0.0074502665657576,-0.1439153036770302,0.1770400705824494,-0.064388867688048
1718270149633892504,-0.0186474213423793,-0.0158322249807741,0.0075844355388722,-0.1458776918002913,0.1768141628174489,-0.0636861718934328
1718270149633900590,-0.0183819017138223,-0.0149520338432726,0.0076711405913917,-0.1481480602508296,0.176111910990376,-0.0638762093110653
1718270149635190263,-0.0182028047480918,-0.0140347052374598,0.0073617659634779,-0.1512280888132271,0.1751959922395567,-0.0642392595111955
1718270149635206025,-0.0177574017735967,-0.0131338879267784,0.0068805314488825,-0.1547475169672319,0.1745937083024592,-0.0649416203850337
1718270149636431482,-0.0174880519561263,-0.0123555576798318,0.0063922758762654,-0.1582129185564697,0.174340296201049,-0.0660451903110121
1718270149637910168,-0.0172027611428213,-0.0116950062130998,0.0061758571524755,-0.1606151425405688,0.1737798408214347,-0.0667669153661373
1718270149639286827,-0.0168765150606823,-0.0109880017515081,0.0060566539403725,-0.1630323583038358,0.1731249485360205,-0.0678035281337088
1718270149639297335,-0.0170940374350319,-0.0103002314546221,0.0061375445680988,-0.1650288174048246,0.1717947904346854,-0.0683370091200791
1718270149640521985,-0.0170644238618979,-0.0095673398931151,0.0060620574211019,-0.1671973042230602,0.1711172451713115,-0.0690135981788798
1718270149641837465,-0.0170137762758168,-0.0089506255409739,0.0060958095899305,-0.168880242418895,0.1704576796033696,-0.0699992246367944
1718270149643207745,-0.0172557197373189,-0.0086142445581429,0.0061525325854841,-0.1698249139670606,0.1698605227605327,-0.0696944161071111
1718270149643226823,-0.0173753696932313,-0.0082722491849385,0.0061267863830362,-0.1705515038189334,0.1698795624500282,-0.0701143600796195
1718270149644394473,-0.0177913805313161,-0.0079713553771667,0.0062268421235333,-0.1710187637092578,0.1696571373229362,-0.0699566239842876
1718270149645609634,-0.0180850514723795,-0.0077966667215752,0.0064328570797373,-0.1710282933996717,0.1698047382989452,-0.0698812005467864
1718270149646823257,-0.0181185093533849,-0.0075024994817747,0.0062106954474424,-0.1718245339534719,0.1702702033595056,-0.0706265705071552
1718270149648032407,-0.0182383131725057,-0.0075543135967103,0.006482314909103,-0.1711751058595397,0.1705415044965264,-0.0711627546348756
1718270149648075890,-0.018253185206089,-0.007594902291064,0.006662828142626,-0.1709203868460972,0.1710518666523934,-0.0713680919238977
1718270149649341364,-0.0180254968657777,-0.0073673249887029,0.0067893680898193,-0.171098925664726,0.171535890686208,-0.0723281964583595
1718270149650555803,-0.0178234831133961,-0.0072205407437108,0.006941903637518,-0.1712794247557348,0.1725640737282305,-0.0726475421066563
1718270149651795440,-0.0177955288983099,-0.0071823532368313,0.0070035185646876,-0.1711428150422533,0.1735342534906548,-0.0726178134729253
1718270149653435862,-0.0177786913109343,-0.0072372590951514,0.0070781532655308,-0.1705709562360955,0.1738896913822011,-0.0728846640728684
1718270149656292810,-0.0178346161458245,-0.0075016322813251,0.0072729619494171,-0.169479976689276,0.1739736370282353,-0.0724744108604454
1718270149657571737,-0.0178013641167701,-0.0078293169613502,0.0074897758330757,-0.1680341766097052,0.1740727880988754,-0.0718786976316632
1718270149657583257,-0.0177302170898435,-0.0082104293706554,0.0075654654952622,-0.1666646334044554,0.1739826184585034,-0.072012703692439
1718270149658756254,-0.0175708163076649,-0.0087014827487039,0.0079113118683251,-0.1643437157635219,0.1737648857387079,-0.0718818331152051
1718270149660039863,-0.0175620733767938,-0.0092735796060778,0.0081932200030142,-0.1620494977815957,0.1739619615810038,-0.0716510805930182
1718270149661330322,-0.0174739826207671,-0.0099237956893168,0.0082324895140288,-0.1600828612532925,0.1743887363849454,-0.071221792845197
1718270149661341052,-0.0169323460990359,-0.0105851322971466,0.0082425565975523,-0.1581723514593201,0.1749403955972304,-0.070583351807594
1718270149662449087,-0.0166643402054128,-0.0113413902205111,0.008417614399395,-0.155808557366461,0.1750194327958649,-0.0697588046631391
1718270149663669622,-0.0162378144451088,-0.0118146927066869,0.0083740041964033,-0.1543577012102636,0.1747522471992291,-0.0700526742691349
1718270149664875317,-0.0157669632444354,-0.012087028616773,0.0084790063164978,-0.1531668478449209,0.1748143981611649,-0.0700416661076773
1718270149666086531,-0.0154157807899886,-0.0123526802353201,0.0087382632508855,-0.1518464021069653,0.1746540658289522,-0.0700486103507555
1718270149666094234,-0.0152200739605826,-0.012716994869547,0.0088510356319969,-0.1504372041300523,0.1743569500365498,-0.0694564768060468
1718270149667447785,-0.0149241489667196,-0.012906725694645,0.0089309765405505,-0.1493557769534799,0.1739589570692043,-0.06971638980286
1718270149668534755,-0.0145558763430088,-0.0130510144873996,0.0091137641599527,-0.1484433011793686,0.1739838609483296,-0.0695050996230367
1718270149669751611,-0.0141169610727669,-0.0131253913265389,0.0094292206928299,-0.1475008203762985,0.1738411844495141,-0.0700878379452837
1718270149671000327,-0.0139797581909915,-0.0131310458635312,0.0095799281969344,-0.1469934249940058,0.1734896760522327,-0.0699114358345136
1718270149672277489,-0.0138493499550285,-0.0131281919325751,0.0091789804529098,-0.147186863092941,0.1729999325840414,-0.0700948414833382
1718270149672284090,-0.0139843331285378,-0.0132770158129457,0.0089853064433161,-0.1466406308227345,0.1720608765414052,-0.0709478380175596
1718270149673476659,-0.0142831980505749,-0.0133330876576948,0.0088065347496842,-0.1465160667157827,0.1708035143315878,-0.0711079659728972
1718270149674707630,-0.0144078034352272,-0.0130761031463355,0.0081953158351607,-0.1478467968791643,0.1691937100734814,-0.0712424777107357
1718270149675918423,-0.0144103872455899,-0.0129813352006581,0.0076296415124028,-0.1489938119289657,0.1675314551229409,-0.0717940463826227
1718270149677196609,-0.0146028453761934,-0.0129282070179045,0.0071643649419043,-0.1499884738764131,0.1657639905545327,-0.071841984193663
1718270149677212434,-0.0145638331748008,-0.0128291012710157,0.006532747201224,-0.1512686519443463,0.1641285523868206,-0.0728128382923928
1718270149678392130,-0.0143333901214754,-0.0130061650114435,0.006578509660582,-0.1511416235526275,0.1626644901904675,-0.0742762807272112
1718270149679604402,-0.0143010007668404,-0.0131152899925704,0.0064184912664033,-0.1513397088913601,0.1612304617287114,-0.0755284006465835
1718270149680879915,-0.0143746995517255,-0.0131569766002247,0.0059543648859224,-0.152014688251265,0.1593359276160521,-0.0770710038393907
1718270149682198236,-0.0144370379715014,-0.0133544633186883,0.0055142466654547,-0.1526213724172117,0.1577180554030613,-0.0784371715199737
1718270149682217126,-0.0144500977587313,-0.0134736715176644,0.0053230099473699,-0.1528913259308674,0.1563344651486235,-0.0798118003695503
1718270149683375335,-0.014524847931278,-0.0135725521186747,0.0047406850500908,-0.1537537712623044,0.1544736513221735,-0.0813915907602465
1718270149684620450,-0.0146662460407407,-0.0137415471827499,0.0036687397066136,-0.1556093114405994,0.153009801976011,-0.0813917749992546
1718270149685812760,-0.0143476440735496,-0.0139100409381033,0.0028117925237545,-0.1571049601313252,0.1522612390736898,-0.0817347942520662
1718270149687715362,-0.0142187392664267,-0.0140351343010895,0.00198593645797,-0.1585510743741455,0.1516325953628395,-0.0823149223017798
1718270149688936711,-0.0140006157879756,-0.0142791466363058,0.001271914119397,-0.1594881769408286,0.1510598288992938,-0.0827369827892851
1718270149688944766,-0.0138522512209543,-0.0146951906365714,0.0006812772325093,-0.1597977423409758,0.1505239991845002,-0.083326501608536
1718270149690225636,-0.0136656468480202,-0.0150897594330431,5.73071943881856e-05,-0.1599775893381942,0.1501056028208258,-0.0840829324562295
1718270149690242543,-0.0137322241076364,-0.0153378433957253,-0.001010702226112,-0.1609259455316258,0.1497269507227332,-0.0838633975138219
1718270149691554312,-0.0142280216803224,-0.0156608095701539,-0.001859652326228,-0.1613235634980479,0.1489887471548623,-0.0831913601859731
1718270149692786887,-0.0144518004730494,-0.0160033291112414,-0.0022065424812156,-0.1608679044612645,0.1484508501069017,-0.0826775562776957
1718270149693962991,-0.0145526590264593,-0.0162144382016535,-0.0027062714867705,-0.160855518833503,0.1479879626459674,-0.0823354625226552
1718270149695669869,-0.0146843687484494,-0.0164134655958022,-0.0029580634807479,-0.1604100540387498,0.1476151466629567,-0.0817645997692389
1718270149695680261,-0.014675034127493,-0.0166514659925053,-0.0030285989951965,-0.159489818132572,0.147467271232283,-0.0813103739041248
1718270149696855187,-0.0148741017315543,-0.0169392467257834,-0.0029031426898405,-0.1581118408490649,0.1473963922261217,-0.0802438728164997
1718270149698130099,-0.0149331868405903,-0.0174864902621213,-0.0027183944368208,-0.1562355200801238,0.1474726783684184,-0.0795123272938648
1718270149698138026,-0.0148237932252627,-0.0180368801748742,-0.0022137397201753,-0.1536155386435115,0.1481575522221728,-0.0788882899737807
1718270149699425385,-0.0149562648101721,-0.0185811685323083,-0.0017700235526733,-0.1510804555937654,0.1490833712350629,-0.0767197766345453
1718270149703747851,-0.0149686159200803,-0.0190287885352174,-0.0014513289012013,-0.1488358297523752,0.1496043232091011,-0.0751449399112904
1718270149705410099,-0.0148123598012149,-0.0195818978755379,-0.000923019798624,-0.1458541526617077,0.1505271410186084,-0.0741178819413399
1718270149705421318,-0.0146251188648101,-0.0199431493146788,-0.0007454913400496,-0.1436404095494291,0.1511346697817687,-0.0735519481055294
1718270149705466655,-0.0145949205227087,-0.0202950798795115,-0.0004199189321334,-0.1412381559321792,0.151437379344818,-0.0736863168953861
1718270149705474990,-0.0147435324746338,-0.020790941838238,0.0003930474762578,-0.1374785384103739,0.1517915478796442,-0.0731997181489361
1718270149705481865,-0.0148162258363723,-0.0212901803489209,0.0012754057606218,-0.1338263707031119,0.1520042588455215,-0.0731718151696976
1718270149706394856,-0.0148510582691286,-0.0217446696631984,0.0021689418451911,-0.1302443553199919,0.1520531724334358,-0.0731763817586183
1718270149707557094,-0.0149162240051015,-0.0221287780190152,0.0029353577508957,-0.1271460722735657,0.1526023169580057,-0.0726441449761133
1718270149708733485,-0.0148208602014776,-0.0223144210293506,0.003647563026161,-0.1247482093745519,0.1529547959222117,-0.0726410121249771
1718270149709942557,-0.0149656802376458,-0.0224463571475661,0.0042887551678332,-0.1224858014877599,0.1531319268771369,-0.0717412263210292
1718270149711232767,-0.014875710362929,-0.0226087153520942,0.0050408122776488,-0.1201399476551269,0.1537479069327324,-0.0709871507041149
1718270149711256169,-0.0147708953398689,-0.0227820482776474,0.0057996284250573,-0.1178715162141173,0.1547060290765727,-0.0703420439398734
1718270149712393825,-0.0146208941434268,-0.0228567641111525,0.0061844494205169,-0.1166651313817925,0.1551462880113494,-0.0701153605969389
1718270149713598624,-0.0143343692255478,-0.0228524350455325,0.0063042816658571,-0.1159548189898149,0.1557351217610952,-0.070734738222186
1718270149714774951,-0.0144075774249803,-0.0229460325503234,0.0065550549348981,-0.1153101132605677,0.1559973209265309,-0.0707358038464106
1718270149715970287,-0.0146145946797165,-0.0228766072664663,0.0067842604234757,-0.1153371029818528,0.1559425176221285,-0.0710094673551048
1718270149717483894,-0.0146211299829878,-0.0225925519416462,0.0067125863813162,-0.1160518797634058,0.1555605589242625,-0.0722830464702269
1718270149717498961,-0.0145255275392221,-0.0221942396283881,0.0068068147114297,-0.116958352417178,0.1560162252803117,-0.0726801373344879
1718270149718400347,-0.0142712899991811,-0.0219002539066082,0.0069292272651905,-0.1175310553020645,0.1560652560512959,-0.0738015900900174
1718270149719641466,-0.0141103488426378,-0.0214180990731058,0.0070936457213276,-0.1183124513242205,0.1556705452473289,-0.074651302964987
1718270149720827642,-0.0141941654219317,-0.0208578505067096,0.0069128776885617,-0.119865392096205,0.154581001275513,-0.0756201533663454
1718270149722057451,-0.0142988410808664,-0.0200269881939193,0.0068204660226932,-0.121841922527107,0.153446967168793,-0.0761762565821369
1718270149722069709,-0.0144079671566545,-0.0190554193590622,0.0064808200274724,-0.1246334316507547,0.1523202768425115,-0.0769592295680133
1718270149723452773,-0.014281579477248,-0.0182875142319485,0.0060886429173547,-0.1271869939903164,0.1512096843334525,-0.078300336412093
1718270149724517690,-0.0139731416231113,-0.0176987693670504,0.0058156642361413,-0.1293015865240685,0.1502143628628807,-0.0803122620872997
1718270149725731448,-0.0139071963588069,-0.0172818337261799,0.0053712159753861,-0.1315972927748121,0.1494018219449555,-0.0816005880653049
1718270149726934838,-0.0135956081668033,-0.0167487687532049,0.0046379402980073,-0.1346338016877348,0.1486034600409092,-0.0836035366273524
1718270149728203973,-0.0133740750164041,-0.016293397268095,0.0042152974082857,-0.137558677515575,0.1480509419277468,-0.0854563292255169
1718270149728214736,-0.0133361008551222,-0.0158935157190233,0.0037451966934354,-0.1403751749118895,0.146953983673732,-0.0866244792157136
1718270149729387045,-0.0134989956544649,-0.0152394558834588,0.002905149301006,-0.1439235080385813,0.1454972876195442,-0.0878905577506644
1718270149730604253,-0.0136569048836678,-0.0148244225099394,0.0024857572585459,-0.1464375788642574,0.1445889418104019,-0.0879922430804583
1718270149731751014,-0.0139545360029268,-0.0143265363789656,0.0021142239760582,-0.1490611058987929,0.1433739142377749,-0.0882154076285054
1718270149732971146,-0.0142600006601217,-0.0139698587415308,0.0016881585442733,-0.1512933094430076,0.1416075840558697,-0.0890702159175334
1718270149734275394,-0.0147247700272431,-0.0133823046271481,0.0010578638640308,-0.1546319782859969,0.1397988324690539,-0.0893073637589135
1718270149734291537,-0.0149031661267661,-0.0129301626382754,0.0006719929488464,-0.1572815663173374,0.1381966554846727,-0.0895685085374048
1718270149735499826,-0.0149298850840231,-0.012298326447803,0.0002275162772264,-0.1600866738062112,0.1366692705582767,-0.0902394777283356
1718270149736726625,-0.0148589749643282,-0.0118910458910368,2.980306708228256e-05,-0.1618437854454766,0.1354157810197204,-0.0913034667577497
1718270149737901115,-0.0147003214216252,-0.0118945850924298,-0.000134763027816,-0.1625943355967817,0.1342101991793244,-0.0928069639391942
1718270149739500272,-0.0145840020112196,-0.0118454917368951,-0.0001826270295806,-0.1630884096605291,0.1336511705955505,-0.093215939653804
1718270149739510497,-0.0145661060955583,-0.011536360280536,-0.0004198673613221,-0.1644094953134367,0.1327663062113338,-0.0937374439324133
1718270149740727034,-0.0146207365391906,-0.0113043952737214,-0.0005445348350056,-0.1651897844688034,0.1318765151909759,-0.0940480076260875
1718270149741945614,-0.01460189944082,-0.0112991059473323,-0.000576104825396,-0.1651406786093845,0.1310905649102133,-0.0942026137590388
1718270149743204550,-0.0146331150094001,-0.0113369069094402,-0.0008599573121075,-0.1650565739350783,0.1302709720334095,-0.0938569744540845
1718270149743213255,-0.0146909548729079,-0.0115516721502737,-0.0007635423842121,-0.163987601712261,0.1295833129016924,-0.0929419700817895
1718270149744351117,-0.0144276015406517,-0.0118747433554093,-0.0004799518928972,-0.1620710362131887,0.129076701433017,-0.0921632264416536
1718270149745570431,-0.0143418858027394,-0.0123541006102661,3.0399214341326336e-05,-0.1593804338726436,0.1282715798857815,-0.0908049240993288
1718270149746809033,-0.0145347114717989,-0.0126551822234396,0.0004019971627666,-0.1573345939099401,0.1271448105176999,-0.0896330201312881
1718270149747971752,-0.0150094071062581,-0.0128839772828944,0.0006883128208954,-0.1558369534304579,0.1257775439029337,-0.0880985041753243
1718270149749283280,-0.0151179041104449,-0.0132319355031711,0.0010520680354063,-0.1536550276994782,0.1249194721332788,-0.0869887118176364
1718270149749294711,-0.0153722082323592,-0.0134973065051647,0.0011469485653663,-0.1521918747001731,0.1244054307197079,-0.0855055034763127
1718270149750449136,-0.0155814121528823,-0.0138548372195418,0.0015408852217219,-0.1500707406086174,0.1238054887842497,-0.0842716984774395
1718270149751676881,-0.0155641991664602,-0.0142598052356833,0.0020080291096098,-0.1478779263684237,0.1230436621451775,-0.0831038955335704
1718270149752941379,-0.0154931467884807,-0.0144191524589768,0.002200454366838,-0.1466588300983073,0.1220277427808652,-0.0822755864432523
1718270149754211516,-0.0156004748251924,-0.014539439109523,0.0028193189202121,-0.145026342979381,0.1209848682065559,-0.0810063731336504
1718270149754222096,-0.0155981442331693,-0.0146945911572587,0.0034535642493043,-0.143149860376775,0.1204831795739238,-0.0800006901647107
1718270149756016151,-0.0159110081110511,-0.014762027088352,0.0040263273132427,-0.141520953572038,0.119715047160034,-0.0785728771817913
1718270149757331993,-0.0160663359115004,-0.0147477222603834,0.0047006587495183,-0.139912915603893,0.1189601494830236,-0.0770074439454437
1718270149757341352,-0.0160530414715283,-0.0148046292053927,0.0051496248487771,-0.1384294220150904,0.1187173737584023,-0.0765473090466342
1718270149758517251,-0.0163651624859118,-0.014699641710687,0.0056607857054992,-0.1374098317121021,0.1182264316830957,-0.0756101538526638
1718270149759471340,-0.0161935370313829,-0.0144782492113242,0.0062426180866076,-0.136707166017619,0.1179473837106233,-0.0749287497385571
1718270149760662731,-0.0161046130782892,-0.01434846725075,0.0065599546819229,-0.1362538891885474,0.1174755050710242,-0.0741087076830897
1718270149761890156,-0.0160454666787758,-0.0140324559910502,0.0067799327730749,-0.1366791470622535,0.1167923778740112,-0.073596710992014
1718270149763179504,-0.0159218645813676,-0.0136297969547525,0.0068494679915563,-0.1375728466842189,0.1165051255650896,-0.0731859524865342
1718270149763187843,-0.015985791104491,-0.0135418006942812,0.0072566597073174,-0.1377048561060594,0.1160891379621129,-0.0726357827672273
1718270149764338164,-0.015823995583311,-0.0134984458446534,0.0078302326679482,-0.1374813879522675,0.1161250681072458,-0.0724736087781962
1718270149765571868,-0.0156157047828188,-0.013190117757628,0.0082129722623984,-0.1380302415541328,0.1162135264718143,-0.0724606029849287
1718270149766755147,-0.0154387065563485,-0.0130468791469089,0.0084887187527042,-0.1384790711375085,0.1164988656280678,-0.0729039485119405
1718270149767960255,-0.0153329185249215,-0.0129820117997358,0.0085011704726409,-0.1393099024588154,0.1165092665925303,-0.0738601911155525
1718270149769324822,-0.0151776273990133,-0.0128915855766424,0.0084176214636473,-0.1400778382193682,0.1161982206420311,-0.0747757689021502
1718270149769341064,-0.0154838384039636,-0.0128716218706472,0.0083001406812857,-0.1407535604263058,0.1156827045565245,-0.0751753613450139
1718270149770381329,-0.0156223218311676,-0.0127410415556835,0.0081699739717788,-0.1418684779325396,0.1155909750158211,-0.0761845980220945
1718270149771572962,-0.0153856269835779,-0.0124919279982064,0.0078969576613234,-0.1434401855942725,0.1152171403188183,-0.0783509966947734
1718270149772760718,-0.0151037923408282,-0.0120075315189322,0.0072050288101269,-0.1459818083239678,0.1145675787064843,-0.080660239725696
1718270149773948640,-0.014846783535667,-0.0119177862575983,0.0068729026048746,-0.1471211145645326,0.1146576210156207,-0.0820030079942969
1718270149775285396,-0.0144735489949242,-0.012119652973268,0.0068199395950432,-0.1470784905264156,0.11451245068892,-0.0836569998723626
1718270149775300844,-0.014514218373503,-0.0120586582443625,0.0062354804556315,-0.1482545718460182,0.1140428318782059,-0.0856282050971371
1718270149776349199,-0.0142799092720999,-0.0122020751249635,0.0062284335581939,-0.1483285114763871,0.1142443880788838,-0.0872832876722125
1718270149777599271,-0.014086746473944,-0.0120903362533938,0.0060258962989245,-0.1492566094914734,0.1139522184273999,-0.0893882233823585
1718270149778778395,-0.0139506374361559,-0.0119637871798404,0.0056903475937108,-0.1502622685255295,0.1134234242884262,-0.0917173811350777
1718270149780003196,-0.0139594639216872,-0.0118524363144069,0.0054334521989882,-0.1509353087135591,0.1128470211385462,-0.0933075524865389
1718270149781305388,-0.0138167201631986,-0.0120120241944155,0.0053460958907991,-0.1507054542307282,0.1124498954091034,-0.0945719613626375
1718270149781323131,-0.0138771996107941,-0.0122556516822598,0.0053437137394703,-0.1499283991450495,0.1121083734859501,-0.0950492716668003
1718270149782531297,-0.0138513147873093,-0.0122416149097331,0.0048520364810279,-0.1503331494703653,0.1116545693586479,-0.0951477377996914
1718270149783754118,-0.0138686511635076,-0.0122689042268331,0.0049294287818114,-0.1498077444907245,0.1107005988512678,-0.0951089037939803
1718270149784927396,-0.0138543113021277,-0.0123587572034908,0.0052399598248569,-0.1487761994459244,0.1104537638192066,-0.0948465862817586
1718270149786277988,-0.0136001766636016,-0.0127085545862986,0.0054870811382799,-0.147282522865288,0.1102304088533875,-0.0953031528451922
1718270149786289130,-0.0137067252252495,-0.0130523428353415,0.0058332989409544,-0.1457367586317109,0.1100319298090696,-0.0950465263914223
1718270149787403926,-0.0138024149187094,-0.0135888080267442,0.0063668741792648,-0.143396671560468,0.1094055758625183,-0.0947048971646593
1718270149788610262,-0.0138980684742172,-0.0141997187772541,0.0066419346378494,-0.1409342723112195,0.108488119876814,-0.0947170242473228
1718270149791620397,-0.0139913396542507,-0.0148528674499218,0.0069169863776576,-0.1381683473491949,0.1079712394690749,-0.0942612394086586
1718270149791630865,-0.0142090618975799,-0.015528826472144,0.0073337125799599,-0.1353689497677912,0.1071183258444395,-0.0933168172654942
1718270149791637650,-0.0142747578399143,-0.016178478081965,0.0075501563359996,-0.1331441122260061,0.1066058983628806,-0.0917765363190902
1718270149792590659,-0.0143189619881079,-0.0168327441253743,0.0076352354695954,-0.1308653718004387,0.1057613751384676,-0.0904386624318578
1718270149793869045,-0.0145899590814272,-0.0174903185171178,0.0076535912756959,-0.1284928257340618,0.1048813082134414,-0.0889612329124956
1718270149795235763,-0.0148771786852162,-0.0183644469055969,0.008219069552783,-0.1249519726167576,0.1040707306625721,-0.0871101726620532
1718270149795248531,-0.0153152090762043,-0.018974819762851,0.0080744066782164,-0.1228511604785433,0.1031870247204304,-0.0850963387646609
1718270149796291387,-0.0155485915507609,-0.0196084415661186,0.0082055267999536,-0.120160624867021,0.1023805340581419,-0.0834907354852162
1718270149797497119,-0.0159090473476062,-0.0201067074232332,0.0082745117307565,-0.1181551303260753,0.1014686220534075,-0.081439214062232
1718270149798669224,-0.0160834199814423,-0.020523155170956,0.008425553688534,-0.1161588118195583,0.1005572559506258,-0.0799491673931136
1718270149799951642,-0.016312999165338,-0.0208552644883192,0.0086248223413176,-0.1138760035279671,0.0998674514320874,-0.0781964147365629
1718270149801301901,-0.0168752108340145,-0.0211399667798587,0.0084572988851843,-0.112634213867466,0.0993017792673071,-0.0755613544580546
1718270149801318688,-0.0169736776207893,-0.0215720448536773,0.0083039743152568,-0.1111896887646568,0.0993674874933772,-0.0740867408188507
