%time,field.force.x,field.force.y,field.force.z,field.torque.x,field.torque.y,field.torque.z
1718208080465956996,-0.7794433120000313,1.1976386999999988,11.260080819999969,-0.3108313639999998,-1.1380031969999973,0.016589348
1718208080465967277,-0.7958613120000311,1.1638936999999991,11.283202819999968,-0.3145243639999998,-1.1338401969999974,0.022316348
1718208080466988619,-0.8079233120000311,1.1523106999999988,11.306774819999967,-0.3190583639999997,-1.1293751969999972,0.028438348
1718208080468167249,-0.8070013120000312,1.1484474999999994,11.321713819999967,-0.3252763639999997,-1.1253201969999973,0.034146348
1718208080469346048,-0.7932263120000309,1.152028499999999,11.328982819999968,-0.3320873639999998,-1.120545196999997,0.039853348
1718208080470487876,-0.792080312000031,1.1629294999999988,11.343080819999969,-0.3390063639999998,-1.1149911969999975,0.045168348
1718208080471827621,-0.7824363120000308,1.1836734999999987,11.341605819999968,-0.3460413639999997,-1.1096781969999976,0.050214348
1718208080471836410,-0.7770733120000313,1.2020214999999994,11.332928819999967,-0.3531003639999998,-1.1053201969999975,0.055518348
1718208080472965506,-0.7675203120000309,1.2276954999999987,11.345814819999967,-0.3600713639999998,-1.1017801969999974,0.060021348
1718208080474157233,-0.7747543120000309,1.2437314999999989,11.326601819999969,-0.3673513639999997,-1.0986441969999974,0.063585348
1718208080475378490,-0.7695463120000312,1.252178499999999,11.31421081999997,-0.3732013639999997,-1.0965431969999972,0.0663533479999999
1718208080476657977,-0.7687913120000309,1.2579854999999989,11.30884381999997,-0.3779743639999998,-1.0952731969999976,0.068590348
1718208080476666087,-0.7724093120000313,1.2612264999999991,11.295251819999969,-0.3818903639999997,-1.0949591969999974,0.070295348
1718208080477855128,-0.7760873120000311,1.259495499999999,11.295882819999967,-0.3854233639999997,-1.0948911969999977,0.071336348
1718208080479096715,-0.7714073120000307,1.262619499999999,11.288280819999969,-0.3884713639999998,-1.0959441969999977,0.071839348
1718208080480231136,-0.7584073120000308,1.2704554999999988,11.310473819999968,-0.3908113639999998,-1.097236196999997,0.071814348
1718208080481425296,-0.7495653120000307,1.2611804999999991,11.34688181999997,-0.3933443639999998,-1.0979471969999974,0.071260348
1718208080482692841,-0.7494223120000307,1.2466884999999988,11.375064819999968,-0.3941663639999997,-1.0988051969999977,0.070053348
1718208080482707446,-0.7582363120000308,1.207372499999999,11.425725819999968,-0.3928523639999998,-1.102186196999997,0.0683103479999999
1718208080483901810,-0.7718083120000312,1.155403499999999,11.47666181999997,-0.3890453639999998,-1.1077791969999975,0.066303348
1718208080485140858,-0.7985223120000309,1.085903499999999,11.535533819999968,-0.3830113639999998,-1.1148441969999972,0.064168348
1718208080486364169,-0.8213173120000312,1.0037984999999987,11.602127819999968,-0.3751563639999997,-1.1220791969999973,0.061778348
1718208080487654937,-0.8484113120000312,0.9141694999999992,11.668270819999968,-0.3665043639999998,-1.1284961969999974,0.0590003479999999
1718208080487669843,-0.8757053120000311,0.8439994999999989,11.742021819999968,-0.3571783639999997,-1.1362051969999971,0.056086348
1718208080488824359,-0.8987073120000311,0.7862244999999994,11.800270819999968,-0.3483713639999998,-1.1448601969999974,0.053029348
1718208080490851666,-0.9174533120000312,0.7309354999999991,11.865660819999968,-0.3397593639999997,-1.153698196999997,0.049702348
1718208080490889386,-0.9404473120000314,0.682853499999999,11.915993819999969,-0.3306143639999997,-1.1614841969999974,0.046388348
1718208080491906542,-0.9591953120000308,0.6322324999999991,11.951069819999969,-0.3210713639999997,-1.1683111969999973,0.042947348
1718208080493153651,-0.9822403120000311,0.5937804999999989,11.985384819999968,-0.3111533639999997,-1.1754801969999975,0.038976348
1718208080494326616,-1.0053993120000313,0.5650434999999991,12.02067081999997,-0.3009013639999998,-1.1830441969999974,0.035537348
1718208080495610363,-1.028402312000031,0.5315374999999991,12.00987881999997,-0.2909323649999997,-1.1902191969999971,0.031829348
1718208080495626258,-1.038513312000031,0.5152224999999995,12.006150819999966,-0.2816543639999997,-1.1958031969999972,0.027862348
1718208080496767202,-1.0437783120000312,0.516484499999999,11.986700819999967,-0.2750293639999998,-1.1985471969999972,0.024028348
1718208080511707722,-1.0316603120000312,0.5327084999999991,11.966196819999968,-0.2702273639999998,-1.1988611969999974,0.019800348
1718208080515325678,-1.019246312000031,0.5638734999999988,11.923162819999968,-0.2667893639999998,-1.198052196999997,0.015969348
1718208080515341084,-0.9983183120000312,0.5951604999999994,11.888873819999969,-0.2640243639999998,-1.1974731969999972,0.0129303479999999
1718208080515348731,-0.9816383120000312,0.6288494999999991,11.84660781999997,-0.2610043639999997,-1.1967191969999973,0.009627348
1718208080515374340,-0.9691913120000312,0.6502254999999987,11.790049819999966,-0.2576903649999997,-1.1948901969999974,0.006864348
1718208080515389057,-0.9652743120000308,0.6715344999999995,11.741736819999968,-0.2541443649999997,-1.1930851969999976,0.004503348
1718208080515404302,-0.9654493120000311,0.685729499999999,11.70191081999997,-0.2517753639999998,-1.191342196999997,0.002933348
1718208080515417526,-0.969821312000031,0.7074514999999987,11.670072819999968,-0.2501893639999998,-1.1908171969999974,0.001750348
1718208080515459456,-0.9867293120000312,0.7122154999999988,11.654060819999968,-0.2496643639999997,-1.1896061969999974,0.001231348
1718208080515474026,-1.007765312000031,0.709759499999999,11.65361581999997,-0.2498773649999997,-1.1882071969999972,0.001108348
1718208080515488076,-1.0288133120000311,0.7072854999999989,11.646861819999968,-0.2500943639999998,-1.1863041969999972,0.001787348
1718208080515505931,-1.0456603120000312,0.6975684999999988,11.664040819999968,-0.2508453639999997,-1.1852011969999974,0.003255348
1718208080515518107,-1.0795653120000308,0.6878794999999989,11.721514819999967,-0.2520073639999997,-1.1849041969999974,0.006317348
1718208080515537189,-1.1006973120000312,0.680783499999999,11.749442819999969,-0.2536063639999997,-1.185018196999997,0.009901348
1718208080515546657,-1.138734312000031,0.6787104999999988,11.809681819999968,-0.2562153639999998,-1.1850571969999977,0.014948348
1718208080515556040,-1.164011312000031,0.6644664999999988,11.854977819999968,-0.2589963639999997,-1.1849821969999972,0.020123348
1718208080516407006,-1.2018023120000312,0.657858499999999,11.916814819999969,-0.2634223639999998,-1.185010196999997,0.026488348
1718208080516437758,-1.2440123120000313,0.6388794999999989,11.963922819999969,-0.2668963639999998,-1.1858561969999974,0.032984348
1718208080516445984,-1.290605312000031,0.6125104999999987,12.00357581999997,-0.2697943639999998,-1.1880321969999974,0.039474348
1718208080516453228,-1.333033312000031,0.5885094999999992,12.019615819999968,-0.2720143639999998,-1.1906421969999972,0.045299348
1718208080517703858,-1.367213312000031,0.5592564999999989,12.021234819999968,-0.2725563639999998,-1.1923461969999976,0.0512723479999999
1718208080518859499,-1.3842843120000312,0.5349444999999993,12.02135881999997,-0.2735013639999997,-1.1927451969999971,0.056318348
1718208080520111556,-1.302204312000031,0.6123814999999991,11.957678819999968,-0.2823983649999997,-1.1862321969999972,0.0604203479999999
1718208080521331739,-1.314441312000031,0.595916499999999,11.96145781999997,-0.2858833649999998,-1.185669196999997,0.063460348
1718208080522588600,-1.322044312000031,0.596946499999999,11.962403819999968,-0.2911343649999998,-1.184789196999997,0.065028348
1718208080522607947,-1.2825043120000312,0.6301904999999989,11.937314819999967,-0.2984873639999997,-1.181858196999997,0.0647283479999999
1718208080523871828,-1.2470343120000311,0.6609374999999993,11.894913819999967,-0.3056413639999997,-1.1774821969999971,0.063107348
1718208080525003599,-1.194781312000031,0.6963284999999991,11.859069819999968,-0.3116633639999998,-1.1726901969999972,0.060566348
1718208080526173239,-1.1510823120000309,0.7315624999999994,11.81454981999997,-0.3167923639999997,-1.168049196999997,0.0572323479999999
1718208080527331517,-1.0862023120000313,0.7791314999999991,11.753489819999968,-0.3220273639999998,-1.1645631969999974,0.052954348
1718208080528564716,-1.029667312000031,0.8316864999999991,11.706526819999969,-0.3278413639999998,-1.1608511969999975,0.048144348
1718208080528573082,-0.977194312000031,0.8770514999999992,11.649847819999968,-0.3341713639999998,-1.1573241969999974,0.042131348
1718208080529761448,-0.9334903120000312,0.9271154999999992,11.631155819999968,-0.3395443639999997,-1.1554701969999974,0.035984348
1718208080531012286,-0.9028223120000312,0.9598706999999989,11.59678481999997,-0.3433473639999997,-1.1562181969999974,0.029296348
1718208080532245504,-0.8767683120000309,0.9850046999999994,11.540164819999967,-0.3452643639999998,-1.1588061969999974,0.022607348
1718208080533463335,-0.8594483120000311,1.000032699999999,11.515273819999967,-0.3459673639999998,-1.1610321969999975,0.016596348
1718208080533471617,-0.8507783120000312,1.019904699999999,11.50667881999997,-0.3463773639999997,-1.164551196999997,0.011246348
1718208080534712900,-0.8548773120000308,1.042338699999999,11.499382819999967,-0.3471813639999997,-1.1694341969999975,0.006817348
1718208080539792361,-0.863574312000031,1.0572106999999986,11.508894819999966,-0.3467513639999997,-1.1760301969999971,0.003183348
1718208080541568476,-0.8723523120000309,1.072068699999999,11.51152481999997,-0.3461053639999998,-1.1832581969999971,-5.3651999999997785e-05
1718208080541577214,-0.872807312000031,1.072110699999999,11.515046819999968,-0.3447753639999997,-1.1905741969999974,-0.0028896519999999
1718208080541597246,-0.8735323120000311,1.0866186999999994,11.528999819999967,-0.3426183639999998,-1.1980451969999972,-0.0041216519999999
1718208080541619125,-0.870084312000031,1.088746689999999,11.543970819999968,-0.3399603639999998,-1.2044191969999976,-0.0048126519999999
1718208080541633168,-0.8627203120000311,1.1028756899999992,11.56924181999997,-0.3362923639999997,-1.2113751969999973,-0.0040356519999999
1718208080541642012,-0.8639413120000308,1.0972626999999993,11.58730581999997,-0.3317513639999998,-1.2180781969999974,-0.0031186519999999
1718208080542513557,-0.8653213120000309,1.0768326999999989,11.583492819999966,-0.3262953639999997,-1.2251451969999971,-0.0018016519999999
1718208080543444862,-0.8710623120000309,1.0586346999999994,11.595894819999968,-0.3201463639999998,-1.2312851969999972,6.134800000000273e-05
1718208080544390501,-0.8725523120000309,1.0427896999999993,11.569494819999967,-0.3133203639999997,-1.2368481969999972,0.001263348
1718208080545504519,-0.8781443120000314,1.0245436999999993,11.550293819999968,-0.3069533639999998,-1.2413451969999971,0.002337348
1718208080546690599,-0.8834563120000309,1.0211736999999983,11.52253181999997,-0.3017243639999997,-1.2445941969999974,0.003014348
1718208080547913848,-0.8801033120000312,1.0326106999999989,11.493347819999968,-0.2972063639999998,-1.247203196999997,0.002892348
1718208080549058586,-0.8975963120000308,1.0466466999999988,11.455673819999967,-0.2937203639999997,-1.2479101969999973,0.002512348
1718208080550982511,-0.9065443120000308,1.065690699999999,11.409501819999967,-0.2906263639999998,-1.2489771969999977,0.001593348
1718208080551009486,-0.9111513120000314,1.0822836999999992,11.361843819999969,-0.2875643639999998,-1.249332196999997,-0.0002526519999999
1718208080552027329,-0.923863312000031,1.1039626899999988,11.305298819999969,-0.2857423639999998,-1.2475651969999972,-0.0026246519999999
1718208080553354953,-0.9235123120000308,1.1234016999999992,11.248212819999967,-0.2852873639999997,-1.2436711969999972,-0.0051246519999999
1718208080554531517,-0.9271473120000308,1.145486699999999,11.213066819999968,-0.2861043639999997,-1.2389681969999973,-0.0078926519999999
1718208080555834129,-0.926554312000031,1.160274699999999,11.170965819999967,-0.2870193639999998,-1.2345591969999974,-0.0102656519999999
1718208080555849301,-0.9175423120000312,1.1700486899999991,11.136831819999967,-0.2875683639999998,-1.2292411969999977,-0.0124976519999999
1718208080557037140,-0.9170223120000308,1.1601276999999992,11.11054481999997,-0.2876813639999998,-1.2231641969999971,-0.0145876519999999
1718208080558219352,-0.9080743120000312,1.1453606999999992,11.093323819999966,-0.2880883639999997,-1.2173131969999973,-0.015749652
1718208080559454834,-0.8820453120000309,1.1405036999999991,11.09957181999997,-0.2895013639999997,-1.2105451969999974,-0.0163796519999999
1718208080560422332,-0.8472103120000312,1.1310896999999993,11.099233819999968,-0.2927453639999998,-1.2026071969999972,-0.0160846519999999
1718208080561850196,-0.816531312000031,1.119249699999999,11.13073881999997,-0.2966693639999997,-1.1932271969999972,-0.0147166519999999
1718208080561940496,-0.7816503120000311,1.1050344999999997,11.179034819999968,-0.3010723639999997,-1.184149196999997,-0.0122886519999999
1718208080563870767,-0.7512283120000309,1.0881974999999993,11.213503819999968,-0.3044053639999998,-1.1759051969999972,-0.0091946519999999
1718208080565282922,-0.729456312000031,1.0615234999999994,11.271213819999966,-0.3074003639999997,-1.1690621969999972,-0.0058406519999999
1718208080565317311,-0.7119383120000311,1.0422794999999994,11.315542819999967,-0.3107483639999998,-1.1626821969999974,-0.0012946519999999
1718208080566557356,-0.7029633120000311,1.022979499999999,11.34476081999997,-0.3136443639999998,-1.1567051969999973,0.003251348
1718208080568092766,-0.7024863120000311,1.0037644999999993,11.390266819999969,-0.3169653639999997,-1.1516341969999973,0.0085883479999999
1718208080568102729,-0.710476312000031,0.9895794999999992,11.420854819999969,-0.3206563639999998,-1.147725196999997,0.014181348
1718208080569400511,-0.7313843120000314,0.9679044999999992,11.444059819999968,-0.3233183639999998,-1.1450431969999972,0.019771348
1718208080570634553,-0.7566113120000311,0.9584874999999988,11.46644481999997,-0.3258243639999998,-1.1438401969999976,0.024823348
1718208080570641871,-0.7818883120000306,0.9490514999999988,11.465539819999968,-0.3278933639999997,-1.1433921969999974,0.029470348
1718208080571907477,-0.8027053120000311,0.9617444999999994,11.470745819999967,-0.3307963639999998,-1.1416321969999974,0.033324348
1718208080573098164,-0.8104573120000311,0.9821344999999988,11.466671819999968,-0.3353823639999997,-1.1395241969999972,0.036370348
1718208080574273700,-0.813681312000031,1.0198584999999991,11.46941181999997,-0.3413033639999998,-1.1360961969999972,0.039151348
1718208080575499230,-0.804029312000031,1.0700274999999992,11.464162819999968,-0.3481943639999997,-1.1327091969999972,0.041790348
1718208080576697829,-0.7943913120000308,1.115328499999999,11.46605881999997,-0.3551413639999998,-1.1298201969999977,0.044160348
1718208080576710963,-0.784979312000031,1.1554454999999997,11.46036481999997,-0.3606133639999997,-1.1268031969999972,0.046275348
1718208080577978069,-0.7674043120000311,1.1952494999999994,11.440067819999967,-0.3643503639999997,-1.1244011969999974,0.048395348
1718208080579163867,-0.7582773120000312,1.2252756999999987,11.40432881999997,-0.3679703639999997,-1.1220091969999972,0.050380348
1718208080580324977,-0.7407433120000313,1.2552896999999992,11.384479819999967,-0.3716063639999998,-1.1199741969999977,0.0527643479999999
1718208080581548280,-0.7442633120000308,1.2780876999999988,11.386392819999967,-0.3759453639999998,-1.1180451969999974,0.054746348
1718208080582752181,-0.7477313120000306,1.296092699999999,11.380197819999973,-0.3805623639999997,-1.1167381969999974,0.056454348
1718208080582767158,-0.7599643120000312,1.2942246999999991,11.373371819999967,-0.3834243639999997,-1.1164431969999975,0.057501348
1718208080583984921,-0.7768103120000309,1.2749196999999992,11.383217819999969,-0.3847323639999997,-1.1170921969999974,0.059218348
1718208080585589904,-0.8066803120000308,1.2527384999999989,11.385167819999968,-0.3838563639999998,-1.1178421969999974,0.0604173479999999
1718208080585604079,-0.8280943120000308,1.215996499999999,11.38646981999997,-0.3831683639999997,-1.1201891969999973,0.061203348
1718208080586847124,-0.8536853120000307,1.181786499999999,11.41750481999997,-0.3830953639999998,-1.1226111969999972,0.061721348
1718208080588062266,-0.8706923120000312,1.1624014999999988,11.448406819999969,-0.3837363639999997,-1.125153196999997,0.0622343479999999
1718208080589650696,-0.8874893120000311,1.1432584999999993,11.501055819999968,-0.3856863639999997,-1.1276891969999971,0.062340348
1718208080589658595,-0.9043133120000308,1.128979499999999,11.538392819999968,-0.3873603639999998,-1.130359196999997,0.0623143479999999
1718208080590819076,-0.9213583120000308,1.1242994999999991,11.59015781999997,-0.3880363639999998,-1.1340531969999974,0.0616233479999999
1718208080592074656,-0.942744312000031,1.1122424999999994,11.61927981999997,-0.3881383639999998,-1.1388241969999973,0.060927348
1718208080593312647,-0.9769053120000312,1.0927924999999994,11.662314819999969,-0.3878623639999998,-1.1444381969999973,0.0594313479999999
1718208080594627241,-1.019653312000031,1.0733604999999993,11.71417581999997,-0.3875753639999997,-1.1512121969999976,0.058727348
1718208080594654337,-1.0710063120000308,1.0489754999999994,11.75813581999997,-0.3866743639999997,-1.1592661969999971,0.0577533479999999
1718208080595860114,-1.1139313120000307,1.0245074999999988,11.780143819999967,-0.3853553639999998,-1.1666691969999974,0.0571813479999999
1718208080597139952,-1.1482853120000311,1.0000604999999991,11.77878481999997,-0.3840513639999998,-1.1734161969999974,0.0562133479999999
1718208080598405682,-1.1743173120000314,0.9900834999999992,11.785340819999966,-0.3819283639999997,-1.1796591969999972,0.0552543479999999
1718208080599611309,-1.1961243120000309,0.9824794999999992,11.784618819999968,-0.3795653639999997,-1.1850761969999972,0.054435348
1718208080599627386,-1.2219333120000313,0.9775264999999992,11.783122819999967,-0.3782603639999998,-1.190060196999997,0.053347348
1718208080600882327,-1.234872312000031,0.975187499999999,11.75832181999997,-0.3776083639999997,-1.1948201969999976,0.0519873479999999
1718208080602069063,-1.247635312000031,0.9827084999999988,11.76260281999997,-0.3777053639999997,-1.1985791969999973,0.049966348
1718208080603255440,-1.251755312000031,1.0001484999999994,11.735987819999968,-0.3783633639999997,-1.2015681969999974,0.047678348
1718208080604492719,-1.2516663120000309,1.0101474999999993,11.724038819999969,-0.3786713639999998,-1.2040951969999976,0.044997348
1718208080604505002,-1.251616312000031,1.0151074999999992,11.70487781999997,-0.3783843639999998,-1.2057361969999971,0.042458348
1718208080605638436,-1.247568312000031,1.0222414999999991,11.685720819999966,-0.3767583639999997,-1.2074371969999973,0.039662348
1718208080606823708,-1.243489312000031,1.0196984999999987,11.65928981999997,-0.3754713639999998,-1.2097551969999971,0.037123348
1718208080608045530,-1.252051312000031,1.0049394999999988,11.655639819999967,-0.3745263639999997,-1.2115211969999975,0.034722348
1718208080609198918,-1.2564093120000313,0.992584499999999,11.64471581999997,-0.3733413639999998,-1.2132181969999971,0.032455348
1718208080610450776,-1.2649993120000311,0.9778064999999988,11.659971819999967,-0.3728433639999998,-1.2137281969999971,0.032456348
1718208080610676073,-1.286527312000031,0.960327499999999,11.664636819999968,-0.3705913639999998,-1.2158471969999975,0.030328348
1718208080611667612,-1.299887312000031,0.9230514999999992,11.654822819999968,-0.3668383639999998,-1.2193131969999973,0.028332348
1718208080612896514,-1.313757312000031,0.8901604999999991,11.63801081999997,-0.3603983639999998,-1.223804196999997,0.026213348
1718208080615320592,-1.3309673120000312,0.8752364999999991,11.63828481999997,-0.3590123639999998,-1.224719196999997,0.026217348
1718208080615328472,-1.335385312000031,0.8726344999999991,11.65283881999997,-0.3581523639999998,-1.2256761969999974,0.025685348
1718208080616488003,-1.335441312000031,0.8824114999999988,11.67581581999997,-0.3582523639999997,-1.2260691969999975,0.025817348
1718208080616500891,-1.322806312000031,0.8897554999999995,11.70810881999997,-0.3586243639999998,-1.2259851969999975,0.027015348
1718208080617723469,-1.318766312000031,0.8919734999999993,11.74021481999997,-0.3579453639999998,-1.2254161969999973,0.027958348
1718208080618974337,-1.319108312000031,0.891645499999999,11.765312819999966,-0.3566323639999997,-1.225426196999997,0.029166348
1718208080620187031,-1.3321833120000308,0.8840334999999995,11.783343819999969,-0.3553893639999997,-1.2262801969999972,0.030768348
1718208080621264524,-1.3320533120000309,0.8890574999999994,11.775363819999969,-0.3559883639999998,-1.2261571969999974,0.030632348
1718208080622470699,-1.384372312000031,0.8634644999999994,11.821501819999968,-0.3502943639999997,-1.2307131969999974,0.034903348
1718208080622493599,-1.4107203120000311,0.828408499999999,11.825970819999966,-0.3460703639999998,-1.2330291969999974,0.037046348
1718208080623714390,-1.410680312000031,0.8382974999999989,11.810917819999966,-0.3463943639999998,-1.2335451969999975,0.037172348
1718208080624949044,-1.428636312000031,0.8079924999999994,11.80026181999997,-0.3414703639999997,-1.2353421969999971,0.039188348
1718208080626224543,-1.442297312000031,0.7850634999999989,11.790177819999968,-0.3369073639999997,-1.2364451969999972,0.041606348
1718208080627402333,-1.447459312000031,0.7768684999999994,11.78009281999997,-0.3326193639999997,-1.2376691969999976,0.044021348
1718208080628713067,-1.461023312000031,0.768738499999999,11.754697819999969,-0.3285393639999998,-1.2389151969999974,0.046434348
1718208080628725153,-1.4617713120000309,0.7728514999999994,11.729098819999969,-0.3247703639999998,-1.2388161969999971,0.048721348
1718208080629845600,-1.4496643120000314,0.7794504999999989,11.703031819999968,-0.3214323639999998,-1.2373601969999972,0.050748348
1718208080631037655,-1.4202773120000307,0.8009934999999988,11.674761819999969,-0.3194753639999997,-1.2349861969999971,0.051573348
1718208080632330417,-1.390589312000031,0.8375054999999987,11.646037819999968,-0.3190953639999997,-1.2318681969999976,0.052393348
1718208080633652441,-1.3565553120000309,0.8862856999999987,11.61640981999997,-0.3190103639999997,-1.2280581969999973,0.052685348
1718208080633680897,-1.322437312000031,0.9253416999999992,11.586454819999968,-0.3192623639999998,-1.2238551969999971,0.052843348
1718208080634780293,-1.284156312000031,0.9666406999999994,11.555724819999966,-0.3186123639999997,-1.218951196999997,0.052347348
1718208080636026316,-1.2544233120000312,0.9932716999999992,11.524361819999967,-0.3176843639999998,-1.2154401969999975,0.051443348
1718208080637200539,-1.228932312000031,1.012471699999999,11.483607819999968,-0.3161743639999998,-1.211739196999997,0.049346348
1718208080638388064,-1.2163583120000308,1.029123689999999,11.465522819999968,-0.3140103639999997,-1.2097751969999972,0.047112348
1718208080642325088,-1.2164793120000312,1.0238076899999986,11.430910819999967,-0.3116513639999997,-1.208886196999997,0.044071348
1718208080642369914,-1.2125373120000311,1.0158616899999986,11.41154981999997,-0.3084473639999998,-1.2083021969999972,0.040901348
1718208080643889417,-1.2212283120000311,1.010473699999999,11.390914819999969,-0.3056273639999998,-1.2083191969999971,0.037060348
1718208080643897341,-1.2259593120000307,0.9874656999999994,11.379044819999969,-0.2999303639999998,-1.2093751969999973,0.028707348
1718208080643909949,-1.2262403120000314,0.9723276999999996,11.411299819999968,-0.2974523639999998,-1.2103661969999973,0.024728348
1718208080643958336,-1.2176803120000312,0.9773086999999996,11.419204819999967,-0.2980653639999998,-1.2098441969999971,0.024994348
1718208080644684583,-1.217828312000031,0.9769406899999988,11.436143819999968,-0.2960713639999998,-1.2102211969999972,0.021015348
1718208080646088806,-1.2010833120000308,0.9766116999999994,11.475917819999967,-0.2943223639999998,-1.2111851969999974,0.017030348
1718208080647477970,-1.188615312000031,0.9787666999999988,11.508299819999968,-0.2925383639999998,-1.2131101969999971,0.013172348
1718208080647488307,-1.1804423120000314,0.978536699999999,11.54924481999997,-0.2909963639999998,-1.2158631969999971,0.009972348
1718208080649261223,-1.189278312000031,0.9635676999999994,11.598371819999969,-0.2891643639999998,-1.218897196999997,0.007173348
1718208080650501956,-1.189910312000031,0.9484136999999994,11.618222819999968,-0.2860383639999997,-1.2230491969999973,0.004771348
1718208080650521173,-1.1949003120000312,0.9258496999999992,11.64637781999997,-0.2825563639999998,-1.2276471969999974,0.002768348
1718208080651725109,-1.2084313120000307,0.8983116999999994,11.652082819999968,-0.2784643639999998,-1.2325161969999971,0.000899348
1718208080653269547,-1.2135153120000308,0.8756926899999992,11.665827819999969,-0.2745483639999997,-1.2376211969999973,-0.0007066519999999
1718208080654563582,-1.253043312000031,0.8431106879999994,11.670238819999968,-0.2684943639999997,-1.2486121969999977,-0.0036676519999999
1718208080654577122,-1.253163312000031,0.8380766899999995,11.662454819999969,-0.2676763639999998,-1.2488601969999975,-0.0039306519999999
1718208080655718017,-1.262333312000031,0.8230796899999991,11.653105819999968,-0.2647623639999997,-1.2550531969999972,-0.0055516519999999
1718208080656971045,-1.271406312000031,0.8130376899999994,11.606175819999969,-0.2620173639999998,-1.2606211969999974,-0.0069056519999999
1718208080658180345,-1.276036312000031,0.8202926999999991,11.566766819999968,-0.2603873639999998,-1.2652481969999974,-0.0081266519999999
1718208080659290126,-1.267842312000031,0.8497116999999988,11.550578819999968,-0.2598293639999998,-1.2693031969999973,-0.0089506519999999
1718208080660576471,-1.263514312000031,0.8720956999999993,11.51050881999997,-0.2606673639999998,-1.2725291969999974,-0.0101786519999999
1718208080660591878,-1.2548553120000312,0.9116386999999988,11.48510981999997,-0.2619613639999997,-1.2749461969999971,-0.0116676519999999
1718208080661733659,-1.241824312000031,0.9391466999999994,11.459058819999967,-0.2640653639999998,-1.2777721969999971,-0.0134326519999999
1718208080662938587,-1.2329493120000308,0.9641696999999994,11.425794819999968,-0.2661933639999997,-1.2792821969999972,-0.0149236519999999
1718208080664197692,-1.223925312000031,0.989310699999999,11.415046819999969,-0.2691943639999997,-1.2800321969999977,-0.0164136519999999
1718208080666041003,-1.2148653120000308,1.0046226999999988,11.397148819999968,-0.2720973639999997,-1.2798871969999974,-0.0176306519999999
1718208080666125790,-1.2102993120000312,1.0124926999999988,11.387691819999969,-0.2742033639999998,-1.2817031969999977,-0.0184566519999999
1718208080667214389,-1.2228743120000312,1.005475699999999,11.363897819999968,-0.2751483639999997,-1.283802196999997,-0.0188796519999999
1718208080668592035,-1.231207312000031,0.9862586999999992,11.35483381999997,-0.2762413639999997,-1.2861891969999972,-0.0195706519999999
1718208080668602020,-1.2522593120000312,0.9645476999999996,11.338568819999969,-0.2771273639999997,-1.2882921969999972,-0.019991652
1718208080669730747,-1.269036312000031,0.940443689999999,11.329636819999967,-0.2782653639999998,-1.2905691969999973,-0.0205486519999999
1718208080670973398,-1.2816983120000311,0.9236426879999992,11.313886819999968,-0.2791083639999998,-1.2935401969999971,-0.020710652
1718208080672073989,-1.2985973120000311,0.9043316899999996,11.321299819999966,-0.2799703639999997,-1.2957001969999975,-0.0205976519999999
1718208080673283386,-1.306822312000031,0.885115689999999,11.31216481999997,-0.2812833639999998,-1.2969511969999974,-0.021282652
1718208080674598378,-1.319400312000031,0.8732076879999993,11.311916819999968,-0.2825033639999998,-1.2986661969999973,-0.0211696519999999
1718208080674616122,-1.3319623120000317,0.8614136899999992,11.312185819999968,-0.2841643639999998,-1.3011391969999977,-0.0206666519999999
1718208080675786158,-1.3489033120000309,0.8567886879999993,11.320248819999968,-0.2850713639999997,-1.3036981969999972,-0.0201566519999999
1718208080677014249,-1.370053312000031,0.8447896899999994,11.327666819999967,-0.2858383639999998,-1.3058171969999972,-0.020041652
1718208080678907002,-1.3785013120000311,0.8401876899999992,11.320601819999968,-0.2867613639999997,-1.3082271969999972,-0.0195326519999999
1718208080680422596,-1.391402312000031,0.8475836899999991,11.314896819999968,-0.2866593639999997,-1.3106081969999974,-0.018349652
1718208080680434268,-1.4041853120000312,0.8453136899999991,11.317610819999969,-0.2873323639999998,-1.3123441969999972,-0.016502652
1718208080681609076,-1.4083923120000312,0.8528596899999987,11.31291481999997,-0.2883423639999998,-1.312933196999997,-0.0145176519999999
1718208080681617565,-1.4341233120000312,0.8528176999999988,11.309145819999967,-0.2878733639999997,-1.3151531969999972,-0.0121326519999999
1718208080682776945,-1.438767312000031,0.8550396999999987,11.290174819999969,-0.2865363639999997,-1.3166291969999977,-0.0100056519999999
1718208080683981107,-1.439072312000031,0.849892699999999,11.271190819999967,-0.2852933639999997,-1.3166331969999974,-0.0078696519999999
1718208080685100562,-1.4392013120000309,0.8496806999999994,11.252454819999969,-0.2846513639999998,-1.314748196999997,-0.0054586519999999
1718208080686352856,-1.430852312000031,0.8592226999999987,11.24034281999997,-0.2839023639999998,-1.3127271969999972,-0.0037106519999999
1718208080687757638,-1.4265603120000314,0.8713706999999987,11.220572819999967,-0.2839943639999998,-1.3101491969999972,-0.0018316519999999
1718208080687766659,-1.409706312000031,0.8760106999999989,11.208707819999969,-0.2833183639999997,-1.3074691969999974,5.2348000000002406e-05
1718208080689002563,-1.3884903120000311,0.8831266999999988,11.188148819999968,-0.2828383639999998,-1.3039581969999972,0.001275348
1718208080690250067,-1.3670493120000309,0.8952456999999988,11.16713181999997,-0.2831753639999997,-1.2989351969999974,0.002369348
1718208080691451138,-1.345499312000031,0.9123386999999994,11.167862819999966,-0.2841043639999998,-1.2935361969999974,0.002932348
1718208080692665452,-1.3196533120000309,0.9319206899999992,11.17509181999997,-0.2852273639999997,-1.2883171969999971,0.002827348
1718208080692682767,-1.3022253120000309,0.9417286879999988,11.175047819999968,-0.2864543639999997,-1.2824771969999973,0.002992348
1718208080693821571,-1.293312312000031,0.9465776899999994,11.181576819999968,-0.2872843639999998,-1.2770311969999972,0.002492348
1718208080695028891,-1.2886313120000312,0.9391576999999988,11.202840819999969,-0.2880303639999997,-1.2713911969999971,0.001730348
1718208080696202098,-1.283947312000031,0.9367086999999992,11.232021819999968,-0.2891563639999998,-1.2662621969999974,0.0012273479999999
1718208080697479484,-1.2877793120000312,0.9195656999999988,11.246662819999967,-0.2900093639999997,-1.2615151969999971,0.001122348
1718208080697497646,-1.2916203120000307,0.9072794999999992,11.268704819999968,-0.2908033639999998,-1.2565231969999977,0.000887348
1718208080698684613,-1.299660312000031,0.8925934999999988,11.284119819999969,-0.2918413639999998,-1.2513501969999972,0.001316348
1718208080699905169,-1.307717312000031,0.8778954999999993,11.322887819999966,-0.2930983639999998,-1.2458001969999977,0.002147348
1718208080701129273,-1.315606312000031,0.8731484999999991,11.346468819999968,-0.2951163639999998,-1.2400061969999971,0.003108348
1718208080702367681,-1.3064553120000308,0.8783824999999988,11.348031819999967,-0.2979283639999998,-1.2344311969999973,0.004591348
1718208080703635097,-1.314468312000031,0.8638444999999993,11.380301819999968,-0.2998463639999998,-1.2295101969999973,0.006212348
1718208080703641215,-1.3140163120000312,0.8639734999999993,11.413275819999969,-0.3018233639999997,-1.2243351969999974,0.008233348
1718208080704821831,-1.3092443120000312,0.866649499999999,11.43118681999997,-0.3042193639999997,-1.2189611969999974,0.010384348
1718208080706226102,-1.291688312000031,0.8815074999999987,11.479263819999968,-0.3069243639999998,-1.2119921969999976,0.012414348
1718208080707463225,-1.2826873120000308,0.8915634999999988,11.497176819999968,-0.3094593639999997,-1.2070581969999974,0.014561348
1718208080708844802,-1.286612312000031,0.8842874999999988,11.515742819999968,-0.3108643639999997,-1.2027071969999972,0.016978348
1718208080708859107,-1.290517312000031,0.8868704999999995,11.541391819999967,-0.3125883639999998,-1.1988721969999974,0.019125348
1718208080710045981,-1.2948303120000308,0.8695204999999993,11.57541381999997,-0.3123543639999998,-1.1962821969999975,0.021409348
1718208080711326525,-1.3080593120000312,0.8272474999999992,11.571997819999968,-0.3093373639999998,-1.1948281969999972,0.023567348
1718208080712695079,-1.3085033120000311,0.8021954999999987,11.58388881999997,-0.3070113639999998,-1.1930461969999973,0.025857348
1718208080712704518,-1.3047333120000313,0.7796064999999994,11.588443819999968,-0.3046653639999997,-1.1915711969999974,0.028276348
1718208080713929913,-1.3091963120000312,0.762140499999999,11.599949819999969,-0.3035583639999997,-1.1897411969999974,0.030559348
1718208080715137201,-1.3094363120000314,0.7520324999999994,11.619048819999968,-0.3025883639999998,-1.1880991969999974,0.032840348
1718208080717704633,-1.3011943120000309,0.7468644999999989,11.62218981999997,-0.3015743639999997,-1.1870701969999975,0.034583348
1718208080717721530,-1.288638312000031,0.7442014999999992,11.616641819999966,-0.3007553639999998,-1.1859671969999974,0.035659348
1718208080717730176,-1.280171312000031,0.7489804999999988,11.610258819999968,-0.3004973639999997,-1.1844401969999974,0.036336348
1718208080718766760,-1.2590453120000311,0.7709834999999994,11.596541819999969,-0.3004933639999997,-1.1840991969999974,0.037135348
1718208080719992876,-1.242046312000031,0.8004136999999989,11.59717881999997,-0.3010483639999998,-1.1835881969999973,0.037535348
1718208080721124563,-1.2290453120000309,0.8276366999999991,11.58963881999997,-0.3027223639999998,-1.1828891969999975,0.037794348
1718208080722346419,-1.215838312000031,0.8599006999999992,11.581002819999968,-0.3052103639999997,-1.181434196999997,0.037522348
1718208080723747481,-1.2111293120000313,0.8921926999999988,11.60197581999997,-0.3078973639999998,-1.1807591969999975,0.036847348
1718208080723779521,-1.2065723120000311,0.9146986999999992,11.600756819999969,-0.3100483639999997,-1.1819651969999971,0.036425348
1718208080724918740,-1.2147643120000309,0.9200056999999988,11.598708819999969,-0.3117243639999997,-1.1833731969999972,0.035473348
1718208080726171973,-1.2272653120000312,0.9129746999999993,11.603933819999966,-0.3128783639999998,-1.184840196999997,0.034258348
1718208080727569213,-1.252598312000031,0.8984546999999988,11.601702819999968,-0.3132243639999997,-1.1863971969999971,0.033049348
1718208080727577099,-1.2698233120000308,0.8788284999999993,11.615950819999968,-0.3123293639999998,-1.1898241969999972,0.032367348
1718208080728733133,-1.2955513120000308,0.864121499999999,11.631171819999969,-0.3115823639999998,-1.1935351969999972,0.032349348
1718208080729917683,-1.316944312000031,0.8421594999999988,11.638085819999969,-0.3111493639999997,-1.1971591969999973,0.031928348
1718208080731141457,-1.325315312000031,0.8229054999999993,11.65180181999997,-0.3122403639999997,-1.1995461969999972,0.031239348
1718208080732429776,-1.3337963120000311,0.8133374999999992,11.658315819999968,-0.3127763639999997,-1.2022011969999973,0.030685348
1718208080733701579,-1.3295443120000314,0.8062704999999993,11.65748581999997,-0.3135273639999997,-1.2048901969999974,0.030261348
1718208080733713084,-1.3296383120000312,0.8113464999999993,11.68053581999997,-0.3141223639999997,-1.2075451969999973,0.030506348
1718208080735001171,-1.3212533120000312,0.8212984999999989,11.696500819999969,-0.3146763639999997,-1.2098071969999973,0.031020348
1718208080736274613,-1.3212953120000308,0.8263974999999988,11.689817819999966,-0.3152783639999997,-1.2119561969999977,0.031666348
1718208080737606213,-1.312909312000031,0.8413104999999992,11.697936819999969,-0.3159933639999998,-1.2148541969999973,0.032041348
1718208080737615615,-1.304460312000031,0.8611426999999987,11.691252819999969,-0.3168723639999998,-1.2171271969999973,0.032684348
1718208080738801545,-1.2958143120000312,0.8811576999999988,11.706377819999968,-0.3188413639999998,-1.2190161969999973,0.032925348
1718208080740009252,-1.295504312000031,0.9012486999999992,11.71371781999997,-0.3212363639999998,-1.2202941969999974,0.033169348
1718208080749026162,-1.2869373120000311,0.9309406999999992,11.71404681999997,-0.3226523639999997,-1.2219461969999974,0.033547348
1718208080750945836,-1.2783503120000312,0.945974699999999,11.713729819999967,-0.3240233639999997,-1.2239561969999977,0.033524348
1718208080750968056,-1.278314312000031,0.9560136999999987,11.698553819999969,-0.3247853639999998,-1.2259831969999972,0.033637348
1718208080750982039,-1.2912123120000314,0.9634186999999992,11.68339581999997,-0.3244583639999998,-1.2289931969999974,0.033619348
1718208080750995035,-1.2999483120000312,0.9536366899999992,11.668167819999969,-0.3236863639999998,-1.2324111969999971,0.033466348
1718208080751003779,-1.317208312000031,0.9438146899999988,11.65294881999997,-0.3226803639999998,-1.2361061969999971,0.033313348
1718208080751018207,-1.3259233120000309,0.9389596999999992,11.630514819999966,-0.3220703639999998,-1.2394031969999972,0.033426348
1718208080751049624,-1.342993312000031,0.924372699999999,11.607693819999968,-0.3217823639999997,-1.2422051969999974,0.033407348
1718208080751073484,-1.339022312000031,0.9170626999999992,11.59335681999997,-0.3212243639999997,-1.2454051969999975,0.033786348
1718208080751085892,-1.343505312000031,0.914590699999999,11.579407819999968,-0.3205933639999997,-1.2477501969999971,0.034438348
1718208080752322209,-1.352280312000031,0.8950036999999988,11.557676819999967,-0.3197233639999998,-1.2510321969999971,0.034950348
1718208080752339212,-1.3527463120000314,0.8899746999999995,11.543799819999968,-0.3182523639999998,-1.2549431969999971,0.035464348
1718208080754105402,-1.3614793120000312,0.8851966999999994,11.54466181999997,-0.3180793639999997,-1.2589991969999976,0.035969348
1718208080754132273,-1.374332312000031,0.8927504999999989,11.54635881999997,-0.3186313639999998,-1.2622611969999973,0.037142348
1718208080755342526,-1.3870203120000308,0.8858074999999992,11.554741819999968,-0.3200143639999998,-1.2656241969999973,0.037908348
1718208080756599797,-1.4040903120000312,0.886055699999999,11.56332781999997,-0.3206453639999997,-1.2693281969999972,0.038678348
1718208080756625975,-1.421280312000031,0.8862206999999991,11.579639819999969,-0.3208353639999998,-1.2735381969999977,0.039449348
1718208080757881750,-1.4385173120000312,0.8716626999999991,11.587201819999969,-0.3205433639999998,-1.2783591969999974,0.039418348
1718208080759030848,-1.468628312000031,0.8495206999999994,11.61015181999997,-0.3192193639999998,-1.2828941969999972,0.039399348
1718208080760271093,-1.4989013120000312,0.8371276899999989,11.625265819999967,-0.3173383639999997,-1.2892091969999973,0.039105348
1718208080761460233,-1.5207573120000308,0.8246956999999988,11.647455819999967,-0.3152503639999998,-1.2957561969999971,0.038410348
1718208080761469890,-1.546582312000031,0.8100336999999991,11.652654819999968,-0.3140593639999998,-1.3019871969999977,0.036780348
1718208080762790745,-1.568208312000031,0.8074756999999988,11.658429819999968,-0.3125103639999998,-1.3071531969999972,0.035426348
1718208080763949735,-1.5770903120000312,0.8123156879999991,11.671790819999968,-0.3113323639999998,-1.3122311969999971,0.034071348
1718208080765149144,-1.585911312000031,0.8122126899999987,11.677166819999968,-0.3099953639999998,-1.3164181969999975,0.032455348
1718208080766277544,-1.5904503120000308,0.8146116999999992,11.674496819999968,-0.3088533639999997,-1.3205331969999974,0.030572348
1718208080767864732,-1.5948033120000311,0.8269006999999988,11.67877181999997,-0.3084683639999998,-1.3236481969999971,0.028426348
1718208080767887223,-1.594893312000031,0.8269646999999991,11.67506081999997,-0.3080193639999998,-1.326672196999997,0.026012348
1718208080769134932,-1.5950953120000313,0.8318136999999988,11.658030819999968,-0.3070793639999998,-1.3294531969999976,0.024667348
1718208080770323785,-1.591000312000031,0.8342376999999992,11.648327819999968,-0.3063933639999997,-1.3316531969999972,0.023192348
1718208080771580163,-1.5910123120000312,0.8391436999999992,11.631734819999968,-0.3061143639999997,-1.3325401969999973,0.022255348
1718208080771596459,-1.5866113120000311,0.841804689999999,11.614041819999969,-0.3067443639999997,-1.3334711969999973,0.020779348
1718208080772808660,-1.5780023120000313,0.8419446899999994,11.604449819999967,-0.3071923639999997,-1.3338221969999975,0.019574348
1718208080774441071,-1.5694503120000314,0.8518216899999989,11.57999881999997,-0.3073063639999998,-1.3343131969999975,0.018503348
1718208080775751607,-1.5524723120000314,0.8469596999999988,11.563257819999968,-0.3071713639999998,-1.3346371969999973,0.017434348
1718208080775764042,-1.531097312000031,0.8494806999999993,11.53820981999997,-0.3073943639999998,-1.3337591969999971,0.015971348
1718208080776980211,-1.5095823120000311,0.8619386899999989,11.521328819999969,-0.3085953639999997,-1.3322601969999974,0.015039348
1718208080778126453,-1.487849312000031,0.8844606999999993,11.51184681999997,-0.3112133639999997,-1.3308951969999971,0.014231348
1718208080779282533,-1.4660763120000309,0.9119496999999994,11.502686819999967,-0.3142123639999997,-1.3295351969999971,0.013687348
1718208080780491451,-1.4484943120000309,0.9370356999999994,11.500800819999968,-0.3174493639999998,-1.328245196999997,0.013009348
1718208080780503132,-1.435342312000031,0.9496146999999988,11.491258819999969,-0.3192933639999998,-1.3267671969999972,0.012073348
1718208080781688691,-1.430729312000031,0.9621276999999996,11.48996081999997,-0.3209043639999998,-1.325311196999997,0.011541348
1718208080782934676,-1.4261763120000317,0.9648834999999994,11.488472819999966,-0.3224123639999998,-1.3249801969999977,0.010866348
1718208080784164150,-1.4301203120000312,0.9676594999999992,11.49574081999997,-0.3241283639999998,-1.3246731969999974,0.010992348
1718208080785356357,-1.4384923120000308,0.9775904999999988,11.51208881999997,-0.3250943639999997,-1.3244551969999974,0.011921348
1718208080786590123,-1.4510923120000312,0.9752834999999987,11.52103381999997,-0.3259823639999998,-1.3240421969999971,0.012984348
1718208080786629971,-1.4553023120000312,0.9582364999999992,11.51562081999997,-0.3264073639999997,-1.3238441969999974,0.0144453479999999
1718208080787799732,-1.4764753120000311,0.9508834999999988,11.525534819999969,-0.3266853639999997,-1.3229461969999972,0.016048348
1718208080788994226,-1.4891973120000306,0.9484944999999994,11.52830381999997,-0.3271393639999997,-1.3227911969999973,0.017910348
1718208080790176580,-1.502109312000031,0.9459634999999992,11.547100819999969,-0.3269373639999998,-1.3232701969999972,0.020172348
1718208080791465869,-1.506419312000031,0.9434924999999988,11.558227819999969,-0.3271873639999998,-1.3225901969999976,0.022438348
1718208080792591454,-1.514827312000031,0.9435684999999988,11.553589819999967,-0.3278413639999997,-1.3216051969999971,0.024437348
1718208080792599964,-1.519068312000031,0.945955699999999,11.56387881999997,-0.3280313639999997,-1.320172196999997,0.026177348
1718208080793778643,-1.5148833120000311,0.9532984999999994,11.581567819999968,-0.3283943639999997,-1.3197331969999972,0.027777348
1718208080794966223,-1.519090312000031,0.960644499999999,11.567603819999968,-0.3285243639999997,-1.3190611969999972,0.028579348
1718208080796178990,-1.523334312000031,0.9728334999999996,11.57622981999997,-0.3285923639999998,-1.318396196999997,0.029250348
1718208080797422540,-1.5277733120000314,0.974986499999999,11.569220819999968,-0.3272423639999998,-1.3178491969999973,0.029396348
1718208080798641707,-1.5365063120000308,0.9795604999999996,11.568785819999968,-0.3256343639999998,-1.3181341969999976,0.028875348
1718208080798655802,-1.5495583120000314,0.9865944999999988,11.560383819999968,-0.3237693639999998,-1.3197601969999977,0.028079348
1718208080799856103,-1.5541773120000308,0.993622499999999,11.56722781999997,-0.3219163639999998,-1.3217431969999975,0.027281348
1718208080801027342,-1.5755293120000315,1.0007214999999987,11.557347819999968,-0.3204713639999998,-1.322504196999997,0.025691348
1718208080802229536,-1.584306312000031,1.0101654999999994,11.563098819999968,-0.3185803639999998,-1.3236801969999974,0.024234348
1718208080803494576,-1.6058083120000308,1.0073814999999997,11.54563081999997,-0.3163763639999998,-1.3254401969999972,0.022508348
1718208080803509150,-1.6232343120000308,1.0020274999999987,11.543349819999968,-0.3135493639999998,-1.3278831969999976,0.020648348
1718208080804702835,-1.6407883120000313,0.9818204999999992,11.533730819999969,-0.3098033639999998,-1.330183196999997,0.018795348
1718208080805905468,-1.6583983120000312,0.961537499999999,11.539362819999967,-0.3058373639999998,-1.332359196999997,0.016945348
1718208080807149894,-1.6676673120000305,0.9461224999999992,11.538623819999968,-0.3016113639999997,-1.3352791969999975,0.015756348
1718208080808329364,-1.6726193120000308,0.9332144999999988,11.515293819999968,-0.2975863639999997,-1.3378731969999973,0.014698348
1718208080809535247,-1.6690513120000308,0.9252524999999988,11.522647819999968,-0.2941703639999997,-1.3399481969999976,0.013908348
1718208080809543670,-1.665259312000031,0.9224124999999987,11.507347819999968,-0.2917963639999997,-1.3416451969999974,0.013379348
1718208080810736390,-1.657295312000031,0.9219774999999988,11.51508181999997,-0.2893973639999997,-1.3433981969999975,0.012984348
1718208080812017887,-1.6534703120000307,0.9192364999999988,11.507245819999968,-0.2874613639999998,-1.3455991969999974,0.012449348
1718208080813201171,-1.6498033120000315,0.916346699999999,11.507842819999968,-0.2848673639999997,-1.3479291969999971,0.012317348
1718208080814472237,-1.6418743120000312,0.9158786999999988,11.485335819999968,-0.2820343639999997,-1.3499361969999977,0.011920348
1718208080814492072,-1.6381663120000316,0.9129806999999992,11.478336819999967,-0.2794413639999997,-1.3517621969999976,0.011791348
1718208080815643443,-1.6342973120000313,0.9249716999999992,11.45589581999997,-0.2777713639999998,-1.353728196999997,0.011655348
1718208080816885110,-1.6301313120000307,0.9323126999999992,11.440200819999967,-0.2774723639999997,-1.3546721969999973,0.011250348
1718208080819050891,-1.6215823120000312,0.9520516999999986,11.439239819999967,-0.2781253639999997,-1.3555551969999975,0.010707348
1718208080820791330,-1.6170523120000313,0.9646456999999992,11.430357819999967,-0.2797373639999997,-1.3558671969999971,0.010162348
1718208080820807962,-1.6083183120000308,0.9844236999999988,11.428615819999967,-0.2808273639999997,-1.3552331969999976,0.009227348
1718208080820830975,-1.5953683120000308,0.9919536999999988,11.404408819999968,-0.2816363639999997,-1.3546351969999977,0.008426348
1718208080821951612,-1.590801312000031,0.9946436999999994,11.395388819999969,-0.2829263639999997,-1.353420196999997,0.007759348
1718208080823218662,-1.590464312000031,0.9948856999999994,11.386755819999967,-0.2842413639999998,-1.3521521969999972,0.007358348
1718208080824265755,-1.577381312000031,0.987815699999999,11.370579819999968,-0.2856653639999998,-1.3505231969999971,0.006958348
1718208080825465805,-1.5642713120000311,0.980791699999999,11.347386819999969,-0.2873123639999998,-1.3487691969999973,0.006955348
1718208080825494168,-1.559646312000031,0.9687386999999992,11.332045819999973,-0.2885653639999997,-1.3458971969999975,0.007096348
1718208080826722446,-1.5464583120000317,0.9518456999999988,11.325054819999966,-0.2903293639999998,-1.342113196999997,0.007772348
1718208080827940018,-1.5373543120000313,0.9424576999999992,11.30326381999997,-0.2928803639999998,-1.3380311969999972,0.008845348
1718208080829205124,-1.5154193120000308,0.9405726999999988,11.30404781999997,-0.2964563639999997,-1.3337321969999976,0.009913348
1718208080830411719,-1.493232312000031,0.9535756999999992,11.289962819999968,-0.3011763639999998,-1.3284391969999974,0.011378348
1718208080831662154,-1.4624033120000313,0.9667476999999992,11.291434819999967,-0.3070043639999997,-1.3223641969999975,0.013241348
1718208080831671008,-1.435822312000031,0.9872296999999988,11.301723819999967,-0.3129593639999998,-1.3156171969999977,0.015908348
1718208080833141207,-1.4048533120000313,1.005476699999999,11.304605819999969,-0.3198293639999998,-1.3091681969999975,0.018832348
1718208080834358791,-1.386671312000031,1.030996699999999,11.307501819999969,-0.3263713639999998,-1.3029541969999974,0.021758348
1718208080835619660,-1.377013312000031,1.0320246999999991,11.332921819999967,-0.3327493639999997,-1.2973611969999974,0.024549348
1718208080835628665,-1.3760963120000311,1.0376816999999994,11.34458481999997,-0.3377453639999997,-1.2921821969999974,0.028011348
1718208080837086899,-1.371330312000031,1.0307806999999989,11.357024819999967,-0.3409243639999997,-1.2881831969999975,0.031610348
1718208080838079140,-1.3794103120000307,1.0116106999999992,11.377905819999969,-0.3437903639999998,-1.2852771969999972,0.035736348
1718208080839275712,-1.3873633120000308,1.0022896999999995,11.39003581999997,-0.3469763639999997,-1.2818761969999972,0.039199348
1718208080840415021,-1.3909943120000308,0.9906386999999988,11.41760181999997,-0.3508543639999997,-1.2783961969999973,0.042924348
1718208080841625776,-1.3903123120000314,0.9814716999999988,11.43016981999997,-0.3549333639999997,-1.2743381969999974,0.0467833479999999
1718208080858172118,-1.400896312000031,0.961306699999999,11.523847819999968,-0.3681553639999997,-1.2598781969999973,0.060372348
1718208080860780878,-1.3967063120000311,0.9588206899999988,11.531309819999969,-0.3679713639999997,-1.2600541969999972,0.060239348
1718208080860793979,-1.409309312000031,0.9367956899999992,11.543066819999968,-0.3686643639999998,-1.2573501969999974,0.0630473479999999
1718208080860804384,-1.4178663120000308,0.9219126999999988,11.546336819999969,-0.3681783639999997,-1.2553421969999974,0.065061348
1718208080860815522,-1.422080312000031,0.8998276999999987,11.55578181999997,-0.3682203639999997,-1.2538771969999971,0.0662683479999999
1718208080860841311,-1.434827312000031,0.8825436999999993,11.571417819999969,-0.3677463639999997,-1.2528181969999972,0.066546348
1718208080860853921,-1.4390573120000307,0.8701466999999988,11.57868281999997,-0.3672263639999998,-1.2513641969999976,0.066294348
1718208080860878867,-1.4474453120000312,0.8601426999999993,11.59244681999997,-0.3666663639999998,-1.2488501969999972,0.065385348
1718208080860892965,-1.4388003120000308,0.8599896999999993,11.582456819999967,-0.3662363639999997,-1.2461761969999972,0.0638093479999999
1718208080860904264,-1.4387523120000307,0.8646156999999992,11.59448781999997,-0.3652893639999998,-1.2441621969999972,0.0617023479999999
1718208080860914768,-1.4345083120000308,0.866883699999999,11.591142819999968,-0.3643813639999997,-1.2434581969999976,0.059450348
1718208080860922300,-1.4303243120000309,0.8642314999999995,11.602601819999968,-0.3633083639999998,-1.2433791969999974,0.0569303479999999
1718208080860935334,-1.430669312000031,0.8637204999999992,11.59135881999997,-0.3604483639999997,-1.2440141969999974,0.0541513479999999
1718208080860964207,-1.4354643120000308,0.8508244999999991,11.58057281999997,-0.3566333639999998,-1.2457221969999972,0.051503348
1718208080860991599,-1.4445863120000308,0.8452564999999987,11.584984819999969,-0.3527193639999997,-1.248398196999997,0.048850348
1718208080861016106,-1.453629312000031,0.8348894999999987,11.573694819999968,-0.3490853639999998,-1.2511891969999973,0.045928348
1718208080862218460,-1.4711563120000313,0.8294504999999991,11.59304181999997,-0.3458133639999998,-1.254390196999997,0.043270348
1718208080862228147,-1.476018312000031,0.8313844999999993,11.59732881999997,-0.3424763639999997,-1.2582601969999974,0.040606348
1718208080862244750,-1.4676383120000307,0.8313014999999992,11.59751781999997,-0.3420523639999997,-1.2583661969999973,0.040607348
1718208080863504264,-1.4771633120000311,0.8403464999999993,11.628226819999968,-0.3368493639999997,-1.2664861969999972,0.035136348
1718208080863515792,-1.4819493120000309,0.8522334999999994,11.655873819999968,-0.3344893639999998,-1.2707461969999974,0.032997348
1718208080864763495,-1.491008312000031,0.8666114999999994,11.675485819999968,-0.3320923639999998,-1.2759651969999972,0.030586348
1718208080865650773,-1.504310312000031,0.8687866999999992,11.673156819999967,-0.3296223639999998,-1.2814961969999976,0.028702348
1718208080866831790,-1.517810312000031,0.8659326999999992,11.701588819999968,-0.3265483639999997,-1.2879081969999973,0.026952348
1718208080868472744,-1.5483393120000315,0.8531566999999992,11.707766819999968,-0.3226933639999998,-1.294102196999997,0.025474348
1718208080870838408,-1.5789603120000306,0.8354434999999995,11.713626819999968,-0.3184563639999997,-1.3010481969999972,0.023727348
1718208080870847479,-1.6011823120000308,0.8226654999999987,11.71241081999997,-0.3141763639999997,-1.309114196999997,0.022237348
1718208080872072410,-1.6273963120000308,0.8076124999999987,11.695485819999968,-0.3107973639999998,-1.3161111969999977,0.020615348
1718208080872080060,-1.6448323120000308,0.8024844999999994,11.68607081999997,-0.3086303639999997,-1.3206971969999972,0.019134348
1718208080873226030,-1.657599312000031,0.8197524999999994,11.683016819999969,-0.3086133639999997,-1.3239651969999977,0.017251348
1718208080874466075,-1.661538312000031,0.837370499999999,11.678853819999969,-0.3103623639999997,-1.3265711969999974,0.014961348
1718208080875830897,-1.6482453120000309,0.8699784999999991,11.659809819999968,-0.3137193639999998,-1.3283901969999974,0.013061348
1718208080875838135,-1.6305993120000313,0.9099434999999988,11.670999819999968,-0.3176493639999998,-1.328880196999997,0.011170348
1718208080877096859,-1.6128333120000309,0.9450494999999988,11.644408819999969,-0.3216443639999998,-1.3283531969999975,0.009415348
1718208080878232941,-1.595092312000031,0.9800876999999988,11.632425819999968,-0.3254173639999997,-1.3277011969999974,0.007264348
1718208080879466692,-1.5730623120000309,1.0078966999999988,11.62095181999997,-0.3297243639999997,-1.3270901969999973,0.005509348
1718208080880705892,-1.555188312000031,1.0333506999999986,11.609732819999968,-0.3344923639999997,-1.3264221969999974,0.004016348
1718208080880720987,-1.537282312000031,1.0588716999999992,11.583906819999967,-0.3394843639999998,-1.3258791969999972,0.002918348
1718208080881868886,-1.523633312000031,1.0720956999999995,11.581049819999969,-0.3443943639999998,-1.3248921969999974,0.001960348
1718208080883119676,-1.5099413120000311,1.085334699999999,11.563005819999969,-0.3493053639999997,-1.3236521969999973,0.001001328
1718208080884296096,-1.500520312000031,1.0961516899999992,11.554162819999968,-0.3544623639999998,-1.3224841969999974,0.001105348
1718208080885470461,-1.4868483120000309,1.1046056899999988,11.560823819999968,-0.3600923639999998,-1.3216181969999974,0.001472328
1718208080886790121,-1.4860013120000315,1.105658699999999,11.56878081999997,-0.3653543639999997,-1.3213461969999971,0.002635348
1718208080886823217,-1.4809573120000312,1.0993516999999986,11.569846819999968,-0.3704963639999998,-1.3209921969999971,0.004197328
1718208080887932523,-1.4803643120000314,1.090418699999999,11.579799819999966,-0.3747843639999997,-1.3210931969999973,0.006429328
1718208080889137640,-1.4840453120000308,1.0789716899999988,11.590844819999967,-0.3788803639999997,-1.3207631969999976,0.009331328
1718208080890300269,-1.492009312000031,1.065105689999999,11.602282819999967,-0.3829983639999997,-1.3211361969999975,0.012493328
1718208080891530322,-1.4959273120000312,1.0584336899999989,11.61462381999997,-0.3863813639999998,-1.3219531969999976,0.016058328
1718208080891539417,-1.5083433120000311,1.0517386899999988,11.642094819999969,-0.3897463639999998,-1.3229191969999972,0.019623328
1718208080892745222,-1.5122393120000313,1.0451046899999994,11.661965819999969,-0.3933463639999998,-1.323862196999997,0.023185328
1718208080893961850,-1.5163443120000313,1.0431016999999994,11.682610819999969,-0.3957943639999997,-1.3244381969999974,0.027025328
1718208080895207516,-1.5246653120000313,1.0435196999999992,11.701592819999966,-0.3979803639999998,-1.3253421969999972,0.029801328
1718208080896650138,-1.5246813120000309,1.038884699999999,11.721083819999969,-0.3993653639999998,-1.3263481969999973,0.032712328
1718208080897855264,-1.5332713120000308,1.0341466999999986,11.732479819999966,-0.4000763639999998,-1.3278821969999972,0.035226328
1718208080897863958,-1.5464603120000318,1.0216246999999992,11.75900581999997,-0.3986743639999998,-1.3296151969999972,0.037355328
1718208080899087361,-1.563888312000031,1.0115376999999988,11.746610819999969,-0.3967993639999998,-1.3318031969999973,0.038816328
1718208080900494085,-1.577194312000031,0.9988716999999996,11.755709819999966,-0.3942973639999998,-1.3344201969999974,0.039348328
1718208080901451101,-1.590482312000031,0.9910186999999993,11.75708681999997,-0.3915173639999998,-1.3361601969999974,0.039756328
1718208080902724819,-1.599579312000031,0.9757706999999988,11.749132819999968,-0.3881703639999997,-1.3385721969999973,0.038962328
1718208080902738468,-1.604538312000031,0.9676776999999988,11.748387819999968,-0.3840823639999997,-1.3404171969999972,0.037780328
1718208080903961760,-1.6095473120000308,0.9496466999999992,11.739402819999968,-0.3792343639999998,-1.3417461969999973,0.036073328
1718208080905175886,-1.6231523120000309,0.9314546999999987,11.722385819999968,-0.3734963639999997,-1.3432271969999974,0.033972328
1718208080906282017,-1.628420312000031,0.9130946999999988,11.705043819999968,-0.3668923639999998,-1.3448131969999972,0.031476328
1718208080907593321,-1.6337023120000316,0.8996506999999991,11.68687281999997,-0.3602283639999998,-1.3471621969999974,0.028443328
1718208080907729110,-1.647416312000031,0.8812696999999994,11.667610819999968,-0.3533863639999998,-1.3490221969999976,0.024750328
1718208080908771008,-1.6443103120000306,0.8627766999999987,11.641068819999967,-0.3459173639999998,-1.3509641969999977,0.021059328
1718208080909980097,-1.6444803120000304,0.8528096999999987,11.64113581999997,-0.3449383639999998,-1.3513341969999977,0.020929328
1718208080911224040,-1.6413643120000314,0.8440086999999993,11.606678819999969,-0.3371313639999997,-1.3524071969999971,0.016980328
1718208080912429356,-1.6337453120000305,0.8428326999999989,11.571827819999967,-0.3307783639999997,-1.3531571969999976,0.013023328
1718208080912475710,-1.6055603120000308,0.862683699999999,11.53280681999997,-0.3195813639999997,-1.3530711969999976,0.005513328
1718208080913704281,-1.6013503120000308,0.8651026999999991,11.540653819999967,-0.3195583639999997,-1.3528751969999977,0.005648328
1718208080914899659,-1.564586312000031,0.8899646999999995,11.487401819999969,-0.3089793639999998,-1.3522671969999975,-0.0011986719999999
1718208080916101708,-1.5688763120000306,0.8874546999999995,11.479684819999967,-0.3085633639999998,-1.3524651969999977,-0.0013306719999999
1718208080917348920,-1.5568173120000313,0.8938256999999991,11.468501819999968,-0.3036633639999997,-1.352138196999997,-0.0044896719999999
1718208080918647339,-1.5532663120000303,0.9001346999999987,11.464919819999968,-0.2985293639999997,-1.351835196999997,-0.0076456719999999
1718208080918691160,-1.5595663120000314,0.885353699999999,11.454298819999968,-0.2855053639999998,-1.3535781969999972,-0.0118266719999999
1718208080919880932,-1.569343312000031,0.8593266999999987,11.43863281999997,-0.2774533639999997,-1.3547321969999977,-0.0135116719999999
1718208080922003363,-1.5694433120000308,0.8543626999999987,11.44654981999997,-0.2770733639999997,-1.3552331969999971,-0.0133786719999999
1718208080922040527,-1.5751193120000315,0.8209026899999987,11.417172819999967,-0.2684643639999998,-1.356561196999997,-0.0142646719999999
1718208080923121594,-1.5849733120000309,0.794805689999999,11.433163819999969,-0.2604123639999998,-1.3574661969999973,-0.0151456719999999
1718208080924360355,-1.6030413120000313,0.7689586899999986,11.441751819999968,-0.2536633639999998,-1.3577591969999974,-0.0156326719999999
