%time,field.linear.x,field.linear.y,field.linear.z,field.angular.x,field.angular.y,field.angular.z
1718208080465890799,-0.0148741730406013,-0.0142375908533789,0.002526045882198,-0.1515889879771775,0.1242628566281526,-0.1055675405725087
1718208080466962035,-0.0145901341829132,-0.0140428605864781,0.0028554514616476,-0.1509733970818636,0.1241531667040801,-0.1053062583995898
1718208080468119063,-0.0141715189901,-0.013758769273,0.0033684788273225,-0.1504201222740985,0.1246099084352589,-0.1055934164718118
1718208080469304977,-0.0135026553996023,-0.013387382050895,0.0038059100960908,-0.1503433368430768,0.1253797481046377,-0.1056227816369836
1718208080470449031,-0.0132198388418792,-0.013194113527731,0.0041666210675064,-0.1498450012973233,0.1252018219216887,-0.1054127784464658
1718208080471708380,-0.0127674220387289,-0.0129554164971333,0.0047471743465281,-0.1492153768134975,0.1255747175973982,-0.1055771527739364
1718208080471754137,-0.012383935010414,-0.0128156503189088,0.0054995591861855,-0.1483359068050111,0.1264487799783357,-0.1054376335404926
1718208080472925325,-0.0121160385769634,-0.012663469572548,0.0063467759710633,-0.1472254810739977,0.126911355685989,-0.1046648692085242
1718208080474123571,-0.011832137075748,-0.0123173723966377,0.0068352796717631,-0.1471163534995785,0.1266208507297316,-0.1040402722062323
1718208080475345339,-0.0115342030092648,-0.0119133498654637,0.0072960193762192,-0.1468971597205187,0.1262669961757261,-0.1040181108139254
1718208080476593209,-0.0110889470395307,-0.0117234217097588,0.0082180192333772,-0.1452370396667296,0.126687411456609,-0.1039988526875578
1718208080476604340,-0.0106157647649454,-0.0116037921155206,0.00893978523715,-0.1438064394302223,0.1269333461815383,-0.1046703979911231
1718208080477809598,-0.0103338548156034,-0.0113088291155556,0.0096273359644638,-0.1427904549693656,0.1263659267798517,-0.1057382291011304
1718208080479020889,-0.0103890973100005,-0.0110545879736961,0.01027585822034,-0.1420118821134373,0.1253841347731178,-0.1061596392681619
1718208080480192238,-0.0103630615189404,-0.0108507338052127,0.0107243009467984,-0.141778997019907,0.1246856162930201,-0.1065040456028269
1718208080481393232,-0.0103986945729423,-0.0105631002092631,0.0110795092940508,-0.1418088524590766,0.1241195731180535,-0.1064251001861067
1718208080482640880,-0.0106630718776982,-0.0106055896304819,0.011680830027235,-0.1411477204522501,0.1232122593530684,-0.1061261497338491
1718208080482648859,-0.0112195223891335,-0.0103237407528955,0.0116673687801534,-0.1420665883535781,0.1219390059577102,-0.1055562274800488
1718208080483840679,-0.0116246205804486,-0.0099174291865924,0.0117306845574615,-0.1431688160837761,0.1204512699779129,-0.1046467873671292
1718208080485106549,-0.0119752011152919,-0.0098648614648342,0.0118052881109984,-0.1434551857907034,0.1189718389631767,-0.1040727198823998
1718208080486329070,-0.0122311763746674,-0.0099177920205189,0.0120499863186836,-0.1433765941381511,0.1175427117015847,-0.1042827273691167
1718208080487587550,-0.0125066650995986,-0.0101113745486289,0.0123545614134391,-0.1427732492618824,0.1163450140596532,-0.1040532596012077
1718208080487593843,-0.0129425551413075,-0.0100861716931081,0.0121957646437378,-0.1432750274583913,0.1150546009535171,-0.1033026919677772
1718208080488789939,-0.0130686828373937,-0.0100318996924215,0.0122834234318183,-0.1435523167217725,0.1138173303499769,-0.10385377788188
1718208080490799681,-0.0131000764520816,-0.010189898282496,0.0124038570261862,-0.1434036777104112,0.1127724929794508,-0.1043715810986219
1718208080490814856,-0.0132503355395687,-0.0102156064503644,0.0123530365436434,-0.1434078661111791,0.1116360991241732,-0.1045533905022423
1718208080491867457,-0.0134129061946768,-0.010563581992784,0.0124864358938037,-0.1426551601747567,0.1107522118324332,-0.1047610335900276
1718208080493107214,-0.013397740452278,-0.0110224857493124,0.0123031089825401,-0.1421264739026833,0.1101112802602101,-0.1044831831112015
1718208080494279471,-0.0133202719780064,-0.0115278346198916,0.012064281186858,-0.1412730898893289,0.1095316931503216,-0.1038896871614895
1718208080495514968,-0.0134407991328337,-0.0120443307920069,0.0116201797738246,-0.1408981642820042,0.1084460775376038,-0.1037675035031711
1718208080495549030,-0.0136890305386208,-0.0126792221581636,0.0115156260769945,-0.1398657396032732,0.1070165877828934,-0.1031043137848704
1718208080496727935,-0.0138617713989895,-0.013177971159485,0.0114364739361857,-0.1388653761297052,0.1060525124490383,-0.1021603818652499
1718208080511326619,-0.0139861579636893,-0.0137994293680745,0.011307330480074,-0.1378596419250217,0.1048639173192411,-0.1019155404650618
1718208080514647466,-0.013749125030941,-0.0143245852089004,0.0111429149016439,-0.1370131914582145,0.1041553596775221,-0.1025689095761635
1718208080514664823,-0.0134246210278027,-0.0149350490334865,0.0107140482728617,-0.1363061813160756,0.1032446004767208,-0.1027727619200251
1718208080514679405,-0.0134641303873642,-0.0153703025593483,0.0099424652063734,-0.1363408113062728,0.1020281748653988,-0.1029635443504074
1718208080514693857,-0.0135511029172936,-0.0160291135653031,0.0093456536925316,-0.1357257230861273,0.100703361728967,-0.1035067577448446
1718208080514707220,-0.0136136686416448,-0.0165217798934849,0.0087567348157283,-0.1352847665318821,0.0992195247541685,-0.1037179152508093
1718208080514723558,-0.0137198622444777,-0.0169482492585927,0.0079694805054014,-0.1353357005887431,0.0977978703207717,-0.1043332544474871
1718208080514736025,-0.0139809958280874,-0.0174499818532496,0.0071925415253199,-0.1354999354726216,0.096390604923323,-0.104863461316803
1718208080514750887,-0.0140893632768102,-0.0181704874024235,0.0064706462633055,-0.1350104758264487,0.0953179757913664,-0.1052486818474694
1718208080514769895,-0.0141196615461422,-0.0188616177929231,0.0058419587481644,-0.1343195830446516,0.0942196585790764,-0.1063920547415388
1718208080514785639,-0.0138740058083684,-0.0194774976882347,0.0051288449231764,-0.1343146734121273,0.0937741567553587,-0.108131276621152
1718208080514800008,-0.0136172497332521,-0.0197385443538001,0.0042686244075891,-0.1350240559077477,0.0929801108369636,-0.1097189467076728
1718208080514813601,-0.0135924959155894,-0.0198971555810524,0.0035148271567384,-0.1357409983978745,0.092165760568057,-0.1111951880544328
1718208080514830783,-0.0133867148359597,-0.0201215525546344,0.0028527391972615,-0.1360975602689844,0.0920501705446618,-0.1125846798304491
1718208080514843271,-0.0129370116834439,-0.0205203947290717,0.0025823561037128,-0.135610261143481,0.0923850413714349,-0.1142230261828879
1718208080514851608,-0.0126488761202815,-0.021082553621308,0.0019863319960975,-0.1350839059524877,0.0925389366515681,-0.1158396513714303
1718208080515753645,-0.0127187837461513,-0.0217024060769788,0.0016712266643805,-0.133641109967514,0.0924438609132517,-0.1171132525167388
1718208080515794479,-0.0124569934171865,-0.022086580762262,0.0015537531129207,-0.132613442261477,0.0929185515133936,-0.1183572679972323
1718208080515800656,-0.0120784913540431,-0.0223827053801682,0.0015929464034165,-0.1315266087224186,0.093626029619222,-0.119333250159557
1718208080516676387,-0.0119077960548002,-0.0223798662385952,0.0013067474248684,-0.1313201412895552,0.0943691707104188,-0.1194064959498727
1718208080517792648,-0.0120340428906484,-0.0226824697504165,0.0013463516171698,-0.1302821980459815,0.0948115017465562,-0.1183068188404943
1718208080518963107,-0.0120389423050296,-0.0227712998560859,0.0013387618363698,-0.129667162463136,0.0952753909558973,-0.11771544955204
1718208080520284074,-0.0121372919229924,-0.0229508546448821,0.0013106901133895,-0.1289489074376189,0.0959538354698655,-0.1165812929600371
1718208080521553027,-0.012062511628663,-0.0230430400649369,0.0012889412150011,-0.1285622133675407,0.0966703462983618,-0.1153106012054783
1718208080521560041,-0.0118772090760874,-0.0226989844265731,0.001134849691829,-0.1292052305503933,0.0972582649444115,-0.1146210956274669
1718208080522765688,-0.011698402971184,-0.0223017668114262,0.0012123539589697,-0.1294957366647705,0.0979436795368979,-0.1135183149280701
1718208080523977713,-0.0113339637895936,-0.0218400576035435,0.0014343591737471,-0.1295677802247439,0.0986289157382283,-0.1121380169202866
1718208080525168508,-0.0111798029225531,-0.0215467395451078,0.001838032619311,-0.1291357180664344,0.0991876830370864,-0.110894591016308
1718208080526311749,-0.0110027765229915,-0.0212522807193536,0.0023066062179386,-0.1286228678490665,0.0997874290913958,-0.1096670393405221
1718208080527509374,-0.0107514845900259,-0.0209150611446211,0.0028182088763773,-0.1279776828115043,0.1003056993506154,-0.1079003752722061
1718208080528777136,-0.0109952874247189,-0.0207123858987517,0.0034234925911859,-0.1268740342979165,0.1002315595902691,-0.1060585604483887
1718208080528796838,-0.0110328331658222,-0.0205738165348096,0.0041746293131928,-0.1256311151012249,0.0997090583692659,-0.1050844391105388
1718208080529934918,-0.0111678227893092,-0.0201295004209367,0.0046023262846297,-0.1255389835419889,0.0987381942317798,-0.1037409302272782
1718208080531217435,-0.0114177517646694,-0.0197048255823095,0.0049389883331266,-0.1257322711612029,0.0976558356663295,-0.1028280109726961
1718208080532386650,-0.0117185894510824,-0.0192309772369514,0.0047674791854206,-0.1268424688508369,0.0962502820907282,-0.1013462305330343
1718208080533715059,-0.0115757260541939,-0.0186742962751792,0.0048812578118073,-0.1278314484270921,0.0953369480718177,-0.1002258671415258
1718208080533727760,-0.0111570118711294,-0.0182490767118562,0.0050337558278498,-0.1283878127166083,0.0948797751972132,-0.0992152222805833
1718208080534892615,-0.0109301009766082,-0.0178598308230874,0.0050955106702188,-0.1292948135938933,0.09404752860694,-0.0983467859088057
1718208080539991576,-0.0104595785469929,-0.0173819513399597,0.0049364926909735,-0.1308069064136823,0.0931215776104665,-0.0977506215816835
1718208080542233781,-0.0101979931829476,-0.0170473433977787,0.004613339138209,-0.1322314462064992,0.0921730237869132,-0.0970477298139016
1718208080542251477,-0.0101064290272106,-0.0167557565071046,0.0044428983408782,-0.1331403164469512,0.0911692352589548,-0.0972120773545853
1718208080542288875,-0.0100682014631731,-0.0165866727013581,0.004420270749971,-0.1335404791190073,0.0902410459685875,-0.0967945726264142
1718208080542299904,-0.0101235965120447,-0.0167575840195366,0.0048529972005699,-0.1323844570276088,0.0889396324837389,-0.0969815344348774
1718208080542312166,-0.0103637601393638,-0.0168945550435606,0.0048655781898577,-0.1317283609522949,0.0872027620767083,-0.096933891841466
1718208080542322667,-0.0105337425661821,-0.0171578807555953,0.0048646708396244,-0.1308140373893724,0.0854305282249845,-0.0967919325183119
1718208080543346953,-0.0103980901250651,-0.01740458758145,0.0051796157330125,-0.1292824316822175,0.084346333634014,-0.0971645272086728
1718208080544135560,-0.010132551292766,-0.0176280681149069,0.0052084655368557,-0.1282634643034393,0.0836148468396384,-0.0980155184720669
1718208080545369528,-0.0097869622256001,-0.0178361273486884,0.0055088768205083,-0.1269254124618083,0.0831704022310486,-0.0984806014774387
1718208080546576333,-0.0094245853687559,-0.0182283928649166,0.0057390634157097,-0.1253150279788208,0.08239707767668,-0.0996694933081545
1718208080546587663,-0.0092983666113883,-0.0186750872630573,0.0058301310150396,-0.1236847170369054,0.081320797927824,-0.1009546985408197
1718208080547758517,-0.0091637982746067,-0.0189637815317272,0.0060138383512688,-0.1221691834139516,0.0800915890172113,-0.101768293000592
1718208080548918990,-0.0092125607255221,-0.0191030167351198,0.0062961254199994,-0.1211661757279665,0.0787495249560586,-0.1022099095140769
1718208080550858558,-0.0094924296064701,-0.018741839569177,0.006125248688236,-0.1217431830357986,0.0777285087423221,-0.1019365934151365
1718208080550882671,-0.0096504744853822,-0.0184479977684556,0.0057004795237534,-0.1227655116274042,0.0770729021259428,-0.1013716708566082
1718208080551956147,-0.009714114481182,-0.0183394615167397,0.0053739035926915,-0.1234843863627358,0.0767939048171316,-0.1008486508388798
1718208080553304983,-0.0097163050376072,-0.0181000911967805,0.0053591583330316,-0.1238846367500672,0.0767256960069957,-0.1002133973943914
1718208080554471129,-0.0098068786677588,-0.0181469519427406,0.0055338573312644,-0.1233219347443433,0.0764101692083302,-0.099363992202398
1718208080555664328,-0.0097731203768965,-0.0181491804456402,0.0054190083194999,-0.1233013466950717,0.0762989879675944,-0.0992381519124992
1718208080555671362,-0.0100257654215195,-0.0180761180025921,0.0054274069074353,-0.1234721261781917,0.0763818380565493,-0.0988299702066161
1718208080556952083,-0.0100536199732404,-0.0179608727470471,0.0051424775138112,-0.1243843501995894,0.0765214575154871,-0.0984079841345113
1718208080558151801,-0.0101135276959612,-0.0177885241309694,0.0051230030940764,-0.1249558127776124,0.0761675615428395,-0.0978706244692287
1718208080559392649,-0.0099833116239916,-0.0175440361700564,0.0054037298881061,-0.1254947783909941,0.0762201500786435,-0.0975432900084518
1718208080560252423,-0.0099080042007472,-0.0175241385202137,0.0057476885979035,-0.1256505235095972,0.0765455870745365,-0.0967923013305526
1718208080561633787,-0.009828677234526,-0.0171899743504157,0.0057096296248302,-0.1269305509393675,0.0768752318257031,-0.0967003047709199
1718208080561647286,-0.0097137522380554,-0.0166908569428449,0.0051294200538713,-0.1292592509315743,0.0765207757441599,-0.0969487299672866
1718208080563718523,-0.0097414517235132,-0.0162883263841109,0.0047857244085465,-0.1311695437325928,0.0764162426875431,-0.0963294277095305
1718208080565065026,-0.0096513022965215,-0.0158357272653229,0.0044264944860585,-0.1327990462644854,0.0763518399376889,-0.0960622579961052
1718208080565093006,-0.0095639513258635,-0.0153652544696317,0.0039840141890876,-0.1343769885145375,0.0764011696918839,-0.0955715887429712
1718208080566465854,-0.0095232066982362,-0.0150549568732925,0.0039390666031146,-0.1349764909074533,0.0765850448833542,-0.0950160117085493
1718208080567845666,-0.0094393705733082,-0.0149172948087006,0.0040144858560163,-0.1350871999697678,0.076839578936864,-0.0946073978686777
1718208080567861691,-0.0097954840195023,-0.0148698774823152,0.0043625513285335,-0.1345575378341965,0.0764912536778834,-0.093670431939372
1718208080568657605,-0.0097955653910311,-0.0144438876651769,0.0045010208057164,-0.1349631929818851,0.0760860086849456,-0.0930321540909403
1718208080569535397,-0.009834813211103,-0.0141365812496118,0.0047200573016788,-0.1350212532129219,0.0757359102870149,-0.0925916748006807
1718208080570738905,-0.0095010639367664,-0.0137636497443479,0.0049709005164469,-0.1350277269051295,0.0760629145852273,-0.0926320017686306
1718208080571967489,-0.0093875521897423,-0.013549294318706,0.004950398460138,-0.1350602424908042,0.075719469802321,-0.0928556445076867
1718208080573163647,-0.0092550305346997,-0.0131949445244914,0.0049735912081777,-0.1352809404510462,0.0754510748560729,-0.0926571304505547
1718208080574343825,-0.009175781420475,-0.0131004702270573,0.0053753508337064,-0.1344554355013186,0.0760056635742809,-0.0921979889885478
1718208080575567676,-0.0090759022423428,-0.0128563761062825,0.0053348781243961,-0.1346099183946982,0.0764533025547288,-0.091406048061165
1718208080576782060,-0.0089398018686716,-0.0124701605654842,0.0053331852628088,-0.1347515641153622,0.0767208394590747,-0.0906172142388185
1718208080576792622,-0.0091578844144153,-0.0121357485279617,0.0055224594253337,-0.1345399864655231,0.0764847021217842,-0.0898659929545195
1718208080578023361,-0.0093038499492848,-0.0120073559349231,0.0058348302765144,-0.1336855483271645,0.0758499105087577,-0.0890703220366489
1718208080579226175,-0.009576650124898,-0.0117596175696075,0.0061745987667601,-0.1328757707306211,0.0748802114290123,-0.0889892074262636
1718208080580399225,-0.0099419130072715,-0.0117990179824803,0.0065876277469268,-0.1314153587465187,0.0740547997916782,-0.0885669716664948
1718208080581604354,-0.0100965454434715,-0.0118565347263711,0.0067596625040476,-0.1301107537771968,0.0731267645955023,-0.0888805553588666
1718208080581615120,-0.0102100743419014,-0.0117500175920914,0.0066588103830516,-0.1297245818420171,0.0726430176951983,-0.0892387778389207
1718208080582858643,-0.0102135556755787,-0.0115392511386763,0.0066113966566457,-0.1297814642799798,0.0718289242168519,-0.0898137782635789
1718208080584035355,-0.0104902529469757,-0.0111004563722334,0.0062365724551966,-0.1310230298965972,0.0713260401427738,-0.0898607144899687
1718208080585696752,-0.0110259856743777,-0.0108445320287708,0.005860269006133,-0.1320382521738234,0.0705194903479787,-0.0892280477511566
1718208080585704609,-0.011363589676199,-0.0110054462338682,0.0056851157469111,-0.1320277329391312,0.0696913458509127,-0.0890950299736245
1718208080586891920,-0.0116916885283376,-0.0111889142703926,0.0056543151024559,-0.1317786318457359,0.0693502299564213,-0.0887093920481081
1718208080588142511,-0.0118603403141447,-0.0113276259696208,0.0053951128651875,-0.1318964840660162,0.068773104363769,-0.0881476406650249
1718208080589746504,-0.0119870652205909,-0.0114704249316596,0.0051243506718616,-0.1319891348122404,0.06799444205357,-0.0876027560515884
1718208080589756583,-0.0120970785901394,-0.0116810977657797,0.0051321256135209,-0.1316612708650296,0.0672349548058303,-0.0871177485051968
1718208080590914646,-0.0121378511912985,-0.0118374420987001,0.0048661760211088,-0.1319902020111116,0.0663561301982513,-0.0874370213394872
1718208080592189720,-0.0121815273008386,-0.0121372797044728,0.0048161277682247,-0.131665788446407,0.0660750861382897,-0.08686977625723
1718208080593437079,-0.0121010081974627,-0.0125225764392101,0.0048352679444176,-0.1308546673422112,0.0657499274621503,-0.0872038138400415
1718208080594808469,-0.0120179648030538,-0.0128549659343917,0.004612723297613,-0.1303348441666441,0.0653937225757311,-0.0875045653994405
1718208080594817567,-0.0121834324145392,-0.0129613202684842,0.0043476160321113,-0.1302806792655556,0.0648937689982962,-0.0871586880526717
1718208080595955386,-0.0126378060726651,-0.0132859964046342,0.0044397424141672,-0.1293199354094959,0.0644973233730335,-0.0861932260625703
1718208080597228428,-0.0128933205320313,-0.0136520943441047,0.0049561372103192,-0.1276030487480635,0.0641926506581691,-0.085292905675279
1718208080598494600,-0.013020596174371,-0.0139521416438543,0.0054072470432991,-0.1261617514280535,0.0638604300757252,-0.084344450821425
1718208080599734811,-0.0131038875981686,-0.0140181673800296,0.0053974220023284,-0.1256862082483846,0.0634387064825959,-0.0843251771843653
1718208080599751962,-0.013165879209169,-0.0141721861652175,0.0055220247710483,-0.1249032959724591,0.0631309938068685,-0.083493204456851
1718208080600959887,-0.0131445267739861,-0.0145861490459756,0.0059532635284874,-0.1230623374581298,0.0630366700546389,-0.0827860242961867
1718208080602160953,-0.012979492700532,-0.0150598997301745,0.0064055121897547,-0.1209883234071923,0.0629783299147422,-0.0825218012567077
1718208080603360196,-0.0127290361597347,-0.0153839854748186,0.0066709892825226,-0.1196358604445059,0.0628844464936295,-0.0822701965592958
1718208080604608449,-0.0125934536215317,-0.0156637683658828,0.0068938219901625,-0.1185680624127125,0.0627649499692096,-0.081589569173723
1718208080604620211,-0.0124433688765315,-0.0159173306531511,0.0072828722856672,-0.1174005453164384,0.0626536987038922,-0.0810004850944899
1718208080605711308,-0.0123362439471795,-0.0163122856736616,0.0075207046375526,-0.116075773587325,0.0619798275431939,-0.0802111587461655
1718208080606944903,-0.0123775868479507,-0.0167309910997681,0.007781146115476,-0.1144572861473406,0.0609679588108133,-0.0793544233000847
1718208080608147341,-0.0123486425092161,-0.0172691235922688,0.0081428467443605,-0.1121006645454138,0.0605706729742783,-0.0779430176406559
1718208080609322226,-0.0124024931258902,-0.017693523535506,0.0081517439041446,-0.1105127486189705,0.06042940412748,-0.0760351899601276
1718208080610782185,-0.0121023819516662,-0.0181988648082205,0.0084124677852265,-0.1085503714750444,0.0604555620624564,-0.0750091663739888
1718208080610791910,-0.0118449663721652,-0.0185648700332083,0.008345241313324,-0.1073371528890254,0.0598334864237746,-0.0750726846759973
1718208080611814873,-0.0114723769063132,-0.0186191719212376,0.0081256384107342,-0.1070874980594063,0.0594306143746814,-0.0753213304967588
1718208080613049308,-0.0110789660401296,-0.0186461313527614,0.0076674573385609,-0.1072136301746116,0.0591556424011493,-0.0753618758738186
1718208080615436109,-0.0108970036011743,-0.0188219547954964,0.0072224720530868,-0.1070760561102438,0.0585488468369334,-0.0753771998780807
1718208080615452312,-0.010571584544026,-0.018966326947797,0.006617311112753,-0.1073006258735896,0.0581481137786365,-0.0751707151163347
1718208080616603654,-0.0108690757286483,-0.0191950344882381,0.0058674463946414,-0.1077185372574721,0.0568641770156081,-0.0752464248757008
1718208080616621938,-0.0108731346475248,-0.0192944148054643,0.004959893704235,-0.1086045503463415,0.0560358336012589,-0.0751408258833688
1718208080617814320,-0.0109325580248593,-0.0195291045204586,0.0043623724804356,-0.1088934303330865,0.0549555299442937,-0.0749522115685283
1718208080619048094,-0.0109139326200027,-0.0197009873908031,0.0039422523052028,-0.109256181022221,0.0544518831174699,-0.0747535311116129
1718208080620233017,-0.0108460416624909,-0.0197836296946786,0.0036018571128048,-0.1095062454276166,0.0537167203785847,-0.0751157002501075
1718208080621394545,-0.0107122100445212,-0.0197005394869889,0.003006466108399,-0.1104778653382717,0.0528987542571071,-0.0753664237130822
1718208080622666559,-0.0105586839888832,-0.0196835501362049,0.0025273307308114,-0.1109834134400531,0.0519032535422715,-0.0764303011959531
1718208080622691294,-0.0107224741836317,-0.0197753024506894,0.0022598798264702,-0.110887355777031,0.0504493985187329,-0.0767588619528317
1718208080623858044,-0.0109400741984654,-0.0198817469140545,0.002147362674211,-0.1104787285110576,0.0492368933797993,-0.0769136938771326
1718208080625176006,-0.0110367495305584,-0.0198584164479322,0.0017420205518133,-0.1103781044090907,0.0481695704555001,-0.0771539841439491
1718208080626311620,-0.0111906065849505,-0.0199435496001976,0.0018225874816335,-0.1091003380314034,0.046810398408606,-0.0775223658387606
1718208080627585307,-0.0112674700931614,-0.0200713991462306,0.0021094062076131,-0.1074739164861247,0.0464205046411538,-0.0771092854569392
1718208080627593433,-0.0115129199704904,-0.0202376270770749,0.0025582307184838,-0.1055909895270946,0.0460137261910688,-0.0770454364206009
1718208080628851517,-0.0118144730195146,-0.0204122143947794,0.0030856948882633,-0.1036470546045744,0.0457433920415066,-0.0766797390328902
1718208080629992566,-0.0119382748086453,-0.0201703548056876,0.0033017500599637,-0.102904305218997,0.0453137465795229,-0.0770301631935612
1718208080631188485,-0.0118615442339184,-0.0200058073907562,0.0036000569217971,-0.1019067877091853,0.0448476828953269,-0.0782448982037418
1718208080632419128,-0.0115790352804981,-0.0196811849397971,0.003664070781533,-0.1017316947401641,0.0443041482326348,-0.0794110030027113
1718208080633806427,-0.011304496611776,-0.0193984035382877,0.0040703839657192,-0.1006864319408536,0.0438934590273292,-0.0801807942927389
1718208080633814135,-0.0111591116689647,-0.0191878833756446,0.0046425667042252,-0.0995163063768168,0.0434352490194427,-0.0811368713025247
1718208080634869071,-0.0112005487838764,-0.0187465438355225,0.0052351413752507,-0.0988713081581843,0.0428893927222209,-0.0816413802112476
1718208080636136399,-0.0113657727216555,-0.0184114906787245,0.0060140931966059,-0.0977911859670022,0.0424884122795055,-0.0819129877967348
1718208080637296314,-0.0114182247714378,-0.0179836184699964,0.006512581545224,-0.097153778557657,0.0420185046175685,-0.0821923734196301
1718208080638580243,-0.0113790792933614,-0.0174709177336501,0.0069803127508331,-0.0968193255580564,0.0416119933138349,-0.0826536522700259
1718208080638587160,-0.0115326414577399,-0.0168927097729387,0.0074255645971106,-0.0966631836296361,0.0406178004486399,-0.0827530728340011
1718208080642470858,-0.0117359427352415,-0.0163279166116133,0.0077202805237272,-0.096968603385692,0.0398501103880949,-0.0825168129063387
1718208080644209776,-0.0118298850403551,-0.0157927673516801,0.0080582780866324,-0.097211708660254,0.0393092947026403,-0.0824206804775668
1718208080644221397,-0.0118789397542052,-0.0151873371527103,0.0081100241683096,-0.0980438989828728,0.0387352328006187,-0.0822847899168188
1718208080644234973,-0.0118336130400033,-0.0146950835935051,0.0081305011743113,-0.0989467312907277,0.038343080617863,-0.0822897178179688
1718208080644247496,-0.0119549124621374,-0.0145469435372135,0.0083933928835663,-0.0988151729204652,0.0382017577077074,-0.081991503337437
1718208080645439917,-0.011951066058345,-0.0145001212594424,0.0085502211303756,-0.0985793269257939,0.0381002835099813,-0.0819331730888618
1718208080645450978,-0.0117583399166167,-0.0145082039827318,0.0086584396522744,-0.0983236414918444,0.0380415706295644,-0.0818888751233395
1718208080646723743,-0.011576946085184,-0.0146319902750536,0.0087258567041698,-0.0979314328290903,0.0380359640100793,-0.0819827422788869
1718208080647582342,-0.0116070627321517,-0.0147763369103359,0.0085834686801155,-0.0977851032413755,0.0375456853799023,-0.081983286226721
1718208080649378732,-0.0115301715978227,-0.0149285842157744,0.008390863022261,-0.0977491861341631,0.0372297927064946,-0.0812914615360015
1718208080650648392,-0.0111669441905633,-0.015086074193503,0.0081931276144095,-0.0977497571405343,0.0370174482963143,-0.0815233857580461
1718208080650662951,-0.0108206695405746,-0.0151876293693462,0.0079808368512482,-0.0978203362987572,0.0368973691647234,-0.0810719287360919
1718208080651797904,-0.0107033432846447,-0.0154542886721114,0.0081561680811262,-0.0972120799928206,0.0368796976627058,-0.0804717083106955
1718208080653323146,-0.0102854083434686,-0.0157866149295865,0.0082081799693104,-0.096732623340784,0.0369193811871781,-0.0800955103097976
1718208080654668947,-0.0096860756754483,-0.0158694205573513,0.0081352645091985,-0.0967279761932101,0.0374947531198493,-0.0801244793498876
1718208080654679439,-0.0091022003232389,-0.0160515100867273,0.0081856786913989,-0.0961847487705246,0.0379104589356995,-0.079787012054053
1718208080655811745,-0.0085041147856202,-0.0161886533520065,0.0083405735644355,-0.0957136219292449,0.0382674990783887,-0.0795181330865762
1718208080657015338,-0.0079413656267271,-0.0165844779434458,0.0088209465209844,-0.0942324370735726,0.0386861160234189,-0.0790245044279191
1718208080658237290,-0.0074220715869209,-0.0167258140492315,0.0088679699668446,-0.0939461265949729,0.0388546397841098,-0.0785480663857841
1718208080659453686,-0.0070379890843104,-0.0169256840247693,0.0091243442783618,-0.0930997730737032,0.0389802380472611,-0.0781413808865279
1718208080660728487,-0.0067893495486787,-0.0172147854124509,0.0094735835565094,-0.0921961940643483,0.0385661257902323,-0.0778624244632031
1718208080660746201,-0.0064957590807199,-0.0172849397562936,0.0094790769660524,-0.0922175852774733,0.0382558425711881,-0.0768853616839033
1718208080661865659,-0.0058857415024148,-0.0173764601956614,0.0093322812531882,-0.0923250081334826,0.0386799290095902,-0.0763423986462804
1718208080663101128,-0.0057454876325517,-0.0174116521517057,0.0091718287749734,-0.0925894226226604,0.0389335049205097,-0.0752392913388443
1718208080664286521,-0.0056591740518076,-0.0174611966446703,0.0090927886365725,-0.0928144167997602,0.0392063824349234,-0.0742480665489059
1718208080666284468,-0.0057688099050147,-0.017632948092578,0.0087259624204026,-0.0930864624574915,0.0388103601481896,-0.073050704116456
1718208080666291487,-0.0057600719200616,-0.017536245466163,0.0079859757723336,-0.0943252202631568,0.0385617443602519,-0.0722348271033035
1718208080667380974,-0.0059350099846949,-0.0174887451854107,0.0072813980323665,-0.0953453138831015,0.0377123045454812,-0.0715686950139668
1718208080668706124,-0.0059947386216321,-0.0173016783745251,0.0065899032754863,-0.0967525069326059,0.0365366493288316,-0.0717018529230661
1718208080668712517,-0.0065466705358903,-0.0172178100305489,0.0061748699338358,-0.0978847495476303,0.0358446275950229,-0.0707669162507571
1718208080669780121,-0.0067751254563908,-0.0169989666453593,0.0056434882992323,-0.0995570003955073,0.0353315395381899,-0.0702486827850406
1718208080671021359,-0.0068461296929219,-0.0167042122199546,0.0048962925402732,-0.1017664404209931,0.034990698866515,-0.0700868698776371
1718208080672220494,-0.0068189579093504,-0.0166374630229788,0.0045906509475445,-0.1028196483933223,0.0348557880155329,-0.0702614914457589
1718208080673421725,-0.0069746337331228,-0.01665326866676,0.0042558251426935,-0.1039670690284715,0.0342789929378267,-0.0703143855916495
1718208080673433568,-0.0070087203331656,-0.0163089374014055,0.0035558577440312,-0.1060428202843027,0.0332268421181893,-0.0709040512489269
1718208080674719401,-0.0072066770473363,-0.0159383138659431,0.003029815562131,-0.1078964593641393,0.0325321117845306,-0.070557190086319
1718208080675924356,-0.007554991430014,-0.0155574701593017,0.0024615050227884,-0.1102255361324703,0.0315701957819276,-0.069510677278874
1718208080677143993,-0.0078153614385828,-0.0151150852618427,0.0021410885238018,-0.1123825775975077,0.0310021332062683,-0.0687730133196241
1718208080678977657,-0.0080631848307848,-0.0145479783876799,0.0016892358237318,-0.1150102802815441,0.0300457140493668,-0.0684138908401515
1718208080680554920,-0.0082211869718627,-0.0139163724953098,0.0007367847933539,-0.1183781780681587,0.0292487776507596,-0.0675874068190283
1718208080680569033,-0.0082937409651888,-0.0134949359300025,0.0004173464290906,-0.1201251373134699,0.0284782169271464,-0.0675569367287325
1718208080681703748,-0.0083567454308712,-0.0130011395486509,1.1166079028806022e-05,-0.1221285870335135,0.0274636683981461,-0.0674345902987999
1718208080681713186,-0.0083485079367319,-0.0123409264881007,-0.0004221261787419,-0.1247452305035168,0.0263328827710993,-0.0671517576805505
1718208080682842412,-0.0085089729025499,-0.0116501344371775,-0.0008733168156677,-0.1274070048456289,0.0251556537621579,-0.0666572250881681
1718208080684044173,-0.0085496107256739,-0.0110508156770844,-0.0011946888470868,-0.1292794146111304,0.0245764334401196,-0.0657458340670689
1718208080685221917,-0.0088865574921682,-0.0107989114121757,-0.0011235090918733,-0.1298459233156744,0.024037726000176,-0.0647428061711087
1718208080686441002,-0.0092911065433918,-0.0106474320603076,-0.0010664738328483,-0.1301113050647596,0.0235134060477668,-0.0636414016161944
1718208080687866890,-0.0095879045935347,-0.0103931138155642,-0.0011374858763001,-0.1307188799126395,0.0228108347948488,-0.0634617974504673
1718208080687874869,-0.0099920902965219,-0.010238176040697,-0.0010756758952518,-0.1308461253472832,0.0221249349496613,-0.0626279167732548
1718208080689068167,-0.0102558376336916,-0.0102211385375836,-0.0007525405366265,-0.1302325227643686,0.0214574724257351,-0.0619699359530508
1718208080690297666,-0.0104353404707919,-0.0100892432886603,-0.0004156243909239,-0.1298492033327434,0.0207199240446167,-0.0621187532640066
1718208080691520881,-0.0107051456288343,-0.009802378538319,-5.959835453201064e-05,-0.1296586044757043,0.0198414143345371,-0.0622771674456772
1718208080691525959,-0.0106536816403245,-0.0093474619379391,0.0002272583738449,-0.1299086253180249,0.0195867264867685,-0.0629177122492656
1718208080692751397,-0.010625428534356,-0.0091027418815762,0.0008547980455969,-0.12908155007305,0.0193354459501868,-0.0637118340267756
1718208080693890102,-0.0108200923128304,-0.0089232451155834,0.0012569030745886,-0.1283873896825673,0.0190237317193702,-0.0642147238625058
1718208080695112316,-0.0107876096490458,-0.0087510260544787,0.0014994800967268,-0.1278889372607211,0.0191638251511882,-0.0640719881577723
1718208080696352640,-0.0105932625582271,-0.0085022815463473,0.0016771876768766,-0.1275098210671096,0.0190463355864408,-0.0648135299180996
1718208080697662351,-0.0107299187885369,-0.0080314106627805,0.0015701108699363,-0.1280934030749873,0.0186475932103228,-0.0651587776007272
1718208080697687679,-0.0107296288871845,-0.0077833369357874,0.0017897245048619,-0.1278158919196599,0.0187914337721451,-0.0649221967918834
1718208080699140664,-0.0105888157553766,-0.0076129876414256,0.0020504164893379,-0.1271543590452,0.0187938727511914,-0.0649333253006052
1718208080700050279,-0.0103362113477826,-0.0074587841035945,0.002343068695276,-0.1264073916656533,0.0191436734347623,-0.0645438578247403
1718208080701244448,-0.0101661989442625,-0.007447552346755,0.0026739367578383,-0.1254592955381802,0.0193159392439309,-0.0639219721663561
1718208080702496356,-0.0100617148751382,-0.0074810499882319,0.0032912028279153,-0.1242102373306887,0.0192697443392396,-0.0634612654135559
1718208080702521740,-0.0102382712442916,-0.0073682688002556,0.0037575012324738,-0.1235537875602084,0.0190959308926098,-0.0628494115350247
1718208080703752427,-0.0103541286512066,-0.0071920844301313,0.0040471096665785,-0.1233199476592443,0.0187363674609716,-0.06311396456756
1718208080704974555,-0.010242806183358,-0.0069810163595282,0.004042894749156,-0.1237864098458355,0.0187423998880516,-0.062694802687671
1718208080706360852,-0.0101378723801886,-0.0070914895988887,0.0042784288120153,-0.1233241548175011,0.0187486843317396,-0.0625724680521039
1718208080707565583,-0.0100634114488915,-0.0073616467917238,0.0044615535253337,-0.1225851181613564,0.0187276043395004,-0.0617128925469072
1718208080707579646,-0.0097412302132488,-0.0076813595723179,0.004725314315349,-0.121576437814333,0.0192650015415287,-0.0607457073670364
1718208080708958567,-0.0096144231618574,-0.0079403118829103,0.0048879756425309,-0.1210495880810094,0.0194970440798408,-0.0603468141207428
1718208080710151422,-0.0094671118050273,-0.0079861520486512,0.0045095600845863,-0.1215350825234187,0.01935681847331,-0.059436217143423
1718208080711412782,-0.0093959866222027,-0.0080023751529351,0.0043100097765969,-0.1219780763150337,0.0189473197452902,-0.059071737855056
1718208080712833572,-0.0093901368726267,-0.0080567291782395,0.0039499140890026,-0.1224931292536438,0.0185589579504257,-0.0585876373672739
1718208080712842859,-0.0093839657098051,-0.0083452005529033,0.0039004162621747,-0.1222410413915429,0.0182343515376541,-0.0576644465193208
1718208080714065512,-0.0093721352384802,-0.0086873726154541,0.0040612689525917,-0.121514916454672,0.0180053939083722,-0.056817188765179
1718208080715231802,-0.0093681171768963,-0.0088336022509811,0.0039114875102736,-0.1214536507735613,0.0175926104288818,-0.0556932887714611
1718208080717905846,-0.0091724661959407,-0.0088374519909748,0.0036178320810324,-0.1217055126603209,0.0170839398362002,-0.0549354984642735
1718208080717926397,-0.0091058717322722,-0.0090464505668936,0.003365728846694,-0.1217705425463402,0.0166607655376411,-0.0540069775583214
1718208080717940777,-0.0088760977976438,-0.0091503828047589,0.0033191655871555,-0.1215156602013457,0.0162251404393127,-0.0540014532192062
1718208080718858227,-0.0087804044379439,-0.0095571571946787,0.0033209433486782,-0.1207603601962938,0.0158946564319922,-0.0534729519850345
1718208080720081917,-0.008545633647613,-0.0098379552257203,0.0032144695788207,-0.1201409123439702,0.015536124126849,-0.0527171338660651
1718208080721245753,-0.008403710651998,-0.0103947842696148,0.0036068483601006,-0.1182588573851581,0.0154388064130012,-0.0516324899968065
1718208080722511004,-0.008342181555161,-0.0109940211922906,0.0040618884058749,-0.1161183601273421,0.0154720752637231,-0.0505394787992242
1718208080722523886,-0.0084402445380232,-0.0115106104456961,0.0045243368643847,-0.1138854501598345,0.0149206993732023,-0.0498751902662975
1718208080723903906,-0.0083281246917199,-0.011995598980212,0.0050469972023128,-0.1116202617495673,0.0139812175379532,-0.0493321077742744
1718208080725067132,-0.0081887930850977,-0.0123886555504595,0.0053396306986057,-0.1098381436494808,0.0133591351547063,-0.0488619858683685
1718208080726263214,-0.0081558153832796,-0.0126981662236501,0.005726533515882,-0.1078738197998279,0.0125226776426428,-0.0485891359823789
1718208080727697948,-0.0083146614332326,-0.013115610128782,0.0059499034308877,-0.1057852176196697,0.0115448735912794,-0.0481577375191351
1718208080727715268,-0.0084727067590447,-0.0134098367421244,0.0058971462545649,-0.1041294032128718,0.0104220606291465,-0.0487326249066967
1718208080728845425,-0.0087134722993212,-0.0140044118897534,0.0062782277774174,-0.1013725473623635,0.0095614845385892,-0.0488708850134991
1718208080730060208,-0.0090537496519722,-0.0146448471469,0.0066322427807872,-0.0986193268450339,0.0087064342550084,-0.048568136532248
1718208080731259599,-0.0092496447329938,-0.0150560865725212,0.0069361983683491,-0.0964663383888453,0.0078013277244208,-0.048702649899917
1718208080732546345,-0.0094170798622073,-0.0154705761102945,0.0070284357928249,-0.0946191736412341,0.0069627113746323,-0.0491840250413589
1718208080732558505,-0.0093501820939138,-0.0155370306929604,0.0068410665441116,-0.0938669837384596,0.0064629294380495,-0.049693913351839
1718208080733870566,-0.0091504375823812,-0.0156416533641896,0.0069815300935268,-0.0925030547794608,0.0059824191821693,-0.0504500252202772
1718208080735155649,-0.0089775854211194,-0.0156389086402769,0.007033639742615,-0.0915816552020381,0.0052795611236208,-0.0509698211564797
1718208080736383116,-0.0090272400778287,-0.0156612799811347,0.0069613602181832,-0.0910887510525322,0.0045228851568726,-0.0512935377446417
1718208080737738393,-0.0087933068289983,-0.0156223552888846,0.0068810035004241,-0.0906234699356416,0.0043559389087267,-0.051767174080197
1718208080737747349,-0.0085779419801562,-0.0157372449813689,0.006642442892038,-0.0899224054057783,0.004139770909038,-0.0527380667473723
1718208080738905881,-0.0084202346256046,-0.0160829268533511,0.0069873159236443,-0.0880829256616007,0.003861834689353,-0.0534549611094448
1718208080740112923,-0.0084499777229389,-0.0165863371043287,0.0070306920245489,-0.0864607292799627,0.0036925852196726,-0.0534330595877439
1718208080749108739,-0.0083713803988734,-0.0169668438819915,0.0068528389325332,-0.0855478019827571,0.0033936898267336,-0.0535709672088025
1718208080751760552,-0.0085139386916823,-0.0173046873046531,0.0068616666383335,-0.084444562529468,0.0029893841586132,-0.0535444088647066
1718208080751771595,-0.008522559351191,-0.0175969363949383,0.0066402378802145,-0.0838763986613267,0.0026017488169696,-0.0536772398378686
1718208080751782508,-0.0084244687868761,-0.0181158496235959,0.0066524348572169,-0.0824410502235132,0.0024558311508152,-0.0536391633835671
1718208080751792200,-0.0081970824812373,-0.0185343698382913,0.0063342005582586,-0.0818255675118247,0.0021998113014447,-0.0539636487394453
1718208080751820664,-0.0080353160512901,-0.0186583569772216,0.005798082096755,-0.0818948465296021,0.0018183290714857,-0.0543389453160896
1718208080751836705,-0.0079672929962538,-0.0188634389932832,0.0054863858027197,-0.0813359350255392,0.0015627845877306,-0.0544808163406632
1718208080751853415,-0.0079223766645225,-0.0190114353752693,0.0053561253194126,-0.0807404947526027,0.0012982155867202,-0.0547629091639602
1718208080751861799,-0.0077777419728105,-0.0190938355935901,0.0054272391674465,-0.0799972477595041,0.0010203937958409,-0.0546137712898915
1718208080751871714,-0.0078428002569968,-0.0190718559450753,0.0052543971424285,-0.0799806254286362,0.0007938331696902,-0.0540399784084482
1718208080753008284,-0.0076435243928338,-0.0187260876508839,0.0045932302340101,-0.081120987095919,0.0002543035030166,-0.053915481234854
1718208080753035462,-0.0075253266600346,-0.0185688738347237,0.0045452724720668,-0.0812384617230226,-9.920919544612324e-05,-0.0538088961692415
1718208080753045434,-0.0074939815627671,-0.0183195077575879,0.0042289180843233,-0.0819721648649083,-0.0005021090614843,-0.0531077665963852
1718208080754252281,-0.0072563361096915,-0.0178535443600951,0.0037207108497742,-0.0834176036611803,-0.0009876034099303,-0.0531320154924924
1718208080755494094,-0.0071143526277985,-0.0174648402310854,0.0032268263347195,-0.0847906034501834,-0.0013983039632073,-0.0533539553962188
1718208080756706445,-0.0068606140683778,-0.0168485728819793,0.002498084172939,-0.0869408262772258,-0.0019519512962093,-0.0539611753986585
1718208080756765111,-0.0064978737485822,-0.0165139453988518,0.0021209675813933,-0.0881293508663729,-0.0023631805208845,-0.0548958368681317
1718208080757999120,-0.0060697456895014,-0.0162569425155487,0.0019977761458028,-0.0885859961897981,-0.0026167884818264,-0.056047453967415
1718208080759162462,-0.0059279766919646,-0.0159804614856101,0.0018771703045068,-0.0889101149386017,-0.0028598998735956,-0.0564206406889885
1718208080760396433,-0.0058394293744506,-0.0156748114990896,0.0017305821176616,-0.089195275192906,-0.0031690734796922,-0.057117443222615
1718208080761612246,-0.0057062501728306,-0.0154744122394324,0.0016679469525926,-0.0892605263331455,-0.0032763345407243,-0.0576559339194999
1718208080761625106,-0.0056614843980988,-0.0152353167155019,0.0015554943083417,-0.0894195931056628,-0.0033864332352114,-0.0579241942792448
1718208080762884765,-0.0057049762185252,-0.0150798516682186,0.0015407922833159,-0.0893386712276912,-0.0034714653228631,-0.0582632556859639
1718208080764093024,-0.0057667039596926,-0.0147524548881284,0.0012779199770518,-0.0898228728599347,-0.0036484133264669,-0.05850701035404
1718208080765260401,-0.0056669816840709,-0.0145501727725127,0.0012918843867949,-0.0894084481893902,-0.0037612453831644,-0.0589773567597759
1718208080766452450,-0.0057394929954356,-0.0143184407746533,0.0014163176597778,-0.0889963444669422,-0.003860424294733,-0.0590499579740573
1718208080766467772,-0.0057366277853293,-0.0143188193732269,0.0016331345197973,-0.0881053732114227,-0.0037409062394944,-0.0593431277707399
1718208080768123142,-0.0057626265787953,-0.0144460004665495,0.0020803530052559,-0.0866024447574214,-0.003650627272067,-0.0598768726110974
1718208080769284965,-0.0058332322858208,-0.0145831539272095,0.002448580520311,-0.0852776275289768,-0.003513213330121,-0.0602042874980768
1718208080770485020,-0.0057532772481805,-0.0147574222826514,0.0030558614077464,-0.0834451000915006,-0.0033459776463116,-0.0611150957503005
1718208080770494585,-0.0054341451856204,-0.0150639959939588,0.0037977032461338,-0.0812040714182873,-0.0031200318020352,-0.0619226567580085
1718208080771748301,-0.0051778465630018,-0.0151870910464238,0.0043485258147692,-0.0796463320355655,-0.0030426436994108,-0.0626666422690287
1718208080772959088,-0.0051133682954129,-0.0151850822733024,0.0049887412635817,-0.0782884414025275,-0.0030051532656603,-0.0635187879858202
1718208080774535039,-0.0050237290909455,-0.01516365035457,0.0055443724447387,-0.0768968745807633,-0.0029612108262201,-0.0640669018202033
1718208080774543355,-0.0047562951028289,-0.0151240976981455,0.0059318449726154,-0.0757345042764432,-0.0028851477118217,-0.0649511305645296
1718208080775901620,-0.0044862341801165,-0.015101028612907,0.0065620530515528,-0.0743734623152459,-0.0027440960138186,-0.0659970603381891
1718208080777118160,-0.0043637017226178,-0.0150025797590442,0.0068198265597158,-0.0738398236756077,-0.0027751248547613,-0.0664174059385311
1718208080778256083,-0.0044960372029942,-0.0151314835013924,0.0072207345502506,-0.0727194360535477,-0.0026376056133377,-0.066096251440282
1718208080779397121,-0.0045483294955167,-0.0151081405392923,0.0076972981580144,-0.0717404171759585,-0.002531994762235,-0.0661138831472878
1718208080780662450,-0.0046322684330432,-0.0149294124994904,0.0079518163645503,-0.0713801014959579,-0.0026277285133189,-0.0658924629251825
1718208080780682781,-0.0046630546091923,-0.0146145242480976,0.0078796616832331,-0.0717520839884255,-0.0027766044818986,-0.065768583499058
1718208080781827089,-0.0047117308652031,-0.014402122280984,0.0078914382287764,-0.0716412220551534,-0.0028179129442801,-0.0655435666761109
1718208080783096036,-0.0047310577104422,-0.014221185846208,0.0083075816834206,-0.0709750852720916,-0.0028666180852264,-0.0651430121337796
1718208080784318564,-0.0046809668420963,-0.0141636255594545,0.008444842060408,-0.0704270892797935,-0.0029274058507671,-0.0650413224935738
1718208080785591387,-0.0044727778839233,-0.0139391128979871,0.0085097513306698,-0.0702488060531539,-0.0030312547763698,-0.0652950665504456
1718208080785605334,-0.0042914568073729,-0.0136790581285493,0.0085722853797071,-0.0703262896057111,-0.0031320605110875,-0.0653765253130291
1718208080786768640,-0.0041701414532211,-0.0135640441334817,0.0088409436427475,-0.0697405282942026,-0.0031946035329877,-0.0653553390452701
1718208080787950361,-0.0040544840069452,-0.0134315190030562,0.0091967196817981,-0.0692343295295398,-0.0032471754920594,-0.0657754760765487
1718208080789151619,-0.0039458559179366,-0.013440852204327,0.009434653218782,-0.0686193666689136,-0.0032612256943545,-0.0664549771210589
1718208080790293852,-0.0040078814210388,-0.0131991252473004,0.0094039725485201,-0.0689253108361357,-0.0033245967765252,-0.0666230798319659
1718208080791667666,-0.0040074730596382,-0.0128931235055676,0.0091552598237862,-0.0697446203924488,-0.0035276820121468,-0.0670233668283289
1718208080791685592,-0.0039175143309929,-0.0129829477338393,0.0092348328568517,-0.0694270951304953,-0.0034520828804559,-0.0670738844458758
1718208080792787036,-0.0037390843657184,-0.0129964782266811,0.0093112763611297,-0.0693774442272695,-0.0034320801504705,-0.0672770378783579
1718208080793932463,-0.0035889753524591,-0.0130501284281602,0.0094658317677456,-0.0692766168769915,-0.0034424908398539,-0.0670315144231094
1718208080795125728,-0.0034297781621008,-0.0130552743022327,0.0094016625138332,-0.0692979569273546,-0.0034699019628925,-0.0667626143843293
1718208080796316585,-0.003468133448429,-0.0129532218619227,0.0091817519712765,-0.069761475792162,-0.0034972154210142,-0.0663800636827134
1718208080797598151,-0.0034631872540155,-0.0127888726750158,0.0089873609047048,-0.0702311623668754,-0.0036919114130108,-0.0669045048348612
1718208080797626417,-0.0033928889318855,-0.0124733090359286,0.0086471256696605,-0.0711686078493586,-0.0039007512168855,-0.0674102459555884
1718208080798838742,-0.003306145600738,-0.0122293791623034,0.0081972562770564,-0.0722871814168322,-0.0041310859116892,-0.0671606301849671
1718208080800001418,-0.0031611268895147,-0.011958386914833,0.0076940949200635,-0.0735558325650436,-0.0043108678712065,-0.0672015710915363
1718208080801176426,-0.0030956964230127,-0.0113980672338321,0.007062787499037,-0.0755772439195384,-0.0046180433296295,-0.067222864207798
1718208080802370569,-0.0029890501119565,-0.0109630733271117,0.0067111855551534,-0.0769902831079175,-0.0048779386299802,-0.0673208759721338
1718208080803730231,-0.0028636495615385,-0.0106434621255329,0.0064803705056612,-0.0779300843103908,-0.0050467009254919,-0.0676278192939176
1718208080803739585,-0.002728983169389,-0.0103854370953487,0.0062785328919534,-0.0787131740279048,-0.0051737107843696,-0.0678948433569316
1718208080804854103,-0.0028373054113219,-0.0102858683460453,0.0063888499126352,-0.0788198048060876,-0.0051962969724011,-0.0675489651990158
1718208080806056210,-0.0028200714451123,-0.0101950254053766,0.0065501656063914,-0.0784242783224562,-0.0052332185065405,-0.067516401617236
1718208080807272399,-0.0030268266742898,-0.0101884905949131,0.0065629488761142,-0.0782611240997331,-0.0058764513976325,-0.0675288801926792
1718208080808478067,-0.0029891879048274,-0.0102000808568601,0.0064010457224025,-0.0782273114541864,-0.0062054858520801,-0.0677627992672125
1718208080809700434,-0.0028981675336088,-0.0101158774487905,0.0061829480235632,-0.078510236612113,-0.0065217449922345,-0.0681450980296048
1718208080809727576,-0.0027419994466165,-0.0100851961595003,0.0059045051401849,-0.0789750297606014,-0.0067139932418219,-0.0686143806157878
1718208080810866080,-0.0026474047427022,-0.0099812819245528,0.0055538143713126,-0.0797069161941705,-0.0067936008037625,-0.0686503962115153
1718208080812128224,-0.0025423479507291,-0.0099131049632548,0.0052224396531192,-0.0805212652318904,-0.0068799679735977,-0.0688538550347323
1718208080813325180,-0.0025382053898989,-0.0099224086919744,0.0050730618544473,-0.0811224391754131,-0.0068909430105661,-0.068852741946315
1718208080814666756,-0.0023394631318857,-0.0100985980599432,0.0048715699154594,-0.0813394319072135,-0.0068382996450122,-0.0694862106047615
1718208080814705669,-0.002065643192981,-0.010333664393357,0.0042219399722994,-0.0822147814632802,-0.0067261280035091,-0.0703053659389818
1718208080815803596,-0.0017781391399943,-0.0105024082684706,0.0037118166855872,-0.0830034727936241,-0.0066434036826575,-0.0709212412022575
1718208080817047311,-0.0015107134463904,-0.0106836203112989,0.0031943176258808,-0.0839550098574856,-0.0066112508789823,-0.071360653131617
1718208080819205619,-0.0013274390382189,-0.0107561194444441,0.0025159643672487,-0.0853643359402664,-0.0065349836353073,-0.0714751103981568
1718208080821099093,-0.0013005077348785,-0.0107766882874158,0.0019872984531417,-0.0865831397881138,-0.0065223765378224,-0.0720507598718881
1718208080821113675,-0.0011970331897276,-0.0107128072931691,0.0015414180679874,-0.0880966010781453,-0.0066215654638841,-0.0729442642768772
1718208080821121210,-0.0010804775716292,-0.0104962315783921,0.000862795950737,-0.0902917309916763,-0.0067547463152876,-0.0735740793377904
1718208080822084254,-0.0010172117504248,-0.0104585387450859,0.0005333657224111,-0.0915304238260816,-0.0068655765010889,-0.0746049352588786
1718208080823326793,-0.0010491671393646,-0.0107873574594597,0.0005461481617822,-0.0914550976417743,-0.0067160034725202,-0.0751682115988367
1718208080824415665,-0.0009071462589815,-0.0110046435066425,0.0004909168491262,-0.0915684270920907,-0.0065667141371801,-0.0756911302585519
1718208080825731350,-0.000921396722379,-0.0113758423107359,0.0005566259290092,-0.0909471869779889,-0.0068587628461957,-0.0760929702307303
1718208080825757400,-0.000955695621485,-0.0114555612586269,0.0002196478170095,-0.0913582836816409,-0.0072095382986118,-0.0769072401132858
1718208080826893941,-0.0007613445755193,-0.0115035669493345,7.097637244977452e-05,-0.0915337222973987,-0.0073429773188732,-0.0775409806503646
1718208080828117549,-0.0006825801830405,-0.0115927773221318,0.0002189947422001,-0.0912505389063531,-0.0073646336421816,-0.0781190252371933
1718208080829363051,-0.0004478772966308,-0.011351895976409,0.0004314244404921,-0.0914527038908139,-0.0074448824284743,-0.0791298375818683
1718208080830571315,-0.0003461334193647,-0.0109845653541744,0.000535782948291,-0.0921521054757421,-0.0076675840278996,-0.0800416697462585
1718208080831892114,-0.000364391928743,-0.0104607172919603,0.0004378593818651,-0.0934059228455882,-0.0079638277877977,-0.0810150719174471
1718208080831902167,-0.0003840545033175,-0.010127131268282,0.0007138483168992,-0.0935908557176894,-0.007990222829114,-0.0817170196468698
1718208080833314759,-0.0002829786371869,-0.009718534153593,0.0008756592184134,-0.0941042299688135,-0.0080726879617065,-0.0820850532485839
1718208080834516823,-0.0003088228253173,-0.0093605350124929,0.0010721832233689,-0.0945808191936419,-0.0082085729931039,-0.0829754750702854
1718208080835849692,-0.000291500351189,-0.0088638034394908,0.0010006930192539,-0.0955783685134259,-0.0084103798992564,-0.0838985305815422
1718208080835869638,-0.0003329843051813,-0.0085697478100858,0.001145190492488,-0.0956605811243333,-0.0084117230360087,-0.0851632054865798
1718208080837203805,-0.0006015409572339,-0.0082224232094192,0.0016313162378668,-0.0952106359758301,-0.0084138641769817,-0.0862464693404468
1718208080838194327,-0.0007728824308185,-0.0077874071636354,0.0019432245190224,-0.0951526530768768,-0.0084456602970047,-0.087654968432592
1718208080839446572,-0.0010093381760658,-0.0071825747034533,0.0024626048091046,-0.0950071315454286,-0.0091096617980821,-0.0887508075717709
1718208080840583250,-0.0012819711272659,-0.0065198474255835,0.0032065019991508,-0.0947927379221589,-0.0096355195344451,-0.0896192718242107
1718208080840596087,-0.0015391427154714,-0.0059272955709532,0.0037756753650844,-0.0947918121304928,-0.0099789848941703,-0.0899397912228211
1718208080858090278,-0.0018838990497801,-0.0055104177478104,0.0043227548932706,-0.0942846268924243,-0.0101488082445921,-0.0898461402544977
1718208080860043714,-0.0020378508744797,-0.0050053933161161,0.0050746946824837,-0.0933959033810464,-0.0101409297541981,-0.0897753739917992
1718208080860100660,-0.0022055418992583,-0.0046376191903497,0.0057620183152615,-0.0925787707876811,-0.0100669192733881,-0.0897572617559099
1718208080860117372,-0.0023987179130335,-0.0043409090581331,0.006670003074911,-0.0913501624136634,-0.0100527458441241,-0.0897400773704517
1718208080860132339,-0.0026005722182332,-0.0041206581301587,0.0075451008896963,-0.0901676842595463,-0.0098894835062324,-0.0895424177908561
1718208080860146363,-0.00261666859693,-0.0038787973983749,0.0084570150221804,-0.0889487140784123,-0.0097828200708529,-0.0897151589193793
1718208080860159282,-0.0026703989172106,-0.0037667767138442,0.009252577503812,-0.0875145910035321,-0.0096317100940176,-0.0900444782248026
1718208080860176053,-0.00280597541387,-0.0036940747691935,0.0100073249438106,-0.0862639358464322,-0.0094779010183082,-0.0900614255033315
1718208080860192840,-0.0029256465858352,-0.003568519701419,0.0104693032063732,-0.0855880638955726,-0.0094667743541057,-0.0897497255492186
1718208080860206356,-0.003015687314086,-0.0034883326228343,0.0105808753876857,-0.0852059785425652,-0.009347636010468,-0.0893888148336451
1718208080860252103,-0.0029884777037573,-0.0035005731911978,0.0108613643187254,-0.0845830306075087,-0.0092352325462672,-0.0890253687133484
1718208080860273450,-0.0030612540491145,-0.0034188632125088,0.0110066878446576,-0.0847344842473762,-0.009216616156128,-0.0887905342278257
1718208080860287384,-0.0031025582713925,-0.0032825763356434,0.0109100296344737,-0.0852205049066668,-0.0092547323336024,-0.0885767351486011
1718208080860300200,-0.0032242610888001,-0.0030783880078242,0.0105083423415074,-0.086237436555177,-0.0093640589553194,-0.0878443857289466
1718208080860325234,-0.0033593375358377,-0.0029089130347981,0.0101407513891521,-0.0871738927231105,-0.0094812042126561,-0.08688120404883
1718208080860369731,-0.0033027080525472,-0.0028181932173226,0.0097360210812847,-0.0880593201898612,-0.0095478234648201,-0.0862599241882283
1718208080862379192,-0.0032922462683437,-0.0030212944789553,0.0094738414903844,-0.0881538525041818,-0.0094957720509188,-0.085924804760668
1718208080862390369,-0.0032701718710147,-0.0030766155716257,0.0088087404900558,-0.0892635751122463,-0.0095920430840547,-0.0859457984513278
1718208080862401967,-0.0032498531854343,-0.0033295148424674,0.0082965689309085,-0.0896931659055598,-0.0095312524872359,-0.0852055598308359
1718208080863692090,-0.0030745204318367,-0.0033895244612841,0.0075316985302699,-0.0908572124042532,-0.0095624837111972,-0.0853273760172173
1718208080863715087,-0.002806936786769,-0.0034416807820475,0.0065879332914737,-0.0921237412911364,-0.0096608787206021,-0.0850386176656973
1718208080864828459,-0.0024532607829796,-0.0035330470044767,0.005667130600496,-0.0932198381741727,-0.0097503019331765,-0.0847819550793002
1718208080865724469,-0.0022402845719101,-0.0039801432766799,0.0051525762513617,-0.0929526989006891,-0.0095802145100835,-0.084051522418947
1718208080866943042,-0.0020387829637562,-0.0045343635131667,0.0046975072083776,-0.0922996123142735,-0.0092632086523097,-0.0836884252990233
1718208080868602611,-0.0018395345547979,-0.0051708863964445,0.004399979027507,-0.0911804871733478,-0.0089421854323724,-0.0834752884786384
1718208080871046687,-0.001780789420996,-0.0058283025424178,0.0040925161527489,-0.0901202174900799,-0.0086150041080779,-0.0834711681728032
1718208080871075149,-0.0014736287331328,-0.0062397275691408,0.0035388741454192,-0.0900326920303994,-0.0084640365415202,-0.0841424348418676
1718208080871086983,-0.0009133309194365,-0.0065945288201024,0.0030593997082324,-0.0898301861892807,-0.00828609263633,-0.0846852593063881
1718208080872175562,-0.0005204357264709,-0.0071431945978664,0.0030329491867728,-0.0886824348057158,-0.0079756576604123,-0.0848199157457914
1718208080873282597,-0.0002642069381917,-0.0077790704291859,0.0028923749935842,-0.0872756628827483,-0.0081119802767914,-0.0848914580957452
1718208080874538912,0.0001146598870383,-0.0085290590757491,0.0029826884669754,-0.0852519066592414,-0.0079979735125266,-0.0846613338609867
1718208080875970181,0.0007323402725138,-0.0089086341487431,0.0027203825345087,-0.0843816838804825,-0.0078912210237958,-0.0855031488737537
1718208080875980587,0.0012590983653723,-0.0092493738621641,0.0025280536515667,-0.0835862486364032,-0.0077557352966966,-0.0857637955734587
1718208080877164593,0.0017806185109566,-0.009833850613212,0.0024609270968556,-0.0822466988649965,-0.0074146100392386,-0.0864526818167173
1718208080878329488,0.0022131677431721,-0.0101252557244516,0.0022260853084659,-0.0815419899024876,-0.0072199324101493,-0.0864401491972138
1718208080879585653,0.0023982701174548,-0.0104971642342924,0.0022563002713651,-0.0804675471261757,-0.0069738011382471,-0.0857919291593585
1718208080880813122,0.0024907188774637,-0.0108615615383849,0.0020795779949059,-0.0794421532866396,-0.0073355281932518,-0.0854078338542299
1718208080880835425,0.002807694989171,-0.0112499896561826,0.0020338858949795,-0.0780466171248095,-0.0072969018625811,-0.0847362135260254
1718208080881916512,0.0029782150384602,-0.0118531618945748,0.0018477872930811,-0.0763027846760103,-0.0071174031238712,-0.0840729839733805
1718208080883188345,0.0035323685785327,-0.0123141941212276,0.0017276514584831,-0.074763082552528,-0.0068217765436223,-0.0840033395714795
1718208080884526255,0.0039742327096995,-0.0124334112569666,0.0011671373122422,-0.0746325677174488,-0.0066927523212486,-0.0836807298976906
1718208080885544753,0.0045225603892374,-0.0126350193749223,0.0007801752831841,-0.0742086309095665,-0.0064258398472215,-0.0835572456356852
1718208080886925017,0.0052585849115048,-0.0127549375671536,0.000730000637663,-0.0731466282284402,-0.0061372082496236,-0.0838308605000352
1718208080886935797,0.0060083694655142,-0.0128325087938324,0.000787238088567,-0.0723040287572582,-0.0058231326255296,-0.0840347710132391
1718208080887982189,0.0067784462593076,-0.0128102188997093,0.0006445586753473,-0.0718174092627546,-0.0055179780157515,-0.0840895485907954
1718208080889190017,0.0074154698793747,-0.0128815628873229,0.0005666978250416,-0.0712161747651893,-0.0053142205150186,-0.0837153418199352
1718208080890353571,0.0078663870913358,-0.0131161115540551,0.0007028954684162,-0.0701466755218151,-0.0049945810837153,-0.0835405376198976
1718208080891647169,0.0084492722848507,-0.01322548822001,0.000725846562359,-0.0693012354603866,-0.0046522521903174,-0.0832157133119633
1718208080891657228,0.0088176200039067,-0.0131162139896275,0.000562584345026,-0.068934084302911,-0.0045548555449744,-0.082719829427108
1718208080892797375,0.0095397546397424,-0.0129566975508412,0.0005904161558297,-0.0686086050267635,-0.004456785198979,-0.0828550060950046
1718208080894006220,0.0096360293491719,-0.012966797966664,0.0005338867610999,-0.0681925066901315,-0.0048862937097301,-0.0823627568079981
1718208080895287525,0.0097532569211645,-0.0128758285351551,0.0004159781019911,-0.0682875187722813,-0.0052194891348983,-0.0815825546033033
1718208080896751003,0.0100255444318074,-0.0128756330852343,0.0002799934532792,-0.0683285729794157,-0.0053266969094576,-0.0813215054511259
1718208080896766561,0.0102342552292672,-0.0126356440160625,-0.0001982390127283,-0.0693780229134883,-0.0054379790343873,-0.0802181517935732
1718208080897968046,0.0106211693685754,-0.0123168548021916,-0.0006903606537614,-0.0705398358772325,-0.0061883824652539,-0.0803555358314846
1718208080899157935,0.0109294445912258,-0.0119602565385053,-0.000953545555819,-0.0714119445704804,-0.006586149572332,-0.0799167360277417
1718208080900558267,0.0108373557814364,-0.0117493329561322,-0.0009785358323248,-0.0718771123081966,-0.0074053734616688,-0.0786694908915256
1718208080901534104,0.0109486544837376,-0.0114677587079544,-0.0010415565703116,-0.0725590481454208,-0.0078223097189263,-0.077962980406632
