%time,field.linear.x,field.linear.y,field.linear.z,field.angular.x,field.angular.y,field.angular.z
1718208080465938689,0.1326780318448216,0.0862680085592768,0.0897595459696851,0.0626847821817983,-0.3131398645187311,0.1942154869202706
1718208080466976245,0.1357367620140641,0.0799102611985233,0.0715241877941094,0.1003979797500658,-0.2916382797037327,0.2849711574012034
1718208080468160946,0.1769517951985184,0.1078565017397072,0.129420969455618,0.0992836054759756,-0.1311112429475478,0.1345827643415914
1718208080469339688,0.2525552148823318,0.13701240227108,0.1202320292336427,-0.0174603495265692,-0.0288157900346673,0.1922933974730118
1718208080470471332,0.1600183609674891,0.0955431808372387,0.1090454609849471,0.1006403313454248,-0.2628489215591102,0.2507144180714534
1718208080471754571,0.2100842206235821,0.1109251753315938,0.176652081092788,0.1484077231335576,-0.1100895101890754,0.1472093762921506
1718208080471783042,0.1988287181931969,0.0878943617137158,0.2359207225559196,0.2310067990126505,0.0413537120047419,0.220223831844922
1718208080472950904,0.1730335320265695,0.0929148118565644,0.2775678477768445,0.3137554526583398,-0.0454144377655199,0.3902000979971521
1718208080474140990,0.1802363745617482,0.147638579449024,0.1969010994511221,0.0648025000138714,-0.2356228739280287,0.3616616632955636
1718208080475371008,0.1873948343499588,0.1695234239693843,0.198349629269604,0.0960554878793389,-0.2541950218700471,0.2050329972004
1718208080476638969,0.2309334576696401,0.1182527583242493,0.3320665255893428,0.4931768654249133,-0.0460790230363479,0.1988074117402049
1718208080476651314,0.2451711526296737,0.1013803467062662,0.29540237064231,0.4658612718706135,-0.0793009673219587,0.0046050898944835
1718208080477830234,0.2001743363057468,0.149843483769222,0.299275538569869,0.381955414395494,-0.2912031378910867,-0.1246781526618398
1718208080479089245,0.1105982978392244,0.1432536663681729,0.300197854979398,0.3362534373530305,-0.4130786094935808,0.0230910017618836
1718208080480218129,0.1277740691370351,0.1329937833201041,0.2562225432945615,0.2009900144426794,-0.3527026404190697,0.0304467216959304
1718208080481415264,0.1078652029577849,0.1579919701331587,0.2366147015673862,0.1299543422840787,-0.3277183471742124,0.1348357595256945
1718208080482692471,0.0410827368621826,0.0719411038226766,0.3072686115099098,0.3135418666506485,-0.4279355885556436,0.1930979401465958
1718208080482705206,-0.0477468799071466,0.1570952605089874,0.1486908657966975,-0.1070193579985313,-0.542079824857473,0.2699091567722891
1718208080483887376,-0.021893130483988,0.1949152313740784,0.1647153840025621,-0.1823584999823724,-0.6229378392879903,0.3717083093856355
1718208080485123220,-0.0188313042271469,0.1049476700043433,0.1644827252185433,0.0120387322495806,-0.6470649329698439,0.2970043362498996
1718208080486355927,-0.0032015177853871,0.0745231762009304,0.2080717361389772,0.1026849574331027,-0.6586484477733343,0.0918639849220893
1718208080487637546,-0.0162821722366684,0.0323517013409185,0.2254778913602646,0.2449970252467787,-0.6187168504872,0.2027879923747211
1718208080487661995,-0.0678047340928501,0.0851250523375898,0.1016295334506438,-0.0461666048585765,-0.6623443139834579,0.3457604204046293
1718208080488818271,0.0053944235720888,0.0913902829527893,0.1608455512862272,0.0014002103598857,-0.6660544291708133,0.0029814563704545
1718208080490834431,0.0271129749230279,0.0323446277624083,0.1673528616661831,0.1087397106643452,-0.6315621374147232,-0.0044064823228466
1718208080490842985,-0.0071986864064936,0.0625925216214672,0.1191209584104076,0.0680591879708256,-0.6696501320278412,0.0721075559422868
1718208080491900904,-0.0150478929728848,-0.028020043177456,0.1640507320407542,0.2722454916054349,-0.6150402271374099,0.0576915922072558
1718208080493134866,0.0288852789301855,-0.0680908683145786,0.0766044246102771,0.2255802872577875,-0.5575614246681033,0.1822971133939692
1718208080494307638,0.0454564042076383,-0.0926267280738684,0.0536108348606606,0.3231396203524229,-0.5432346048944457,0.271310160648908
1718208080495582930,-0.0077260176191241,-0.1081265278112822,-0.0113972903639338,0.2086421352087669,-0.6822545094723087,0.1525863073970236
1718208080495603487,-0.0461300781416665,-0.1529487671047395,0.0679471767736897,0.3927417319274133,-0.7890038603616707,0.2996058414772077
1718208080496761701,-0.031890558335925,-0.1305474040264704,0.0694677207038439,0.403271574140013,-0.681781326479506,0.3878424455991558
1718208080511676271,-0.0231285921290565,-0.17527301401227,0.0512081207314531,0.4229316643119435,-0.7519367277847673,0.2143846839496899
1718208080515118557,0.0722076672006094,-0.1625655013713846,0.0359753075621193,0.3973495529485891,-0.6339696472174954,-0.0294394073364761
1718208080515125779,0.1010791581236327,-0.19696553138599,-0.0423758208695718,0.372358318495651,-0.6922307056587782,0.074295284672252
1718208080515167672,0.0084911002259534,-0.1617876143421904,-0.1475137118023508,0.1805452206992671,-0.7817388470583162,0.0695548101383716
1718208080515179125,-0.006125343150942,-0.2311238424350548,-0.1190658989130298,0.3511002712076836,-0.8244225037332797,-0.0342468431809143
1718208080515192053,-0.0020043713898793,-0.1988777708063064,-0.1314749343675893,0.3113472814297779,-0.8835327934951599,0.0410691943669036
1718208080515208418,-0.0158374077670322,-0.1898548823676956,-0.1994132135453654,0.181442242377951,-0.8842688345980209,-0.076678245733518
1718208080515223840,-0.0610769553507816,-0.2176325355903568,-0.2147645181336189,0.1431970185763902,-0.8971572286841323,-0.0694351755685203
1718208080515238379,-0.0253921630447156,-0.2860875640460073,-0.2166772252053346,0.3120246489015448,-0.821708666298515,-0.0440110879964571
1718208080515255112,-0.0068167512397374,-0.2913993183147513,-0.2066654094513767,0.3724324909674331,-0.8362579367968518,-0.2607727196557107
1718208080515264386,0.0676503953633487,-0.2830039617109037,-0.2425947954381538,0.1949389569511271,-0.6662210136677325,-0.4502326409655044
1718208080515275851,0.0761040782056356,-0.1964125916193982,-0.2969378732175648,-0.0059141848652125,-0.7543995209220278,-0.4481665507941365
1718208080515282957,0.0181575309142683,-0.1705255208767127,-0.285222133427629,-0.0294481367320773,-0.7614445467181661,-0.452125830744156
1718208080515287787,0.0678185058587279,-0.188197113936866,-0.2742531019804528,0.0479277479094314,-0.571840020811222,-0.4597407593027998
1718208080515304922,0.1383852551759775,-0.2369889654229956,-0.1794684514486952,0.2659189385716766,-0.4353658982836699,-0.5556043177511248
1718208080515314383,0.1037761653854312,-0.2865585295047852,-0.2709829250426318,0.2834298399392234,-0.4612087381279213,-0.5826588956027869
1718208080516387889,0.0115936778052917,-0.3107582952251757,-0.2041876780727902,0.5409869023759697,-0.5101312976087706,-0.52043510135224
1718208080516398384,0.0996664127178514,-0.2559815472481126,-0.1535970804795655,0.4550097495158382,-0.3426373117872869,-0.5354318202513231
1718208080516411598,0.1363712066867879,-0.2358126775430973,-0.1097309936391149,0.4886659605957357,-0.2539089680664675,-0.4839601613306283
1718208080517675461,0.0870955902447008,-0.1561708925279284,-0.193828684185666,0.2666349872605501,-0.2150912482394555,-0.2526387998435961
1718208080517686430,0.0087303057588324,-0.2347468198154903,-0.1077026909130544,0.4916214448289938,-0.2681211959479135,0.0725702027844357
1718208080518852654,0.0375415954456871,-0.1784508979318172,-0.1162133943101095,0.3931713809425911,-0.2404938191603682,-0.0346269217536181
1718208080520104898,0.010869860661455,-0.2005825584314527,-0.1184446168686713,0.4277410999242214,-0.1614011768487558,0.1325500044916508
1718208080521325037,0.0547391258940519,-0.1760310421601519,-0.1139516279124361,0.3461422926325843,-0.1250561030450088,0.2001835424382675
1718208080522570236,0.0855890662697958,-0.054470528395924,-0.1470820793240334,0.0665018894050381,-0.1345835844664076,0.0740067113530509
1718208080522579331,0.0869000582391494,-0.0278501869337165,-0.0841854930019724,0.1409195318903887,-0.0860839843689616,0.2054300548589275
1718208080523851976,0.1405496658818557,0.0026792953781623,-0.0395283145687307,0.1875088300770292,-0.0619546569633096,0.3080434066753971
1718208080524987915,0.0898908973203141,-0.0292603710724413,0.0177039984838264,0.3169821741862045,-0.074230586969708,0.3036671915787808
1718208080526152662,0.0981214573163813,-0.0190918857954473,0.0471020984042912,0.342594755825018,-0.0437810635568676,0.3278007267827715
1718208080527316690,0.1210212918858953,0.0020664737722987,0.0719406937502936,0.3835623129083204,-0.0462376596944506,0.5020821257877465
1718208080528558824,-0.0101777860559954,-0.0244075453614872,0.1107032258795742,0.5167329344188547,-0.1909234456386719,0.5612877934805429
1718208080528580992,0.0390671682613324,-0.034892493406077,0.1656040550973357,0.572598947564245,-0.3093765147284899,0.3632369712179487
1718208080529760927,0.010312711813073,0.0538349617140139,0.0953717785055083,0.2788190743553576,-0.4383949479254261,0.4824710827756327
1718208080531000180,-0.0253041794428306,0.0604842654067204,0.0808537305625519,0.1950870558593484,-0.4845089199986876,0.3908710640095424
1718208080532235981,-0.0460360743623012,0.0850288604146744,-0.0501960133615474,-0.067414193730533,-0.5912184128280877,0.5621860959035476
1718208080533451223,0.0672018964364516,0.1194851917094863,0.0238618842976238,-0.0660746579611003,-0.4817181338085917,0.4918524677048824
1718208080533466147,0.1447503194676294,0.0969667183923109,0.037038232647697,0.0234771829351661,-0.3703934833512374,0.481312988279769
1718208080534720509,0.1008381425909384,0.0971534137380616,0.0158784388848966,-0.0896730755057488,-0.4751489660338512,0.4585099187703112
1718208080539772232,0.1713179444022152,0.1302542448376469,-0.042829818978359,-0.2801103937830681,-0.5114142246599961,0.3964922007407491
1718208080541460598,0.1234526620955835,0.1017809337988209,-0.0911488387689628,-0.2936082427867557,-0.529912802791694,0.4316181578176918
1718208080541473469,0.0812112738428366,0.0970972661758431,-0.0566576984875387,-0.1875543490890864,-0.5577244239635706,0.2035759760289496
1718208080541493192,0.0669321078308999,0.0695940340641571,-0.0199452146721372,-0.0710110706709029,-0.5510505758286596,0.351361113290528
1718208080541530863,0.0403551905741624,-0.0201651960919352,0.103990035823187,0.3437678280956801,-0.6640894595579264,0.1888378707917494
1718208080541565836,-0.012894705220726,-0.0154558261171807,-0.0004636784884201,0.2316542812503825,-0.8024541713311848,0.2414352454333591
1718208080542487116,-0.0007016435399675,-0.0535930618408114,-0.0037815235458049,0.3150161063796278,-0.840605299623323,0.2613329504564587
1718208080542499917,0.077550798313888,-0.0554461267764297,0.0825241575753995,0.5014356226733917,-0.6813834878833712,0.1173721760726118
1718208080543449492,0.1147143229656967,-0.0549176389698591,0.0115461188222529,0.3928525130071108,-0.5974681447267248,-0.0279247334687687
1718208080544372438,0.1411912573027006,-0.0558620081125575,0.0862885223090591,0.4988726721006222,-0.5232339739339052,0.0522633620233805
1718208080545496676,0.151840676157794,-0.1107942186532321,0.0733660621398594,0.5987132710550206,-0.6108097219353085,-0.1606290314964045
1718208080546685523,0.0937407706466734,-0.1341720329726101,0.0401037345740357,0.6348466239646973,-0.6986982649149145,-0.218129342360198
1718208080547901455,0.0970667827084997,-0.1006650291456154,0.0670284844171416,0.633569053708157,-0.752251580603903,-0.1218802340635231
1718208080549049627,0.0481115700536181,-0.0655126292881499,0.0973907352844546,0.5204292155254968,-0.7974389525581511,-0.0414484836669278
1718208080550962657,-0.0178292170527678,0.06880497759782,-0.0204041417521084,0.1040882113250323,-0.7262399132361774,0.1413234145073613
1718208080550973419,0.0074805750295501,0.0593350665128314,-0.0942642702358673,-0.0383981281783647,-0.6355977291734697,0.2249579134800751
1718208080552023666,0.0281174950021332,0.0159453912132417,-0.0776112144089224,0.0145530829834518,-0.5331033271193912,0.223994279011754
1718208080553341274,0.0420786681523108,0.0543744926487475,-0.0001538793083454,0.0792470699086239,-0.4680078144381135,0.2638643298101952
1718208080554523543,0.0167074634395523,-0.0180557113432333,0.0511436342033766,0.3271842308996552,-0.5233444910009188,0.3334353182125452
1718208080555757379,0.0473170016641283,-0.006723302541589,-0.0240579165487631,0.1865522612645859,-0.4613121716796545,0.151826042704625
1718208080555827432,-0.0312070082908698,0.0139488148987958,0.0068312654078663,0.1293172262034982,-0.3973800063519189,0.227937348282193
1718208080557026037,0.0233608871969147,0.0273472019387423,-0.0732172319225774,-0.0823192234620184,-0.3674168507342189,0.2371698146710563
1718208080558207942,0.0132519251943155,0.0455733701327493,-0.0068825455640612,-0.0145566718554479,-0.4862802438533167,0.2738984823185226
1718208080559444155,0.0627970121771497,0.0690946214865779,0.0744556374711502,-0.0225746362444152,-0.3713725038797573,0.2248859154996264
1718208080560424525,0.0499473488446302,0.0131953679893288,0.0979967910731532,0.0661944477667915,-0.2842309024236136,0.3434586309785818
1718208080561809463,0.0518498100917087,0.0991415417056525,0.0013508666444313,-0.2471575970795885,-0.2640050818438593,0.1759980071652214
1718208080561839921,0.0624811864613487,0.1512933932458707,-0.1477092110416387,-0.5649239144643441,-0.4328557674109184,0.080524755478356
1718208080563856584,0.0252321193884657,0.1355428395046587,-0.0963685696737646,-0.5046698321427242,-0.3621229575917639,0.3071293359233738
1718208080565263429,0.0558083976795653,0.1573471793195967,-0.1080447982318096,-0.4708107564155921,-0.3430930222775641,0.2205305584500528
1718208080565272103,0.0561508037964566,0.1711986325457686,-0.1383752892485427,-0.4921573720283616,-0.3032662251651793,0.2828663350405349
1718208080566505975,0.0443524254118312,0.1365140143660279,-0.0392567314116655,-0.258164510999044,-0.2561679670902855,0.3071613444925453
1718208080568081833,0.0560161648891794,0.0947082994815462,-0.0065987960891319,-0.1352227931316407,-0.2231190953552387,0.2745961825929472
1718208080568087625,-0.0631193534196184,0.0713636949892059,0.0703246928671332,0.0402812934595506,-0.3732457612177567,0.42277229320063
1718208080569377480,0.0251350239159279,0.1739792726501334,0.0216691460843087,-0.2000639627554398,-0.3878102386382703,0.3568722644237134
1718208080570610668,0.0137180481574475,0.1493071760529975,0.047250325214858,-0.1116231187429306,-0.3734474402364411,0.3115105119801842
1718208080570622680,0.1139139211034104,0.1720324916368757,0.0611443651721394,-0.0958843373592934,-0.1877170770490139,0.1842017420898391
1718208080571903158,0.0604899947731742,0.1348726539918747,-0.0072343308395619,-0.1003103081947668,-0.3552972599014387,0.1274935912676396
1718208080573026322,0.0674014868335531,0.1754710599078875,0.0044869931848978,-0.1496906690380492,-0.3342731227190353,0.231857273053316
1718208080574190701,0.0547926774980097,0.1099315051757205,0.1080556825590123,0.1334533038509499,-0.1086065633828219,0.3022588360872851
1718208080575411490,0.0612022693320101,0.1503397329595046,-0.0035282121242606,-0.11269787802311,-0.1171889649307677,0.397692254396734
1718208080576625457,0.0723120324998909,0.1919936095123735,0.0060149958316925,-0.1104099888105388,-0.1487518637472049,0.4086924154073269
1718208080576634527,-0.022306214393734,0.1837420971267134,0.0578818942794166,-0.0151245437554556,-0.2740759678576853,0.4099352187452861
1718208080577894469,-0.0086089956311365,0.1321578460912185,0.0954062706894653,0.1670486432248064,-0.3816044646242096,0.4325257074615331
1718208080579047053,-0.0474638713749281,0.1645951063632905,0.1094510918345502,0.176002885072231,-0.4805842653707162,0.2488729776949186
1718208080580229806,-0.0795289442503724,0.0887423654372589,0.1364191087250742,0.3724846594085973,-0.4567212898556214,0.3370371636978348
1718208080581423881,-0.0308364574255663,0.0799781260578661,0.0790437135696545,0.3632545110562766,-0.495710966912592,0.1389792504682215
1718208080582700392,-0.0233482051647733,0.1205669736862087,0.0075056538552042,0.1412889335617478,-0.3877170992363902,0.1129530587744834
1718208080582722538,0.0039377154563217,0.148610024334342,0.0187109128620691,0.0276563540942989,-0.480877838616604,0.0393863098169044
1718208080583884282,-0.0707636430553581,0.2127391451724082,-0.0724180342026858,-0.2980082747003925,-0.405675836610638,0.1646813367675078
1718208080585564048,-0.1478005976581659,0.169697005978944,-0.0822654875193676,-0.2651906964913615,-0.4919342860074346,0.3439595787782421
1718208080585579828,-0.1055737496859759,0.0585835086707692,-0.0363691197751198,-0.0081944281846825,-0.507270076907413,0.2165318834145659
1718208080586742794,-0.1101117504380402,0.0457247173537846,-0.0012571989469578,0.0575217923913378,-0.3841384955808961,0.2831004005460681
1718208080587969112,-0.073212111009073,0.0509338372103056,-0.0643709663984634,-0.0369906187525614,-0.4476367015649528,0.3343216194314027
1718208080589634628,-0.0647230349232876,0.0441208602273113,-0.0734749860003157,-0.0325330953897496,-0.506160542768187,0.3365895416571507
1718208080589642439,-0.06206935135611,0.0198954978824615,-0.00349806244482,0.0803832058718426,-0.5089926678459481,0.326618766198144
1718208080590811226,-0.0446587799225526,0.0277106251296034,-0.0778321331109154,-0.0912640676975883,-0.5493722546161989,0.1120614142459954
1718208080592062139,-0.0453586745468061,-0.0171198994008218,-0.0246930528149672,0.0794858724503174,-0.3966741802216521,0.3410245182667793
1718208080593304335,-0.0115473566036834,-0.0490731986366814,-0.0067356760982102,0.2197780838774207,-0.4052663754602943,0.102278186795156
1718208080594609387,-0.0080771268120371,-0.0448837476793267,-0.0719293582834745,0.1582108753003894,-0.4117116505004522,0.0981013752081338
1718208080594619153,-0.0731901896944859,0.0079653246081641,-0.0881719010891362,0.0421579818679482,-0.4495163539127705,0.2626407677508232
1718208080595849865,-0.1548319084092747,-0.0550386430243759,0.0039579924814572,0.2899221300681888,-0.4223733984520766,0.434135984152238
1718208080597130074,-0.1097136262390809,-0.0745257186132096,0.1224256783583722,0.5165008497226312,-0.3967144119011524,0.4325754427819208
1718208080598394352,-0.0792152403888665,-0.0653352879605524,0.1165238045273692,0.4777024622090397,-0.4018351327419435,0.4600330963637259
1718208080599585111,-0.0687277750522566,-0.0086110729258846,0.0010311264493804,0.243794835852938,-0.4238417754090072,0.2214907734304109
1718208080599605241,-0.0634374737144116,-0.0344439219888661,0.0371237599677818,0.3344423138688918,-0.3934915147678842,0.4373524450281348
1718208080600857457,-0.0406593746192645,-0.1090211624622348,0.1234869330476967,0.636814003352492,-0.3326450407979929,0.4153666417422207
1718208080602058678,0.0003696800193759,-0.1345952928105531,0.1385912994663114,0.737035817081192,-0.3153856475261329,0.3034906926263829
1718208080603246163,0.0287462757526569,-0.1040850040079376,0.0972225797599866,0.5806890615494099,-0.3177904898922872,0.2987395343930635
1718208080604466618,0.0041048019236161,-0.0986638834642565,0.090702182296412,0.5266789710547573,-0.3179968226188246,0.4143705648580238
1718208080604480812,0.0120978772658155,-0.0970408619070334,0.1401203297177997,0.5701185284551437,-0.3097544711890438,0.3974953075615504
1718208080605625643,0.004553552162608,-0.1404090369339311,0.1063826151622925,0.6310655744247788,-0.4574425870186478,0.4580867534852285
1718208080606813928,-0.0329146639024752,-0.1546401901893452,0.1165638307434387,0.7324123186941309,-0.5560696822608603,0.4867405460454445
1718208080608017191,-0.0141044054112123,-0.1952970664991679,0.1483625446665395,0.9607039672585084,-0.4029129880941345,0.6496414634413636
1718208080609191610,-0.0353581054238909,-0.1747195272773586,0.0586762701930274,0.7933478142400444,-0.3330809772112082,0.8082779227041014
1718208080610429930,0.0605372770960709,-0.2043764161296094,0.1258551176909648,0.9197800806428764,-0.281257074714061,0.6012984428340732
1718208080610442859,0.0561965524201864,-0.1755153524416761,0.0405167079543393,0.7470016214575806,-0.4487707007281022,0.316885288117295
1718208080611658248,0.0937879170919822,-0.096270808958079,-0.0042702924889361,0.4982325720753595,-0.3945565131454204,0.2547096662370306
1718208080612877143,0.1078597405373544,-0.087572792742518,-0.0760511961790567,0.3881152000919884,-0.3598924503809831,0.2963785702261193
1718208080615230877,0.0588413879779949,-0.1263825429017148,-0.0840378720057299,0.444429601397506,-0.447716021038707,0.2930493606238665
1718208080615324249,0.1016758119653727,-0.1193971759223204,-0.1389190297409703,0.3360554500517864,-0.3967456792942566,0.3444336862725223
1718208080616479604,-0.0615111796433947,-0.1431675640577959,-0.1925054609929507,0.2664030046591099,-0.6376701473278841,0.2632111414022405
1718208080616488684,0.0113326490190401,-0.1105122735839531,-0.252529844290818,0.1176025328253354,-0.532937767258443,0.3024893020594975
1718208080617715701,-0.0043171953603527,-0.1471424316456239,-0.1879894892561962,0.2497324544362523,-0.610953979378555,0.3193991561950865
1718208080618889090,0.0152487428136779,-0.1326640528154987,-0.1520759378676564,0.2133326705104834,-0.4677941535416662,0.3181480230634452
1718208080620109611,0.0288158756621169,-0.1095878558614701,-0.1383803258400431,0.2263389782534983,-0.5320218141932371,0.1616113226964389
1718208080621253004,0.0479943442856459,-0.063540931914732,-0.2141376214647443,0.0148894175766653,-0.5608963405344497,0.1760604511797231
1718208080622464570,0.0559419845963932,-0.0771236798507916,-0.1939332072866619,0.1119798568692622,-0.6166439023727266,-0.0587186091047195
1718208080622478929,-0.0276225511694767,-0.1040361567099133,-0.1449913100519201,0.2571354437729347,-0.7539085111854188,0.1114462510703554
1718208080623678717,-0.0466095028980536,-0.1076374614994974,-0.1065960871831399,0.3375384834537416,-0.7092569919516324,0.1457153763061922
1718208080624938898,-0.0187772454380164,-0.0722141769590591,-0.1864506425686936,0.2556152519105621,-0.684742783541624,0.1132416299901041
1718208080626171124,-0.0367438820463379,-0.09894986237566,-0.0606039939654908,0.571877243571906,-0.7762594670664114,0.067659955258972
1718208080627390769,-0.0193259800958905,-0.1101595701090138,-0.0001238805296294,0.6883366527717412,-0.5299782621326385,0.2677143276147719
1718208080628679696,-0.0671077634642023,-0.1211204970699662,0.0528910337834015,0.786977657163857,-0.5299259132575658,0.1768004143593893
1718208080628688209,-0.0878090447497995,-0.1247614740881651,0.0865189336085841,0.8369643868851702,-0.489116421323185,0.2556850670934248
1718208080629834736,-0.045768689900878,-0.0126334468897117,0.0151527713790359,0.5428994707162726,-0.525812995392232,0.063573348766926
1718208080631028529,0.0064320271113267,-0.0259284334219766,0.0434985273549974,0.6185318436015954,-0.5327945924777073,-0.1846432820975224
1718208080632266649,0.0647916957521537,0.0235315322920843,-0.0126373220868589,0.4056257634963625,-0.552087792884833,-0.2028035411166435
1718208080633581536,0.0692907766963186,0.0212488450219688,0.0831962716359284,0.6359182900724722,-0.5155031267597303,-0.1239578908225949
1718208080633595956,0.0403266658781885,0.0095257274874867,0.1383065817645762,0.6823508935764455,-0.5252704724584611,-0.1944626239250839
1718208080634699706,-0.0074235574695023,0.0786480284579146,0.1571322806290662,0.5540195214308594,-0.5472640294192715,-0.0944916389785219
1718208080635947498,-0.042139262138742,0.0607142730693502,0.221199110056907,0.6753383536355827,-0.5079901036733679,-0.0434757336344182
1718208080637152555,-0.0150741449550743,0.0944933039430788,0.1618726536081166,0.5668434875664912,-0.523023912763443,-0.0526500462715336
1718208080638380507,0.0088172175242969,0.1278045031958617,0.1637722660668299,0.4864002964231459,-0.5042409114929514,-0.1091875479892125
1718208080642303922,-0.042764720841526,0.1574124910341949,0.1668470982687254,0.4328797380446986,-0.6619246936060602,-0.0211610193197088
1718208080642322020,-0.0596805542201102,0.166603848548768,0.1342677043032526,0.2985689021565887,-0.6100871208694325,0.0680455603640576
1718208080643730640,-0.0342086789911833,0.1706343920128819,0.1509230717233933,0.2972003121081912,-0.5531314937022794,0.0350462159524877
1718208080643752169,-0.0236921623442882,0.2009706881612734,0.0786421653053327,0.1198032353838236,-0.5615169407386443,0.0476732195051325
1718208080643782207,0.0013002317739285,0.1824394684794876,0.069244193785053,0.0716253052524107,-0.5123539727633455,0.0119420302344475
1718208080643796319,-0.0427782009166286,0.0979418827119901,0.1338569415602676,0.324016443049999,-0.4404307413954098,0.0942175246049603
1718208080644616522,-0.0109829536920303,0.0719157594448575,0.1089194100801657,0.3466045562407721,-0.4203300162787177,0.0348424484490191
1718208080645588689,0.0410271288379055,0.0561618753146424,0.0971161867999923,0.3485960658613675,-0.398820312141987,0.0317126063555684
1718208080646848147,0.0425218946276195,0.0225972626045926,0.0863346572890488,0.3830419878131129,-0.3740677169531834,-0.0054800364078017
1718208080648619916,-0.0109311931824569,0.012507712557053,0.0284623876308228,0.3162397641613707,-0.4955597071694452,0.0172603063755365
1718208080650427372,0.0176393098661637,0.0055501921473218,0.0094515063300192,0.2808006891849514,-0.447768083889607,0.2057484921386415
1718208080650438662,0.0975043652500548,-0.0006566724570617,0.0018857119694854,0.2634521311402443,-0.4153054081631487,-0.0314392203211453
1718208080651656339,0.1010484629985267,0.0097630314024603,-0.0080466336570181,0.2362231425897474,-0.383969257909295,0.1488473056265534
1718208080651675144,0.0460494388052114,-0.0386550552726985,0.0914454339913906,0.4120654183858073,-0.3481386837995835,0.1986065849295807
1718208080653164812,0.1302322247827668,-0.0635390403388841,0.0603934107785335,0.3829317867817321,-0.3222486513274832,0.1497271273526981
1718208080654455271,0.1884418525165768,-0.0036898887170027,0.0259510356479356,0.2563369654921809,-0.1653086479167787,0.0461787710859263
1718208080654485306,0.1967675068160735,-0.0332338337983466,0.0565833003438106,0.3954523408240467,-0.1865647632443153,0.1438849325966766
1718208080655709486,0.2124395409572639,-0.0255476512684418,0.0849083107134783,0.3803965697829778,-0.1840552920771458,0.1310116569026406
1718208080656883271,0.2144851308120421,-0.0995546042442616,0.1756301306532729,0.6586876718881365,-0.1512443007437331,0.1966850769814002
1718208080658088390,0.2132864087088548,-0.0391317571203424,0.066806031008727,0.3577283624402029,-0.2020243882406389,0.2008904657155099
1718208080659283537,0.1856447331638847,-0.0582144339961902,0.1233240522338812,0.5083496373893927,-0.2022166779365536,0.1903274916383906
1718208080660553613,0.1548033243414103,-0.0868650492777403,0.152661662637673,0.5342338874988507,-0.3399215024228105,0.1619471320129802
1718208080660564792,0.1699578848925377,-0.0332572500605877,0.0650197375543825,0.2929547540327209,-0.3137377741901835,0.3559509706488618
1718208080661711069,0.2600202133553438,-0.0402317127349684,0.0215511619824684,0.2599556429910477,-0.1132390055835201,0.2565048075080068
1718208080662919919,0.1424888533551495,-0.0264514696713341,0.0127186050421508,0.2058821859317807,-0.1436955522901404,0.4181108470223431
1718208080664135159,0.1276857336694915,-0.0306631561032223,0.0296215691211717,0.2023354474546311,-0.1260950839137125,0.4084657220191162
1718208080665997449,0.0729769248126998,-0.0645856441084881,-0.0522006840569602,0.176495744358441,-0.2967377247445997,0.4824330687235436
1718208080666028966,0.0997165622371956,0.0053960649347694,-0.1635289587966723,-0.10100686729072,-0.2593238022563449,0.4001116987706569
1718208080667201285,0.046850761951119,-0.0053057168293347,-0.1713502326350199,-0.0760384136325414,-0.4231029328047939,0.3719466607903794
1718208080668490210,0.0715163451789121,0.0344190117170924,-0.1840255575690138,-0.2104023492456581,-0.5246855642914791,0.1627579064112057
1718208080668502994,-0.0667707843859965,0.0108842290119755,-0.124030408004738,-0.1719469867908512,-0.4129561964428286,0.4452780219319291
1718208080669620640,0.0067385612490542,0.0499666600028545,-0.1645856992203387,-0.3486386556329774,-0.3722088039745547,0.3464482793310161
1718208080670852076,0.0425283864103285,0.0757621216334518,-0.2345695654074281,-0.5354599162864302,-0.3294538092205374,0.2545076304181545
1718208080672067326,0.065881933481852,0.0201959359372579,-0.12982266199864,-0.2710761334568123,-0.2739678115817722,0.1599411080193844
1718208080673270481,0.0147882177862413,-0.000899871906058,-0.1431819804065541,-0.3206586707485891,-0.3902570636790367,0.1830048040255641
1718208080674580196,0.0427930346839904,0.0969337580143603,-0.248494070840847,-0.5991149334885499,-0.5250896179486189,0.0292501502033137
1718208080674587790,-0.0042513603024439,0.111603798978481,-0.2147742385039547,-0.5835555186413622,-0.4438145571243556,0.2660211277021594
1718208080675774008,-0.0511372869476564,0.1223134468903068,-0.2358163995999755,-0.7520598783713968,-0.5244058009593004,0.4593363993743925
1718208080677001909,-0.0361963780503707,0.1469518223293879,-0.1782924617672633,-0.7531834564704307,-0.4300530139672472,0.3930411525794489
1718208080678905562,-0.0395793345766576,0.1899921713699733,-0.2185364606628633,-0.9244403991781532,-0.5403135714798142,0.3002873537486082
1718208080680294005,-0.0213892225352778,0.2190772103162715,-0.3620675657918402,-1.1783651059656322,-0.5093568015658122,0.4296361951815951
1718208080680411018,-0.0022640134171901,0.1742501043525913,-0.2075010679673273,-0.8026853075063962,-0.5104804311235734,0.2246280210150966
1718208080681517885,-0.0017866042319634,0.2015273924181281,-0.2346243319490344,-0.9015353110985682,-0.5850353013289564,0.2438392832273609
1718208080681530685,0.01587972560358,0.2558214721579447,-0.2470114161831274,-1.1025230706532492,-0.6297334632704507,0.2838453420477644
1718208080682655725,-0.0303810714866301,0.2765162182275139,-0.2575173679425336,-1.160957296781343,-0.657492505815687,0.3416005190532514
1718208080683880558,-0.0016069066882096,0.2641316937079777,-0.2280355774728918,-0.9914224636186966,-0.5100781583966201,0.4600889650104398
1718208080685086983,-0.0836717470005142,0.1795290420769822,-0.1239335063038671,-0.6619445423505042,-0.5014498932684734,0.4989995986183807
1718208080686283746,-0.1098192171514113,0.1543727772598101,-0.1217466146994538,-0.5769081646450058,-0.498199813450661,0.5411702982617449
1718208080687701028,-0.0894252847099423,0.1823668971352646,-0.1512648941458315,-0.6607780993657356,-0.5475452544385303,0.3068122804490056
1718208080687710560,-0.1250022355870768,0.1574283975792454,-0.1125693211376556,-0.528190195092807,-0.5480195566347339,0.4814819265712494
1718208080688900796,-0.0951851870248505,0.1197761207810192,-0.0359249370317507,-0.3138727592405526,-0.5469357104796855,0.444219426613458
1718208080690128485,-0.0773283175655059,0.1480222645584085,-0.0211322465597844,-0.3484555293805674,-0.5695593265989497,0.2306109891169274
1718208080691393507,-0.1050928053035075,0.1898232176108932,-0.0050643673264847,-0.3788181925750949,-0.6136894024803461,0.2165665090262345
1718208080691408241,-0.0224386187013061,0.2386790644438913,-0.0128552418613516,-0.4817300474096655,-0.4508563223392542,0.0735936813637627
1718208080692586033,-0.026539572599074,0.1878923818371353,0.0890330203553261,-0.1807815133259264,-0.4444123022751536,0.0100768832985489
1718208080693749315,-0.0856736366808162,0.1718884317290992,0.0439752766904107,-0.1863313166234552,-0.4548484104375385,0.0650041691354794
1718208080694940822,-0.0270164082866134,0.1701208730956284,0.0113949462700865,-0.2130414129544623,-0.3274936634912032,0.2239572998526474
1718208080696190775,0.019018435448962,0.1911245765058813,0.000860860106257,-0.2238846866650868,-0.3829180528644422,-0.0199776825332186
1718208080697453907,-0.0659294679920514,0.2535045958846791,-0.0714414840162674,-0.468199999135898,-0.4520433758491669,0.0661509010962944
1718208080697480419,-0.0307737703333991,0.1993045996282146,0.0164704190118198,-0.236797880539782,-0.3023418984014183,0.2125588920489768
1718208080698665254,0.0085040702104894,0.1795664096283353,0.0337908105225373,-0.1163369173153164,-0.3271740903780259,0.1457457477025774
1718208080699899009,0.0430682245112188,0.1748770036492421,0.0495169079811576,-0.0693784580749855,-0.2223921779351371,0.2502327810927501
1718208080701116761,0.0269264552303831,0.1352337851919285,0.0672823459920104,0.0103701643065914,-0.2537536744659708,0.3178751745874355
1718208080702327777,0.0133837150181108,0.1192915505905403,0.1534050312009764,0.1210872661287753,-0.3000826891416627,0.2831475891130337
1718208080702335813,-0.0604866168074262,0.1545554806362358,0.1263800062638106,-0.0063243572826619,-0.3277753321928255,0.3297775829745277
1718208080703606103,-0.0474692837658031,0.1706642046460186,0.0886089256607808,-0.1014402779712088,-0.3731134637776334,0.0992129644880964
1718208080704804424,0.0124259454457138,0.1803625273405485,0.014530813855659,-0.2823473846251884,-0.2731453563525574,0.2747439039617613
1718208080706216129,0.0136654466932197,0.0935281489624022,0.0791242124960345,-0.0345736276343237,-0.2650837028796183,0.1982649836628939
1718208080707414418,0.0081330031956288,0.043748419104327,0.0696526677047483,0.0560769522038564,-0.2643432820891591,0.3971101034957382
1718208080708763628,0.0777485800198756,0.0206604096010806,0.0951912410532623,0.1504830534377764,-0.1039829685228193,0.4405201070776848
1718208080708775013,0.0318712438481545,0.026905964067456,0.0726612097081833,0.0451122548573992,-0.1682872746992243,0.301483335993757
1718208080709966567,0.0403717902955587,0.076391443251573,-0.0720998082724763,-0.2164857187655148,-0.257697709394266,0.4439850591822032
1718208080711258111,0.0227350568538443,0.0807335326113073,-0.0328256494067632,-0.2131080687897799,-0.3273903950287422,0.309381274793068
1718208080712625837,0.0064384878332272,0.0673177022233596,-0.0816921897973076,-0.2397606092343525,-0.3244627576975018,0.3437022189882066
1718208080712639995,0.006471528020105,-0.0003130029321991,-0.0055129570761228,-0.0388717665098883,-0.3090347300851762,0.4678980491187989
1718208080713901935,0.0080119514380152,-0.0237460597756497,0.0505398378830764,0.0993894142522451,-0.2831797179722166,0.4610243160160214
1718208080715061451,0.0059993990875804,0.0200007891166611,-0.0307892915513389,-0.0630490108436604,-0.3321353424687985,0.5483179805247335
1718208080717631480,0.0581912625219873,0.0537721558236356,-0.0737219490797612,-0.144683621494969,-0.360437707910515,0.4660232610331946
1718208080717666000,0.0271380854395547,-0.0039699441045024,-0.0691271875896547,-0.096986204569349,-0.3419816673097586,0.5215865604702977
1718208080717689039,0.0728816534212676,0.0184352576861595,-0.0185715714247404,-0.0087337054058423,-0.3474956940589542,0.2821055520414717
1718208080718730685,0.0409903825301418,-0.0679363252865065,-0.006445939162942,0.1357608667223802,-0.3219961188665659,0.4166032403831848
1718208080719945886,0.0806156784549333,-0.0438908894122324,-0.0355765335050295,0.1175775764713881,-0.3296177826371121,0.4819876122455107
1718208080721098773,0.0599362797712614,-0.1265064674731723,0.0981268966001835,0.4773517752092535,-0.2596292790249729,0.5802291436533095
1718208080722350572,0.0404815997121555,-0.1511553759988768,0.124311500883529,0.5906300298872698,-0.2189410536438531,0.597864819607479
1718208080723727085,-0.0024456062226451,-0.1422394695148426,0.1363521018938427,0.6630721486676665,-0.3708336642334221,0.4959902890102503
1718208080723735882,0.0519422851612295,-0.1449793953329943,0.1627444425353774,0.7196049078890273,-0.4821468315161832,0.4681314549624314
1718208080724912764,0.0611943368031963,-0.130256892514878,0.1110442180428163,0.6348720290734696,-0.4096799503017926,0.4505676245929652
1718208080726122199,0.0345019227999647,-0.1154564776249006,0.142179004768101,0.7195339350960189,-0.4747030298476584,0.3974470583467255
1718208080727526474,-0.0178829289610598,-0.1508158940118278,0.1050107549837222,0.791309718820773,-0.5244599536558601,0.4369786477483261
1718208080727539027,-0.0220165557054018,-0.1253074988597433,0.0334230721670218,0.7126835939343431,-0.5774315042739786,0.1623378601593864
1718208080728669819,-0.048745534173703,-0.2124756044563859,0.148932504485413,1.0418301460765476,-0.5229523194052021,0.2591719571330313
1718208080729908541,-0.0817310908109543,-0.2366242573464002,0.1487452751046412,1.0930121614350965,-0.5319966704305603,0.3674352968846133
1718208080731129195,-0.050286183011621,-0.1863807149710873,0.1412569816256661,0.9798325877437648,-0.5553768605188077,0.2462559529577264
1718208080732387613,-0.0469277961297207,-0.1941222111725919,0.0885477153740636,0.9320735183010954,-0.5480921437721774,0.1400456092201998
1718208080732404694,0.0132596634639423,-0.1058309411350471,0.0124184845395191,0.6611290469309123,-0.4644282794627464,0.1134600943890134
1718208080733655908,0.0511681810995131,-0.1150753319322983,0.0958442362197407,0.8308069559822349,-0.4599487385627647,0.0272450512203557
1718208080734975535,0.0483446629984606,-0.0854945654360776,0.0729053567760137,0.7262880445279823,-0.5217643958685008,0.0679930957294886
1718208080736259425,-0.0086464195150736,-0.0896690986000967,0.0383862555980861,0.6152888505338813,-0.5416997762467732,0.1036845402673941
1718208080737565628,0.0675398610096859,-0.0709321593968194,0.0328193292405848,0.6040201599542385,-0.3874377971169357,0.0497351002153847
1718208080737577294,0.067522405242038,-0.1095878796258203,-0.0137603212065177,0.6641036814462742,-0.3942758487535461,-0.1018136237840746
1718208080738755290,0.0562635372740073,-0.1727599393756453,0.1383972836168767,0.975828948294284,-0.4057686027601623,-0.0588882027319784
1718208080739964288,0.0082318499275608,-0.2210606800370247,0.0624741672037374,0.942842038548554,-0.3723818135403406,0.1226386086479136
1718208080749004528,0.0366386151763584,-0.1961322068236232,0.0015601555410706,0.7700018037659297,-0.4015862745756539,0.0759701022567399
1718208080750791965,-0.0225014476992282,-0.1901048679356563,0.0471077984781864,0.8262532430295898,-0.4270735397043507,0.1143989959631066
1718208080750803667,0.0104009808148793,-0.1821647018013267,-0.0169202989274241,0.6886911000883741,-0.4219306426968955,0.0682458414831326
1718208080750833336,0.0389478525974952,-0.2474156252882256,0.040574714975575,0.9216217649527914,-0.3550304419290191,0.1087805897642516
1718208080750845798,0.0759807850644412,-0.2282930914368426,-0.050527186840037,0.713558368286795,-0.378815666598345,0.0077891394021318
1718208080750899321,0.0626778395211111,-0.1537485383443799,-0.1180645064608436,0.5237283137031229,-0.40917391306461,-0.0162044769408541
1718208080750912442,0.0401344281483765,-0.1750238898451566,-0.0695409063685583,0.6770630015008638,-0.3741478538081219,0.0365642048369651
1718208080750928513,0.0346548843613962,-0.1603717095992134,-0.0274749760701129,0.6834166389706782,-0.3729211168720648,-0.007089544941138
1718208080750936138,0.0621665621455966,-0.1421140650665013,0.0243229416629715,0.7210455142901677,-0.3730773619837181,0.102212949029299
1718208080750960494,0.0075131969423961,-0.1118402648904385,-0.0408649112179543,0.5234793652881653,-0.3565919152763465,0.2195229304769242
1718208080752307691,0.0773776650110358,-0.0194166441340643,-0.1778094853327824,0.1923216249577627,-0.4374807282256676,0.1076823389297476
1718208080752318492,0.0589841644162555,-0.0597394414458984,-0.0254211584951093,0.430817433521715,-0.390008891350403,0.1033607508308441
1718208080754088220,0.0371065704640619,-0.0280052731768811,-0.0992630350656567,0.2459700821504831,-0.4024139006173917,0.2656806355990033
1718208080754104135,0.0932413415739764,0.0395190374007345,-0.1582043430007341,0.0219259226129621,-0.4248388386682198,0.0810153764912104
1718208080755334804,0.0715291929820891,0.0314002780380017,-0.1649854286513316,-0.0030137334741449,-0.4062830621805683,0.0239059990075587
1718208080756592301,0.1041999651397603,0.1043282023833741,-0.2389916287673223,-0.2568289691136615,-0.4451005763406895,-0.0887397110454652
1718208080756603815,0.1384934531041938,0.0430400110898702,-0.1581212769640624,-0.0521162785165922,-0.4096071006185157,-0.1938035887516047
1718208080757868438,0.1631761955521264,0.0307328075294821,-0.0955093314679065,0.1129482918749296,-0.3665205537476079,-0.2755774633599477
1718208080759037077,0.0931600197880022,0.0428895932733636,-0.0956058933389312,0.1317604433526847,-0.3605875940740921,-0.0898451880878144
1718208080760255873,0.0800466279723839,0.0579688359536218,-0.1034558227204646,0.1284603622793462,-0.3744680244617367,-0.1867307545949818
1718208080761454262,0.0925740833678559,0.0367785904663178,-0.081813740497442,0.1758741436561025,-0.3174805870973105,-0.1591525479805769
1718208080761468862,0.0697080237539742,0.052300370226155,-0.0947847093511007,0.1429393220024645,-0.3121866132710306,-0.0969511262124255
1718208080762781027,0.0448168752754215,0.0351881816150703,-0.0688012344974411,0.1992043313491046,-0.2988563738905742,-0.1214482621786833
1718208080763947671,0.0371899308644843,0.0857269126687273,-0.1347687681805872,0.0414152745278385,-0.3175272827562378,-0.102100836800234
1718208080765131776,0.0782318194839786,0.0589244229490452,-0.0631622987866372,0.2705866607009899,-0.2957474987150889,-0.1682228195336479
1718208080766257534,0.0319053802021792,0.071318613801524,-0.0306856590144309,0.2743365801321236,-0.286522584247877,-0.0688989558948627
1718208080767860522,0.0492737034503157,0.012890891884618,-0.0007560202245189,0.409176135660757,-0.2207612763135447,-0.1292248386610286
1718208080767880689,0.0399823552526423,-0.0221180394565659,0.0686296379443925,0.5908234166623367,-0.2186625254071729,-0.1997811778385549
1718208080769121223,0.0257852640656434,-0.0280041427248729,0.0587442853134695,0.5700093676542571,-0.1961960703749923,-0.153724388189197
1718208080770308484,0.0639279247716617,-0.0414705812721927,0.133385181921303,0.7315387271077978,-0.1781086237817573,-0.3181692563643623
1718208080771562979,0.1296966789547366,-0.0816108740741171,0.1845796883281767,0.8765356515416383,-0.1516358919429838,-0.3080693272837024
1718208080771585614,0.1182805684423581,-0.0383791411527054,0.1493536703975823,0.7316671650943452,-0.1805840065783178,-0.3059136550511394
1718208080772797817,0.0701458461614726,-0.0067996541835207,0.1859733044202725,0.7023060288191865,-0.1837587312901899,-0.34875951045339
1718208080774423654,0.0768436382557741,-0.0012168216101105,0.1768743656453187,0.7314645001159694,-0.1752892518197832,-0.2811751508960523
1718208080774454047,0.12571339990577,0.0044293794713308,0.1424890015751157,0.6890241715662246,-0.1595713943047755,-0.3810100836394045
1718208080775668274,0.130805415823597,0.0009950340084962,0.2161972679480499,0.7576660409625942,-0.1349596681934194,-0.4404824275596976
1718208080776942976,0.0947803958905192,0.0222272267096666,0.1271770071581515,0.5502876060469019,-0.1734820822187686,-0.2882023018247522
1718208080778094060,0.0260929573973396,-0.0374737598128856,0.170177215447959,0.7098887815421805,-0.1234382411194494,-0.0899074201672137
1718208080779275049,0.0430737922421667,0.0013180026911444,0.1979579796260424,0.6837951684269413,-0.1235676587556832,-0.1698908186233179
1718208080780466872,0.0315505302620342,0.0443738341063839,0.1458680846197364,0.5240016994703948,-0.1721149451185501,-0.0999693255401745
1718208080780489973,0.0425414033039958,0.0856449316322322,0.0600112969759797,0.3192088187847865,-0.1841276870630346,-0.1168256909465246
1718208080781676567,0.0354420453338954,0.0646791179919857,0.0789406276763051,0.429881763655746,-0.1535609149046105,-0.0819153981027251
1718208080782920779,0.0408957145971453,0.0605908339339163,0.1871977184004809,0.5716634494666483,-0.1521308134549989,-0.0246608500556883
1718208080784151706,0.0579585532565796,0.0306099963496184,0.1180613863306869,0.542303672589141,-0.152256602476093,-0.0932200225320157
1718208080785342501,0.1008927403550509,0.0769442963314563,0.0989405255268684,0.4416039307306277,-0.161146748021121,-0.1843036993973185
1718208080786569893,0.0968512586277785,0.0911387949104312,0.0972433207340956,0.3638052644994773,-0.1587918156458538,-0.139398772266282
1718208080786581200,0.0830324395517924,0.056715441380473,0.1524347898038661,0.5313091423711717,-0.1463632039457285,-0.1096187895679216
1718208080787779405,0.0826529506927876,0.0632695052198676,0.1797061413218374,0.5112562319598474,-0.1411717377580504,-0.2260070673289393
1718208080789138931,0.0817568680259268,0.026679778292344,0.152887699730645,0.5407849628913904,-0.1281299304202938,-0.302675940389296
1718208080790156770,0.0360575605260016,0.0941038018043981,0.0823847829088551,0.2917795795463274,-0.1378522634779955,-0.1747755432217503
1718208080791450465,0.0500602169150454,0.1161328585653451,0.0193879156099316,0.1334940082637691,-0.1737082887612108,-0.2378344856135347
1718208080792562144,0.0730334716217973,0.0139059080716502,0.1007463878725462,0.4146545424187363,-0.0988201455283817,-0.1473197819847039
1718208080792575509,0.0976731183055943,0.031581809870934,0.0993302179132994,0.3385978441989777,-0.1084104862910411,-0.1860637402831373
1718208080793766576,0.0924275314061537,0.0192684363979724,0.1199053710995198,0.3437663525055965,-0.1128101977316662,-0.064197746449091
1718208080794953912,0.0966619934250151,0.0302481739008651,0.0613444240138317,0.3030413187947947,-0.1146038277944908,-0.0483297626663624
1718208080796166280,0.044669852924357,0.0583855166530636,0.0149777110842795,0.172514823658323,-0.1117854044119964,-0.0076835304900683
1718208080797392956,0.0539180011902208,0.0767386563325794,0.01475662079363,0.1514422788359191,-0.1547448016323808,-0.243214234947111
1718208080798609230,0.0703091300230396,0.1206443799731969,-0.0313301617469689,0.0049098248100358,-0.1599913608234996,-0.2467344918976014
1718208080798619844,0.0748087638360008,0.107039313150713,-0.0707041229771722,-0.0732250071407988,-0.1673008665444007,-0.0485010255023875
1718208080799840564,0.0910849352749225,0.1185695303437237,-0.0967428437314268,-0.1460190446938029,-0.1553270072119973,-0.1187352560590333
1718208080801015681,0.0710339594743749,0.2021302923372565,-0.1440387339291274,-0.3856049796136457,-0.1907843301155036,-0.1110226523714662
1718208080802216670,0.0821221482136925,0.1788682378894359,-0.0825285899217775,-0.269452714585656,-0.1814266961482707,-0.1292078576311153
1718208080803468474,0.0879959550649738,0.1551322487301331,-0.0578466943797692,-0.1751719208885344,-0.1588342961977155,-0.1852594967312882
1718208080803481676,0.0916912348497786,0.143322521875388,-0.0551774084737509,-0.155705130276324,-0.1477632295367288,-0.1780877009467362
1718208080804691978,0.0267177565021046,0.1035647507289922,0.0254716922533818,0.0097526591653693,-0.1186661117224887,-0.013557657121361
1718208080805892913,0.0568482713209455,0.1010535796187686,0.0419777496913549,0.1432155864652054,-0.1196286136807379,-0.0880736774847073
1718208080807132616,-0.0054627612191544,0.077755921367193,0.0050743542659814,0.0874977734249192,-0.2825091646083745,-0.0967018128865573
1718208080808311465,0.0551099178760537,0.070657410672081,-0.04230073345302,0.054496484408247,-0.2077817959110126,-0.1545715652520212
1718208080809512631,0.0691125902424992,0.0942693553336677,-0.0613468683851677,-0.0325707786261528,-0.2079429486623225,-0.1973990893352398
1718208080809526093,0.0875436975311803,0.0793629257973864,-0.0825802881120107,-0.0898295131516662,-0.1774324525378989,-0.2267257275348956
1718208080810721630,0.0729114966937232,0.0978324933148381,-0.1082188596862801,-0.1741086216212004,-0.1472800397937121,-0.1159952189943459
1718208080811992552,0.0763882814081964,0.0882585722162045,-0.1103144803840574,-0.2136171081466269,-0.1468832532368648,-0.1592063506737758
1718208080813188562,0.0497054549586314,0.0665117222738947,-0.0674666478052911,-0.1737600648390569,-0.1244572352184688,-0.1046859340469653
1718208080814447823,0.1014437499482397,0.0186340531838314,-0.0842270943299705,-0.0819491969094209,-0.1036321472344492,-0.2746160576392016
1718208080814462678,0.1248677121729035,-0.0033636132962556,-0.2100658743024926,-0.2657017420604174,-0.0825157513970181,-0.3362316277187266
1718208080815629804,0.1331488605040626,0.0076278020501718,-0.1853931069911592,-0.2606153980834722,-0.084657277161276,-0.295479321124445
1718208080816871671,0.1323555772774163,-0.0011621150402152,-0.1973624208351344,-0.3211368453355847,-0.0932629138359905,-0.2570734549915517
1718208080819038781,0.11353364148595,0.022982733248757,-0.2509747510660029,-0.4652273596069233,-0.0775713495501314,-0.1740045756730405
1718208080820766195,0.0729577532186221,0.0342262760474472,-0.2231667034716652,-0.442019663675331,-0.0899588256875009,-0.298004227400094
1718208080820781969,0.0924606702693857,0.0555969343111064,-0.2099724626337115,-0.5460697367947784,-0.1173889693682429,-0.3931676142167238
1718208080820790581,0.0963774028685012,0.0974765890761261,-0.2805095443670967,-0.7615285243655762,-0.1259925770366831,-0.3365327113868782
1718208080821942358,0.0824204625010198,0.0522824542173809,-0.1974521469407832,-0.5442579506865686,-0.1198718888331917,-0.4548315394210971
1718208080823053046,0.0559036257557999,-0.0481759069333027,-0.1080971422333315,-0.2068728404952523,-0.0487459414334811,-0.3448336124812981
1718208080824253328,0.1006594284969956,-0.0262757598460634,-0.1230658257116503,-0.2497763178097438,-0.042351281158673,-0.3404727373966337
1718208080825455771,0.0592722748095665,-0.0741020517432344,-0.087953811886421,-0.045178648907286,-0.1571099409542502,-0.3130044895296432
1718208080825467721,0.0515329956359525,-0.0036285515855694,-0.1930243948329296,-0.3065563651823919,-0.1772834142821801,-0.4282210677827707
1718208080826710145,0.1113196729022015,0.0027005722937602,-0.1461364491383283,-0.2454660306132306,-0.1230952162020161,-0.3907161797018202
1718208080827927563,0.0822761294038273,-0.0100807270448766,-0.0652829623627548,-0.1182034782922978,-0.0930356190491526,-0.3828525931235146
1718208080829190995,0.1247259305618823,0.077577789975053,-0.0410844248141778,-0.23840803443362,-0.1067444525162274,-0.5069415450311305
1718208080830396525,0.0918247327165089,0.1170602593856608,-0.0628019164393943,-0.3729732903439994,-0.1447962697734188,-0.4953152110674271
1718208080831646961,0.0593476671590758,0.1673852067024891,-0.112863280384686,-0.5342018152633303,-0.167141659914386,-0.5247566915782044
1718208080831664280,0.0566700169926984,0.1263316337395302,-0.0104406462715477,-0.2644950699400321,-0.097325655474629,-0.4644038350262832
1718208080833129034,0.0872840651307023,0.153128985374242,-0.0328513005414905,-0.3516819398367762,-0.110555989998265,-0.3805193734866836
1718208080834346640,0.0530711773990665,0.1471103069709404,-0.0174597710383267,-0.346586875069954,-0.1240745225852667,-0.5226583933228509
1718208080835605518,0.0624776996349918,0.1913898451211448,-0.0840305740425731,-0.4926883497264385,-0.1424129490233632,-0.542795557201145
1718208080835617304,0.0450733663832061,0.145384257033613,-0.0246573338881022,-0.2583365181305883,-0.089431486632964,-0.6476147391131734
1718208080837062925,-0.0195121791729841,0.1644668298819379,0.073669251833456,-0.1077717663197977,-0.0870447537694713,-0.6168907884749106
1718208080838052598,-0.0005473202344776,0.1940009238106195,0.0387987633436956,-0.1977367317301236,-0.0924000182140686,-0.7198910328552207
1718208080839271526,-0.023491272810947,0.2477122712117724,0.1037452893518687,-0.1660485219857895,-0.2632423151186435,-0.6555607826156237
1718208080840403458,-0.039839979312241,0.2744046715408026,0.1775722880713695,-0.1378156520337636,-0.2375359579585324,-0.6068845406575063
1718208080841612502,-0.0426985769772595,0.2671272755970086,0.1471871946504382,-0.185338439568624,-0.1967538088530065,-0.4653027261572617
1718208080858103622,-0.0730998403225774,0.2291256728157991,0.1539951701624687,-0.0415528915149851,-0.1538204668220147,-0.3478892137372029
1718208080860493665,-0.0296934667087258,0.2605960564760041,0.2217766222618946,0.0784909204963962,-0.0999483849388194,-0.3405239044688784
1718208080860507986,-0.0368432060919562,0.2292274440211275,0.2203628439817932,0.084292907270413,-0.0837924013499939,-0.3425054195565308
1718208080860515494,-0.047780824355684,0.2141084857022727,0.2948713415205352,0.218880403992138,-0.0952471375282806,-0.3317810358667603
1718208080860529025,-0.0545294935837885,0.1958217625516328,0.3045985371249091,0.2370633675099893,-0.0514071933658485,-0.2719751221671487
1718208080860569411,-0.0083551744456224,0.2024982433475513,0.3319886199240691,0.2758180300241192,-0.0603019227891218,-0.3586843893785326
1718208080860579789,-0.0188371482201606,0.1683033009005703,0.3178985455231257,0.3632679460339433,-0.0432637322724194,-0.3957611017544574
1718208080860604725,-0.0422271974512628,0.1559249810472731,0.3212713472621584,0.3458296189701666,-0.0366490321839171,-0.3085077199136796
1718208080860611456,-0.0407586027065438,0.1678413733377349,0.2545900890724552,0.216554341094049,-0.0697079603930172,-0.2099211959129706
1718208080860658707,-0.0350260607542999,0.1541979567529263,0.1653883592713795,0.1504079343081241,-0.0379219018061571,-0.1807021680801186
1718208080860682386,-0.0047330779364154,0.1267410704210118,0.2098531367641858,0.2231843472997152,-0.0349690241004498,-0.163478044933767
1718208080860691011,-0.0310699518059375,0.1481974533220309,0.1750579482824678,0.02405447444027,-0.0559782792102948,-0.1824699123965424
1718208080860703293,-0.023704320335213,0.1610562229365449,0.1081857469855027,-0.0725583410663309,-0.069266079624547,-0.1755898395041462
1718208080860730223,-0.0462106057016389,0.1788075458696586,0.0186931609326858,-0.2300137498459547,-0.0877405292896596,-0.022171375833907
1718208080860743650,-0.0521079174192402,0.1700782239579213,0.0150957670044926,-0.2320377099411263,-0.0903329278491478,0.0637352888254255
1718208080860757328,-0.0023525645615736,0.1485321116788646,-0.0066714900840516,-0.2395571075682858,-0.07753693868572,-0.0020924505108171
1718208080862171522,-0.0131469646059204,0.0665791183346549,0.0200235298014268,-0.0434618532894147,-0.0446004181718304,-0.0611761104565456
1718208080862178958,-0.0092589105212962,0.0986984274418428,-0.0984501471536469,-0.321996332318969,-0.0821672362889747,-0.1462954953969208
1718208080862201354,-0.008768860688315,0.0400235913250523,-0.0740739624717143,-0.1604116316868878,-0.0398005055546342,0.0652235000951275
1718208080862994833,0.0343753141976485,0.0837149655849414,-0.1563657201431232,-0.3690263892927166,-0.0615518728265394,-0.1493906351066509
1718208080864262414,0.0638532739658421,0.0814335900328463,-0.2236572956082417,-0.4211770923480686,-0.0791759191517058,-0.0365517299382923
1718208080865608633,0.0935537141462901,0.0665986681547533,-0.239341843071141,-0.4004286396497107,-0.0772712619971623,-0.0354035488293475
1718208080865620951,0.0630994851101298,-0.0353463092313631,-0.1494498765359209,-0.0496722450261191,-0.0067714889252898,0.1027888594995448
1718208080866824116,0.0645048747220126,-0.0771701511081988,-0.144353971994362,0.0652886277856691,0.038687347494038,0.0217101415974055
1718208080868461520,0.0680535904055249,-0.1142179524925929,-0.1108308295382146,0.210367629195975,0.0482382995365075,-0.0088212596242572
1718208080870702299,0.0336816747186166,-0.1358361918941726,-0.1192441486452319,0.2219790622504093,0.0583835779120705,-0.0590969943227163
1718208080870809170,0.1022049334464721,-0.0846446817091965,-0.1921279609388814,-0.0178694102331125,0.0183789323329095,-0.2414493449257503
1718208080871988488,0.177502189125527,-0.0791737058137523,-0.1830244865322895,0.0167316138317514,0.0295869125139734,-0.2194476943485601
1718208080872003093,0.143473190967846,-0.1405375829481628,-0.0684354656644666,0.2802851578131249,0.0704669227557868,-0.117953798423285
1718208080873214746,0.1137916251824606,-0.1767801380848269,-0.0983280001389934,0.377404339762072,-0.0443013485163648,-0.1012661638377994
1718208080874457546,0.1515529937350249,-0.2219195054194452,-0.0366308283163974,0.5771132572913713,0.0209427366027092,-0.0179678708727273
1718208080875793430,0.2236190012000259,-0.1369559924056344,-0.1288286737048794,0.3064318891050508,0.0219044992608962,-0.3029610705029735
1718208080875807531,0.2108154450950228,-0.133796577342992,-0.1139784996394897,0.3032224963152232,0.0320875232958361,-0.1607245807781902
1718208080877086211,0.2189986476044913,-0.2066306798927986,-0.0822623559297261,0.4666594979641504,0.0914953078527336,-0.2806122826004391
1718208080878219315,0.2039147079328102,-0.1382398733306392,-0.1275088310808275,0.3200531324407266,0.0591345049327778,-0.1016762589446061
1718208080879456442,0.1433949551506473,-0.1648819271809298,-0.0585307862007712,0.432682764118883,0.0768802826580406,0.075264374788937
1718208080880689788,0.1193711912402343,-0.1691707380141148,-0.1121446878446365,0.4388510099531399,-0.0836859973433217,0.0205860875838247
1718208080880697431,0.1798166225403732,-0.1816931450125721,-0.0785239586884589,0.5576846510775104,0.0171185778594084,0.1101534750687117
1718208080881845675,0.1439954584491449,-0.2466081954381326,-0.1158616697689846,0.6782324496994685,0.0562385119064734,0.1250117363119001
1718208080883118440,0.2495086218363752,-0.2186745165637723,-0.0998960227175561,0.6550064002037299,0.0915676775279598,-0.0206198811889895
1718208080884268865,0.2280896446429177,-0.1328549585883857,-0.2207044960236645,0.2974736262275402,0.0523635366174144,0.0512046510335773
1718208080885430530,0.2636904625558602,-0.1549337180688504,-0.1836611892857084,0.3724677727067165,0.0920882170557601,0.0051100018449489
1718208080886665834,0.3235643450537026,-0.134114590445481,-0.097943416730721,0.5481461880869765,0.1032964244892567,-0.0996258986145725
1718208080886676638,0.3398754451708293,-0.1221629508064729,-0.0671846138554312,0.50392258171054,0.1161741940609832,-0.0859350169189337
1718208080887812282,0.357901592588967,-0.0935760798634624,-0.1179062199193753,0.4171576977997396,0.1193702082582572,-0.0488118158749833
1718208080888989748,0.3342015689268391,-0.1156086379549734,-0.1010248106688063,0.4505396226711374,0.0975594243867421,0.0680170392620574
1718208080890205603,0.2926233801228595,-0.1588433427873233,-0.0419109712740515,0.582909743554552,0.1322304398718211,0.022949658498458
1718208080891455303,0.3334949252884354,-0.1269927832900724,-0.0673757722507317,0.5366120641007329,0.144089262665392,0.0684797606045933
1718208080891464817,0.2825130158740799,-0.0668319771365526,-0.1153345479513874,0.4155681795481474,0.0830818416951189,0.12298611706512
1718208080892646125,0.3816873925409481,-0.0477664695124759,-0.0647334923858171,0.4026953018488639,0.0839693459497768,-0.0378649923430974
1718208080893878281,0.2213028554722948,-0.0877599106220128,-0.0849418530348267,0.4251025311190247,-0.0597107947157037,0.1304006113765697
1718208080895197981,0.2232439740743697,-0.0577955762344817,-0.1008194592020801,0.2853644955428178,-0.0448504664055604,0.2199883549148388
1718208080896641969,0.2622883034230382,-0.0780601531209989,-0.1062643552842641,0.2884854140116878,0.0082977523561324,0.0954258868007274
1718208080897831500,0.245275649225539,-0.010243483968695,-0.2004678686286525,0.0033468431894494,0.0033097099818677,0.3302804497847877
1718208080897843131,0.2927530309493603,0.0188434892437925,-0.2127117947098435,-0.0593537856626558,-0.1743808249316969,0.0153464493633673
1718208080898982811,0.2741934960469017,0.0382714949080002,-0.1587131457826576,-0.0138978041921324,-0.0957656258480716,0.167892852820164
1718208080900478279,0.1660251585452604,0.0082313922611386,-0.0969542441826356,0.0709975630241883,-0.2200251618966235,0.3967526387863483
1718208080901347774,0.2136571513185007,0.0336797983371623,-0.1051672768851475,-0.0045142785747239,-0.1283272343514078,0.2751477163817948
1718208080902711612,0.2137447189230959,0.0632892017469077,-0.1294195580441964,-0.098420691133788,-0.1067492289989971,0.1592850178596428
1718208080902723945,0.1565673622363098,-0.0067256050346703,-0.0919796829109031,0.097627062222886,-0.2021440160978425,0.1392353591129833
1718208080903864007,0.1796768805447037,0.027023730438905,-0.0736412330676837,0.0737868550947118,-0.29949944027586,0.1161736091519054
1718208080905078034,0.2348041588468099,-0.0112418513198704,-0.0424885794992666,0.2102800865063347,-0.1545613831141339,0.2012757031178196
1718208080906272430,0.1268951383608842,0.0673571804200243,-0.0760389461780743,-0.0425779311230578,-0.2846219013431994,0.4033752751489262
