%time,field.force.x,field.force.y,field.force.z,field.torque.x,field.torque.y,field.torque.z
1718277695127318176,0.6428634290000286,0.697035902000012,12.180254360000095,1.0191332559999988,-1.6130757500000008,0.0001989909999999
1718277695128518065,0.6074234290000287,0.6807569020000119,12.170063360000096,1.0289112559999989,-1.6206097500000003,-0.007770009
1718277695129772662,0.5936794290000289,0.6916159020000119,12.175024360000094,1.0365662559999989,-1.6237647500000008,-0.015452009
1718277695130989979,0.5936884290000288,0.6866919020000118,12.190399360000097,1.0365092559999989,-1.6232537500000008,-0.015315009
1718277695132235282,0.6179644290000291,0.7285899020000117,12.185377960000096,1.047799255999999,-1.6235067500000009,-0.030007009
1718277695132252790,0.6345214290000287,0.7471509020000123,12.182820960000097,1.0528602559999989,-1.6219767500000006,-0.037280009
1718277695133462758,0.6640634290000291,0.763442902000012,12.165887960000097,1.0567692559999988,-1.6184487500000009,-0.043884009
1718277695135318833,0.6810914290000292,0.758535902000012,12.1813089600001,1.0564642559999988,-1.617009750000001,-0.043744009
1718277695136619267,0.7231314290000287,0.771261902000012,12.120026960000098,1.0653762559999989,-1.6077127500000006,-0.055201009
1718277695136636675,0.7314584290000287,0.7507269020000122,12.090412960000096,1.0697462559999988,-1.6028737500000008,-0.060198009
1718277695138047679,0.7355774290000289,0.7327959020000123,12.070258960000098,1.073272255999999,-1.5984917500000009,-0.063872009
1718277695139313619,0.7397614290000292,0.7100479020000121,12.014188960000094,1.076509255999999,-1.5934717500000006,-0.066217009
1718277695139329622,0.7525564290000287,0.6922579020000118,11.990595960000096,1.0786912559999988,-1.5864197500000006,-0.067087007
1718277695140563688,0.757180429000029,0.6698099020000124,11.959785960000096,1.0795102559999987,-1.5779897500000004,-0.067426007
1718277695141835161,0.7575084290000289,0.6498049020000121,11.922866960000094,1.0803612559999989,-1.5697657460000007,-0.066836007
1718277695143061500,0.7448854290000286,0.642016902000012,11.910422960000098,1.0813792559999988,-1.563678750000001,-0.065190007
1718277695144285424,0.7405144290000286,0.639459902000012,11.887653360000098,1.082231255999999,-1.564382750000001,-0.065324007
1718277695144293645,0.719717429000029,0.6518329020000118,11.861577360000096,1.080640255999999,-1.559848750000001,-0.062241007
1718277695145487570,0.7119164290000288,0.6622189020000124,11.866948360000094,1.0765892559999988,-1.5555877500000008,-0.058113007
1718277695148748967,0.6192494290000292,0.6483109020000124,11.874817360000094,1.0696772559999987,-1.5465027500000006,-0.037331007
1718277695149740450,0.6410114290000292,0.6855589020000123,11.865276360000095,1.0667972559999988,-1.5451557460000007,-0.038139007
1718277695149746186,0.6583174190000292,0.7103269020000125,11.856894410000097,1.0650892559999987,-1.5437467460000005,-0.038408009
1718277695150909600,0.6368934290000293,0.7037729020000123,11.877347360000098,1.060813265999999,-1.546903750000001,-0.024885007
1718277695162310895,0.6497364290000294,0.7161359020000122,11.863113360000098,1.0600562659999988,-1.546063750000001,-0.024220007
1718277695164260077,0.6326754290000292,0.7166389020000123,11.865629360000096,1.0576422659999989,-1.5487657500000007,-0.017468007
1718277695164357558,0.6239704290000292,0.7169809020000122,11.867178360000098,1.056095265999999,-1.5515727500000007,-0.011510007
1718277695164372579,0.6151784290000288,0.7124299020000122,11.853226360000097,1.054926265999999,-1.5556357500000006,-0.005825007
1718277695164381076,0.623362429000029,0.7227339020000118,11.853750360000095,1.0530332659999988,-1.5609317500000008,-0.000554007
1718277695164391498,0.6320184290000286,0.7482689020000123,11.845904360000096,1.048467265999999,-1.5661087500000006,0.0047009929999999
1718277695164407089,0.6624404290000286,0.8011119020000121,11.851157360000098,1.0413452659999989,-1.5684147500000007,0.0090279929999999
1718277695164429190,0.7063574290000288,0.8717289020000116,11.853745360000095,1.0306872659999988,-1.5682307500000006,0.0122829929999999
1718277695164444305,0.7505364290000288,0.9522939020000124,11.8549753600001,1.019053265999999,-1.5669177500000009,0.0148759929999999
1718277695164466700,0.8074594290000287,1.0354995020000115,11.846879410000094,1.006994270999999,-1.5675257500000008,0.0163839929999999
1718277695164481055,0.8474404290000289,1.1089255020000124,11.830879410000094,0.9950652709999988,-1.5685437500000008,0.0177589929999999
1718277695164495938,0.883282429000029,1.170044502000012,11.791704360000097,0.9834322659999988,-1.5679787200000008,0.0188769929999999
1718277695164510449,0.9193984290000292,1.226314502000012,11.766414360000097,0.9710872659999988,-1.5650067200000006,0.0193429929999999
1718277695164523549,0.9346224290000292,1.2851924730000122,11.740228360000096,0.9577142659999988,-1.5606357200000007,0.0195489929999999
1718277695165796385,0.9497024290000288,1.3391025020000122,11.713792360000095,0.9449402659999988,-1.5573977200000009,0.0194839929999999
1718277695166988110,0.9687304290000288,1.380510502000012,11.688642360000095,0.933544265999999,-1.5545797200000009,0.0199559929999999
1718277695168171145,0.9789904290000288,1.392104502000012,11.627389360000096,0.9244292559999988,-1.5506207200000006,0.0212459929999999
1718277695169469606,0.9974734290000292,1.3884365020000122,11.597774360000097,0.9173182559999988,-1.5434767200000008,0.0229709929999999
1718277695169477464,1.015994429000029,1.389469902000012,11.568085960000095,0.9107032559999988,-1.5340697200000009,0.0245849929999999
1718277695170622216,1.0471854290000286,1.383130902000012,11.539157960000097,0.9041962559999988,-1.5244327200000007,0.0265969929999999
1718277695171762504,1.078196429000029,1.386583902000012,11.526330960000095,0.8978072559999988,-1.5165757200000003,0.0291319929999999
1718277695173020208,1.1132944290000288,1.3727749020000122,11.514780960000095,0.8920782559999989,-1.5087537200000007,0.0323349929999999
1718277695174205759,1.144134429000029,1.3611899020000118,11.503613960000097,0.8870422559999989,-1.4989937200000008,0.0356899929999999
1718277695175445079,1.1834304290000293,1.344574902000012,11.507364960000096,0.882374255999999,-1.4880717200000009,0.0387889929999999
1718277695175458233,1.209766429000029,1.3155659020000123,11.489443960000097,0.8788912559999988,-1.4784967200000008,0.0424189929999999
1718277695176604149,1.2187274290000292,1.2865149020000122,11.487520960000095,0.8763132559999989,-1.4735137200000006,0.046423993
1718277695177788332,1.2185584290000286,1.257142902000012,11.495089960000096,0.8759392559999989,-1.472729720000001,0.0512159929999999
1718277695178987626,1.2054514290000289,1.2249399020000118,11.479506960000094,0.8775282559999988,-1.4714137200000008,0.0554909929999999
1718277695180224906,1.1925944290000294,1.1929329020000117,11.484448960000096,0.8780302559999988,-1.4697117200000007,0.0585659909999999
1718277695181504152,1.1883604290000287,1.1856969020000117,11.474141960000097,0.8772752559999988,-1.4690237200000007,0.061757991
1718277695181527585,1.1843304290000292,1.2081919020000125,11.493059960000098,0.8746882559999989,-1.4696297200000008,0.064533991
1718277695183238772,1.1764324290000283,1.253145902000012,11.494932960000096,0.8701812559999988,-1.4707057200000009,0.0664949929999999
1718277695184463312,1.1937694290000294,1.302677902000012,11.526840960000095,0.8667932559999989,-1.4707157200000007,0.067940991
1718277695184488438,1.2069744290000293,1.3497019020000125,11.542720960000096,0.8636022559999988,-1.4692817200000006,0.068863993
1718277695185623772,1.2118064290000292,1.3918019020000116,11.556225960000097,0.8605922559999988,-1.4673567200000006,0.068327991
1718277695186832187,1.216483429000029,1.438674902000012,11.576689960000095,0.858301255999999,-1.4663227200000009,0.0672599909999999
1718277695188953727,1.2123914290000286,1.465704902000012,11.604693960000096,0.8575472559999988,-1.4664267200000007,0.065928991
1718277695190282301,1.207894429000029,1.472685902000012,11.610244960000095,0.8594032559999989,-1.4668937200000007,0.064343993
1718277695190295508,1.1990074290000292,1.4670809020000122,11.598747960000097,0.8630962559999988,-1.4666637200000008,0.0613099929999999
1718277695191546800,1.181681429000029,1.446585902000012,11.593679960000095,0.8675082559999989,-1.4645467200000006,0.0574959909999999
1718277695191578935,1.1726434290000287,1.430668902000012,11.611579960000094,0.8730632559999989,-1.4614097200000007,0.0535669909999999
1718277695192678057,1.1509024290000291,1.4074219020000118,11.621188960000095,0.8787722559999988,-1.4587367200000003,0.0492349909999999
1718277695193866438,1.150368429000029,1.3963839020000122,11.645263960000095,0.884378255999999,-1.455455720000001,0.0443739909999999
1718277695195095930,1.141519429000029,1.3852559020000124,11.668623960000096,0.8899982559999988,-1.4497977200000007,0.0391329909999999
1718277695196327159,1.132795429000029,1.3740919020000124,11.706455360000096,0.895404255999999,-1.4424997200000007,0.0335039909999999
1718277695197585801,1.132617429000029,1.362929902000012,11.758818360000095,0.9005802559999989,-1.4344197200000008,0.0274789909999999
1718277695197600460,1.1281224290000291,1.3444259020000122,11.804878360000096,0.9058902559999988,-1.4269117200000008,0.0222499929999999
1718277695198805617,1.0980474290000288,1.306294902000012,11.850512360000096,0.9118852559999988,-1.4213387200000007,0.0167459929999999
1718277695199996613,1.059137429000029,1.2679039020000118,11.866886360000098,0.9196422559999988,-1.4174367200000006,0.0116399929999999
1718277695201213250,1.0115174290000293,1.214598902000012,11.891761360000098,0.928552255999999,-1.4139227200000009,0.0069389929999999
1718277695202474652,0.9680904290000292,1.158913502000012,11.894950360000095,0.937418255999999,-1.4112137200000008,0.0028949929999999
1718277695203696124,0.941746429000029,1.1182285020000122,11.921232360000095,0.9446802559999988,-1.4094857200000008,-0.000767007
1718277695203706154,0.928359429000029,1.0950405020000125,11.926458360000096,0.9501462559999988,-1.4075507200000008,-0.003111007
1718277695204856353,0.9152284290000288,1.0867745020000117,11.924345360000098,0.954250255999999,-1.4047477200000007,-0.005057009
1718277695206037445,0.9148574290000292,1.090920502000012,11.931360410000096,0.9573812559999988,-1.4022427200000007,-0.005948009
1718277695207373527,0.910310429000029,1.092839502000012,11.932200360000095,0.9596072659999988,-1.4006897200000008,-0.005789009
1718277695207384771,0.9100914290000294,1.1023305020000125,11.926474360000096,0.9608142659999988,-1.3998267200000007,-0.004842007
1718277695208537791,0.9183484290000292,1.1168205020000124,11.929943360000095,0.9614042659999988,-1.3992017200000006,-0.002837009
1718277695209780361,0.9181844290000294,1.121620502000012,11.934891360000096,0.9614482659999988,-1.3984587200000007,0.0002299909999999
1718277695211001971,0.9136774290000292,1.133772502000012,11.933542360000096,0.961583265999999,-1.3986867200000006,0.0040889909999999
1718277695212226972,0.913273429000029,1.1386415020000118,11.918360360000095,0.961835270999999,-1.4005987200000007,0.0087339909999999
1718277695214075091,0.9087624290000288,1.1510609020000118,11.903504360000095,0.961086270999999,-1.4028427200000009,0.0137689909999999
1718277695214105988,0.9001154290000288,1.1661329020000122,11.904349960000095,0.9592792709999988,-1.4056677200000007,0.0193269909999999
1718277695218892408,0.8744164290000291,1.1713829020000122,11.898645960000096,0.9578162659999988,-1.4092837200000008,0.0255479909999999
1718277695220238545,0.844366429000029,1.1742209020000125,11.892760960000096,0.956552270999999,-1.4147377200000009,0.0316239909999999
1718277695220264088,0.809875429000029,1.159739902000012,11.886944960000095,0.9564042709999988,-1.4208787200000008,0.0375689909999999
1718277695220275128,0.7880344290000294,1.147606902000012,11.887880960000096,0.9567072659999988,-1.4269267200000006,0.0428529909999999
1718277695220284840,0.7622814290000293,1.138127902000012,11.887969960000095,0.9557322709999988,-1.431406720000001,0.0478719909999999
1718277695220297505,0.7494344290000288,1.1313269020000123,11.903167960000095,0.953453270999999,-1.4355347200000008,0.0530189909999999
1718277695221167742,0.7494034290000293,1.1221229020000123,11.924466960000094,0.950910265999999,-1.439182720000001,0.0572339909999999
1718277695222336437,0.7619154290000291,1.110175502000012,11.952963960000098,0.949633265999999,-1.4419767200000009,0.060931991
1718277695222351893,0.7786374290000289,1.081019502000012,11.971934960000096,0.949026265999999,-1.4450527200000007,0.063297991
1718277695223589418,0.7909064290000293,1.0443065020000115,11.990592960000097,0.9496542659999988,-1.4488277200000006,0.065268991
1718277695224775837,0.7946164290000293,0.992789902000012,12.015693960000096,0.9510022659999988,-1.4529857200000007,0.066443991
1718277695225982904,0.7980654290000287,0.931205902000012,12.055534960000095,0.9537722709999988,-1.4577667200000008,0.0670929909999999
1718277695227224825,0.8056804290000287,0.8524039020000117,12.048017960000095,0.9576422659999988,-1.4633327200000008,0.066407991
1718277695228799042,0.8257684290000292,0.7806719020000118,12.070036960000095,0.962684265999999,-1.4691957200000008,0.064931991
1718277695228810175,0.8506504290000292,0.721724902000012,12.068297960000098,0.9650142659999988,-1.4739777200000008,0.063309991
1718277695229941974,0.8762204290000288,0.7073869020000123,12.087077960000098,0.9639342559999988,-1.4765307200000009,0.0608869909999999
1718277695231181891,0.9193414290000292,0.7231259020000116,12.096129960000097,0.959456255999999,-1.4791867200000006,0.0576419929999999
1718277695232329682,0.9586484290000288,0.7515949020000119,12.118758960000095,0.9525072659999988,-1.4820487200000008,0.053848993
1718277695233537586,0.9940084290000286,0.797415902000012,12.131740960000094,0.944460265999999,-1.4843677200000007,0.0489879929999999
1718277695233548695,1.0251914290000297,0.8457079020000122,12.130306960000096,0.9362262659999988,-1.4860087200000007,0.0446619929999999
1718277695234822307,1.0394564290000288,0.8990229020000122,12.113896960000096,0.9276372659999989,-1.4887077200000007,0.0405929929999999
1718277695236012756,1.0321484290000291,0.9594809020000123,12.083878960000098,0.920480265999999,-1.4939397200000006,0.0373159929999999
1718277695237194744,1.0118884290000294,0.9928759020000116,12.054899960000094,0.9143352659999988,-1.500500720000001,0.0345679929999999
1718277695238416595,0.9787384290000292,1.0088339020000126,12.019680960000096,0.9095352659999988,-1.5060077200000008,0.0325019929999999
1718277695238431891,0.9411154290000292,1.0269409020000122,11.964193960000095,0.9060762659999988,-1.5107177200000006,0.0317799929999999
1718277695240064478,0.9075474290000288,1.042500902000012,11.941518960000096,0.9027982659999988,-1.5156077200000009,0.0325239929999999
1718277695241269004,0.8825104290000286,1.0580849020000118,11.9118839600001,0.8992832659999989,-1.5197187200000006,0.0336689929999999
1718277695242578143,0.8743914290000288,1.078413902000012,11.877206960000096,0.8960092709999988,-1.5216497200000003,0.0362939929999999
1718277695242607937,0.874552429000029,1.0885589020000124,11.875006960000096,0.8939182709999989,-1.5211597200000009,0.0400089929999999
1718277695243700300,0.8746324290000289,1.1034599020000122,11.859481960000096,0.8923142709999988,-1.519669720000001,0.0447979929999999
1718277695244903702,0.8704484290000294,1.111101902000012,11.838165960000095,0.8904052709999989,-1.5187507200000008,0.0507779929999999
1718277695246111252,0.8745844290000293,1.1185239020000122,11.841163960000095,0.8891392709999989,-1.5168067200000006,0.0575699929999999
1718277695247356520,0.8827404290000286,1.098663902000012,11.844857960000096,0.8895132709999989,-1.5137497200000003,0.064510993
1718277695248548398,0.886346429000029,1.080884902000012,11.825913960000095,0.8918932709999988,-1.5110307200000008,0.071195991
1718277695248553556,0.8684184290000291,1.0456799020000118,11.807121960000094,0.896077270999999,-1.5099297200000006,0.077748991
1718277695249791146,0.8460634290000292,1.0128679020000122,11.789307960000096,0.9007332659999988,-1.510296720000001,0.0848289909999999
1718277695251050348,0.8195024290000286,0.987370902000012,11.793568960000096,0.9052702659999988,-1.5102407200000008,0.091514991
1718277695252229461,0.7891484290000288,0.9794179020000116,11.764565960000096,0.9080512659999987,-1.5100187200000008,0.096724991
1718277695253468395,0.7675864290000289,0.981579902000012,11.755569960000097,0.909191265999999,-1.5099027200000006,0.100461991
1718277695253484114,0.7546974290000287,1.0034799020000116,11.729135360000098,0.9096792659999988,-1.5096567200000008,0.102861991
1718277695254479266,0.7549084290000292,1.042709902000012,11.707640360000095,0.9088252659999988,-1.5074357200000008,0.103804991
1718277695255760020,0.7597574290000291,1.0847019020000124,11.675775360000095,0.9064662659999988,-1.5043757200000007,0.103277991
1718277695256952462,0.7650124290000294,1.151613902000012,11.655500360000094,0.9020002709999988,-1.5019657200000007,0.100871991
1718277695258158774,0.7578454290000286,1.2262429020000118,11.610657360000095,0.8961112659999989,-1.500535720000001,0.097650991
1718277695259471374,0.7634144290000288,1.288674502000012,11.564197360000096,0.890278265999999,-1.4996197200000008,0.0933589909999999
1718277695259484127,0.7686654290000294,1.340882502000012,11.525076360000098,0.8865222659999988,-1.4984477200000008,0.088551991
1718277695260703166,0.7739764290000287,1.3782535020000115,11.446308360000096,0.8836862659999989,-1.4958667200000006,0.082558991
1718277695261912345,0.7877494290000289,1.405736502000012,11.375058360000097,0.8811572659999988,-1.4923687200000006,0.0764399909999999
1718277695263037142,0.7887744290000287,1.440510502000012,11.318941410000097,0.8787402659999988,-1.4889787200000006,0.070323991
1718277695265024785,0.7980334290000289,1.4752095020000122,11.256778360000094,0.8769612659999989,-1.4870847200000006,0.0649989909999999
1718277695265069625,0.815477429000029,1.494813502000012,11.210372360000097,0.8769672659999987,-1.484400720000001,0.0596919929999999
1718277695265934112,0.8454634290000292,1.4968915020000122,11.149148360000098,0.8787152659999989,-1.4797107200000008,0.0542739909999999
1718277695267199150,0.8839054290000291,1.4938425020000123,11.103542360000096,0.8810482659999989,-1.4727247200000009,0.0490079909999999
1718277695268557205,0.9225364290000287,1.495899502000012,11.059278960000098,0.882122265999999,-1.4649857200000007,0.0448049909999999
1718277695268575210,0.9485764290000288,1.505636502000012,11.068823960000095,0.881337265999999,-1.4587367200000008,0.0413829909999999
1718277695269775405,0.9745014290000288,1.5056594720000125,11.080042960000098,0.8804302659999989,-1.4539917200000008,0.0390129909999999
1718277695270798850,0.9957254290000292,1.488055472000012,11.070290960000095,0.8821672659999988,-1.4495627200000003,0.0373229909999999
1718277695271997540,0.995297429000029,1.438166472000012,11.062164960000096,0.8864032659999989,-1.4459807200000008,0.0363079909999999
1718277695273125889,0.9903704290000296,1.380874502000012,11.056107960000098,0.891211265999999,-1.4442347200000007,0.0364819909999999
1718277695274378433,0.9684874290000288,1.328812502000012,11.051937960000098,0.8947862659999988,-1.4453147200000007,0.0380939909999999
1718277695274388996,0.9384354290000294,1.296941502000012,11.056208960000095,0.8955382659999988,-1.4483257200000008,0.0407399909999999
1718277695275614272,0.9211244290000292,1.267695502000012,11.069414960000096,0.8954202659999988,-1.4519997200000008,0.0443059909999999
1718277695276829812,0.9080714290000286,1.2360025020000125,11.075471960000094,0.8952622659999988,-1.4552187200000009,0.0481399909999999
1718277695278039269,0.9075904290000292,1.2261865020000122,11.076117960000095,0.895559265999999,-1.4577437200000007,0.0531789909999999
1718277695279276869,0.9118374290000294,1.229143502000012,11.084598960000095,0.8929262659999989,-1.4593177200000007,0.0588729909999999
1718277695280509055,0.9251184290000288,1.2719255020000122,11.108770360000095,0.8865822659999988,-1.4601507200000008,0.065479991
1718277695280518472,0.9473024290000288,1.334916502000012,11.124380360000098,0.8773922659999988,-1.4621097200000008,0.071925991
1718277695281717743,0.982123429000029,1.400364502000012,11.147899360000096,0.8682112659999988,-1.4647337200000008,0.0785009909999999
1718277695282992117,1.012697429000029,1.443714502000012,11.156933360000098,0.8594262659999988,-1.4666477200000003,0.0854799909999999
1718277695284176487,1.051414429000029,1.481683502000012,11.144147360000096,0.8529742659999988,-1.4675327200000008,0.092611991
1718277695285577728,1.077552429000029,1.5173565020000122,11.130854360000097,0.845857265999999,-1.4686337200000008,0.099605991
1718277695285584737,1.1081314290000286,1.570526502000012,11.139442360000094,0.8369722659999989,-1.4709387200000008,0.106315991
1718277695286820620,1.1135524290000292,1.619112502000012,11.123661360000096,0.8269752659999988,-1.4740527200000006,0.112347991
1718277695288120099,1.127511429000029,1.662750502000012,11.106902360000095,0.817127265999999,-1.4761267200000006,0.117720991
1718277695289326216,1.1370954290000292,1.693851502000012,11.096387360000096,0.808679265999999,-1.4775067200000007,0.122043991
1718277695289335627,1.142563429000029,1.717592502000012,11.092110360000095,0.8001552659999989,-1.4778117200000007,0.125575991
1718277695291014913,1.144078429000029,1.739073502000012,11.101148360000096,0.7905202659999988,-1.4771737200000008,0.128176991
1718277695292240252,1.1415874290000292,1.7534285020000122,11.108576410000095,0.7799312659999988,-1.4764667200000008,0.129973991
1718277695293504305,1.1220234290000286,1.7675635020000122,11.123738360000097,0.7702492659999989,-1.4753037200000003,0.131781991
1718277695293518817,1.0980024290000283,1.764298502000012,11.146624360000096,0.7619032659999988,-1.4741987200000009,0.133464991
1718277695294748712,1.052613429000029,1.733807902000012,11.168109360000097,0.7552482659999988,-1.4731807200000009,0.134094991
1718277695295974553,0.9985954290000292,1.698356902000012,11.182335360000096,0.7492032659999989,-1.4734427200000006,0.1348539909999999
1718277695297142637,0.935929429000029,1.662775902000012,11.218840360000096,0.7438372709999989,-1.4747397200000003,0.135212991
1718277695298377056,0.8774644290000292,1.634590902000012,11.248397960000098,0.7383282709999989,-1.4767297200000007,0.1359649909999999
1718277695298393168,0.8232614290000287,1.5989959020000122,11.292553960000095,0.7329482709999989,-1.4778777200000008,0.136324991
1718277695299632599,0.7860174290000291,1.587716902000012,11.3371459600001,0.7278312709999989,-1.4769977200000006,0.136833991
1718277695300863306,0.7530844290000286,1.583948902000012,11.375237960000096,0.7219142659999989,-1.4764287200000008,0.1381339909999999
1718277695302125055,0.737049429000029,1.590105902000012,11.452060960000098,0.7152132659999989,-1.4770897200000006,0.139953991
1718277695303357893,0.7253874290000291,1.6037959020000123,11.506550960000098,0.7077102659999989,-1.4778097200000009,0.142165991
1718277695304584957,0.717733429000029,1.599920902000012,11.576537960000095,0.7019712659999989,-1.4769267200000007,0.1442679909999999
1718277695304597904,0.7053614290000289,1.5882119020000118,11.633343960000095,0.6987732659999989,-1.4764987200000006,0.1471799909999999
1718277695305807337,0.6881834290000287,1.5737109020000122,11.691848960000096,0.697741265999999,-1.4790557200000007,0.150752991
1718277695307027718,0.6750184290000292,1.566642902000012,11.737172960000096,0.696783265999999,-1.4844517200000007,0.155503991
1718277695308239906,0.6533734290000293,1.5547039020000122,11.775679960000094,0.6957772659999989,-1.4899907200000009,0.160784991
1718277695309476455,0.6401674290000291,1.5475269020000122,11.836894960000096,0.695038265999999,-1.4945067200000006,0.165942991
1718277695309484618,0.6310424290000292,1.552351902000012,11.860981960000098,0.6955272659999988,-1.4984647200000007,0.1713769909999999
1718277695310664216,0.6302654290000292,1.5473239020000118,11.892017960000096,0.6965462659999989,-1.5033977200000006,0.176273991
1718277695311891284,0.6293674290000291,1.561824902000012,11.893913960000097,0.6980102659999988,-1.5089897200000006,0.181834991
1718277695313055645,0.6329054290000289,1.5788369020000124,11.925524960000097,0.6986252659999989,-1.5128677200000007,0.187137991
1718277695314264809,0.6238674290000293,1.603287502000012,11.933530960000096,0.6989112659999989,-1.5165957200000009,0.192040991
1718277695315541054,0.6275674290000295,1.635118502000012,11.947902960000098,0.699049265999999,-1.520613720000001,0.196141991
1718277695315554751,0.6143184290000294,1.6620515020000122,11.954179960000095,0.6993752659999989,-1.5250477200000008,0.199975991
1718277695316732740,0.5970174290000286,1.6914875020000122,11.942827960000097,0.6995242659999988,-1.528796720000001,0.2023489909999999
1718277695321101978,0.5714294290000291,1.711144502000012,11.951936960000095,0.6993602659999989,-1.5312887200000007,0.2033989909999999
1718277695322996205,0.5331204290000294,1.728236502000012,11.952045960000095,0.6998482659999989,-1.5334967200000005,0.203525991
1718277695323025978,0.4987934290000293,1.7228715020000125,11.943913960000096,0.7024772659999989,-1.5348497200000006,0.202871991
1718277695323039697,0.4515854290000294,1.6952365020000115,11.919639960000096,0.7066192659999989,-1.5365277200000005,0.201424991
1718277695323049721,0.4085464290000287,1.6649619020000122,11.908682960000096,0.7116082659999989,-1.5377497200000008,0.1986579909999999
1718277695323058966,0.3487134290000291,1.625039902000012,11.880174960000096,0.7162942659999989,-1.5396277200000006,0.1945529909999999
1718277695323919174,0.2929534290000289,1.582346902000012,11.857585960000096,0.7224842709999989,-1.5409277200000009,0.189130991
1718277695325094835,0.2498774290000288,1.5369819020000122,11.841417960000095,0.7295042709999989,-1.5406147200000009,0.182794991
1718277695326273270,0.2109724290000291,1.4742969020000118,11.831614960000095,0.7374132659999989,-1.5397027200000006,0.175534991
1718277695327542350,0.1636344290000291,1.4116219020000125,11.797753960000096,0.7455572659999989,-1.5390627200000009,0.167476991
1718277695327565288,0.1246794290000286,1.368567902000012,11.779534960000095,0.7534832659999989,-1.539561720000001,0.159675991
1718277695328781782,0.0986814290000286,1.337973902000012,11.760211960000095,0.7602212559999989,-1.5394697200000007,0.151338991
1718277695330013699,0.0814244290000292,1.312453902000012,11.748591960000098,0.7656912559999989,-1.5377167200000006,0.143271991
1718277695331227054,0.0811074290000286,1.301643902000012,11.759166960000098,0.7708742559999989,-1.536190720000001,0.1348029909999999
1718277695332527500,0.0724014290000294,1.2910269020000118,11.731591960000095,0.7756272559999989,-1.5358187200000006,0.126320991
1718277695332560301,0.0718154290000291,1.304642902000012,11.736265960000097,0.7813172559999988,-1.5364727200000008,0.118771991
1718277695333701959,0.088117429000029,1.303665902000012,11.727732960000097,0.7867962659999989,-1.5378227200000008,0.112411991
1718277695334941034,0.100001429000029,1.314751902000012,11.7198549600001,0.7930842659999988,-1.539518720000001,0.106321991
1718277695336151432,0.1158104290000291,1.313447902000012,11.705610960000095,0.8005292659999989,-1.5430237200000003,0.1007579909999999
1718277695337432449,0.1144274290000291,1.302147902000012,11.670531960000096,0.8091922659999989,-1.547072720000001,0.096261991
1718277695338631780,0.1295564290000288,1.2954609020000118,11.653533960000097,0.8191962659999988,-1.5523557200000009,0.093229991
1718277695338652132,0.1362184290000285,1.283970902000012,11.645418960000098,0.8287142659999989,-1.5580327200000006,0.091125991
1718277695339883447,0.1598974290000289,1.287304902000012,11.651775960000096,0.8375072659999989,-1.564186720000001,0.0886139909999999
1718277695341708315,0.1839074290000287,1.2910189020000118,11.628521960000096,0.8445382659999989,-1.5698277200000008,0.086888991
1718277695343160675,0.2078104290000293,1.289608902000012,11.636663960000094,0.8521712659999988,-1.5740807200000009,0.085712991
1718277695343182843,0.2485464290000288,1.2831709020000122,11.624450960000097,0.8603642659999988,-1.577404720000001,0.085872991
1718277695344251187,0.285119429000029,1.274399902000012,11.604904960000097,0.8680942659999988,-1.5809247200000007,0.086295991
1718277695345626971,0.313314429000029,1.280534902000012,11.600812960000097,0.8747012659999989,-1.5853647200000007,0.087105991
1718277695345644507,0.3248144290000293,1.2772249020000122,11.588363960000096,0.8799042659999989,-1.5905887200000006,0.087768991
1718277695346758708,0.340706429000029,1.281465902000012,11.568702960000095,0.8840892659999988,-1.5957437200000006,0.088822991
1718277695347946373,0.3480694290000292,1.275793902000012,11.535012960000095,0.8888222709999989,-1.600153720000001,0.090550991
1718277695349136779,0.3342064290000291,1.2725089020000118,11.501469360000096,0.893840265999999,-1.6046887200000008,0.092413991
1718277695350389717,0.303415429000029,1.269282902000012,11.460795360000096,0.898665265999999,-1.609645720000001,0.094674991
1718277695351715573,0.2686634290000289,1.2688169020000122,11.412268360000096,0.9019892659999988,-1.6144217200000006,0.097057991
1718277695351732856,0.2300004290000292,1.2662609020000122,11.386319360000096,0.903323265999999,-1.6187587200000009,0.099699991
1718277695352874980,0.2001114290000289,1.278596902000012,11.351224360000096,0.9035052659999988,-1.6219477200000003,0.101541991
1718277695354083147,0.1704374290000294,1.2762729020000123,11.324151410000098,0.9030732659999988,-1.622592720000001,0.1037969909999999
1718277695355054686,0.1407834290000286,1.2739025020000123,11.281953360000095,0.9028572659999988,-1.6226077200000006,0.106056991
1718277695356227527,0.1151764290000286,1.268979502000012,11.247996360000096,0.9032622659999988,-1.6235587200000008,0.108580991
1718277695357585681,0.0895104290000289,1.268979502000012,11.220804360000097,0.903730265999999,-1.6257767200000008,0.110563991
1718277695357591746,0.0506334290000286,1.227014502000012,11.194400360000095,0.9065682659999988,-1.6304437200000008,0.112677991
1718277695358688778,0.0892724290000289,1.2594175020000122,11.150413360000096,0.9035862559999988,-1.6290497200000007,0.113992991
1718277695359919308,0.0546814290000291,1.219676502000012,11.138924360000097,0.906888255999999,-1.630998720000001,0.115863991
1718277695361038881,0.0674904290000292,1.222223502000012,11.141542360000098,0.906011255999999,-1.6296447200000006,0.117595991
1718277695362279528,0.0843244290000291,1.2222445020000123,11.122093960000097,0.9059702559999988,-1.6298557200000008,0.119586991
1718277695363523443,0.1135404290000292,1.219650902000012,11.125623960000096,0.9069782559999988,-1.632118720000001,0.1214379909999999
1718277695363546682,0.1255774290000293,1.2168569020000115,11.129366960000096,0.909110255999999,-1.6353137200000007,0.1232919909999999
1718277695364741768,0.1504494290000291,1.2116669020000117,11.124666960000097,0.9109732559999988,-1.6377747200000006,0.124615991
1718277695365929066,0.1581294290000288,1.201475902000012,11.143667960000098,0.9134652559999988,-1.6419197200000009,0.126466991
1718277695367638628,0.161716429000029,1.2037649020000116,11.146975960000097,0.9150142559999987,-1.6469077200000009,0.128171991
1718277695367648078,0.1778804290000293,1.2133049020000124,11.157490960000098,0.9170712559999988,-1.6525657200000006,0.1294769909999999
1718277695368765147,0.1899914290000293,1.2158329020000125,11.175149960000097,0.9177342559999988,-1.6594197200000007,0.130764991
1718277695372333647,0.1979334290000292,1.225788902000012,11.185092960000096,0.9180532559999988,-1.666480720000001,0.132047991
1718277695372349282,0.2100994290000286,1.2480639020000115,11.194781960000094,0.9180732559999988,-1.674366720000001,0.133191991
1718277695372366321,0.2137424290000291,1.2703029020000125,11.190577960000097,0.9183222559999988,-1.6822757200000007,0.1351349909999999
1718277695373647598,0.217439429000029,1.287664902000012,11.169515960000098,0.9187322559999987,-1.6903037200000008,0.136011991
1718277695373656547,0.2125414290000289,1.2999749020000124,11.150064960000096,0.9197532559999988,-1.6978457200000008,0.1378289909999999
1718277695374910386,0.2119074290000289,1.3147909020000117,11.130162960000094,0.920577255999999,-1.7058217200000008,0.139374991
1718277695376127131,0.2071344290000292,1.3320809020000124,11.117915960000095,0.9209992559999988,-1.712737720000001,0.141059991
1718277695377343831,0.2196344290000289,1.354419902000012,11.097021960000095,0.9203572559999988,-1.7174647200000008,0.142217991
1718277695378493562,0.2453374290000289,1.3892929020000118,11.098747960000097,0.9174322559999988,-1.7189487200000009,0.143651991
1718277695378524280,0.2841554290000294,1.446421902000012,11.093114360000095,0.912774255999999,-1.7174567200000006,0.145492991
1718277695379768997,0.3234314290000293,1.503887902000012,11.086884360000097,0.906145255999999,-1.7140627200000005,0.147333991
1718277695380973189,0.3756574290000292,1.563998902000012,11.109661360000096,0.898215255999999,-1.7098127200000006,0.148507991
1718277695382172640,0.4278684290000294,1.609264902000012,11.124385360000096,0.8909862559999989,-1.7042837200000007,0.149294991
1718277695383425536,0.4586504290000286,1.622258902000012,11.131139405000097,0.8860432559999989,-1.6979557200000006,0.149569991
1718277695383447848,0.4973344290000294,1.610115902000012,11.146896360000095,0.8842972559999989,-1.6914627200000008,0.150131991
1718277695384604590,0.5146544290000292,1.5806089020000125,11.140533360000097,0.8839112559999989,-1.6850697200000009,0.150967991
1718277695385818205,0.5276984290000295,1.5338249020000123,11.163766360000098,0.8839902559999988,-1.6779747200000008,0.151280991
1718277695386966435,0.5154444290000291,1.487116902000012,11.177237960000095,0.8838982559999988,-1.6711937200000009,0.150394991
1718277695388514857,0.4988014290000289,1.433105902000012,11.197097960000097,0.8841692559999987,-1.6671267200000008,0.148694991
1718277695388528477,0.4904574290000294,1.398500902000012,11.216450960000095,0.8853192559999988,-1.663570720000001,0.146465991
1718277695389724058,0.4825304290000292,1.3739099020000118,11.242480960000098,0.884837255999999,-1.6574977200000007,0.143977991
1718277695390960327,0.491928429000029,1.3692329020000122,11.291203960000098,0.8821512559999989,-1.6497567200000007,0.141754991
1718277695392745108,0.5017694290000287,1.394486902000012,11.322752960000097,0.8769712559999989,-1.6429237200000009,0.138710991
1718277695394108818,0.5072124290000293,1.4173229020000122,11.385072960000098,0.8717742559999989,-1.638056720000001,0.135919991
1718277695394127225,0.5124264290000289,1.425273902000012,11.418051960000096,0.8679272559999989,-1.633807720000001,0.133530991
1718277695395387080,0.5257324290000291,1.4278619020000125,11.452570960000095,0.8661962559999989,-1.6289087200000003,0.1316939909999999
1718277695395393334,0.5261744290000292,1.413235502000012,11.457307960000096,0.8653702559999988,-1.625222720000001,0.130115991
1718277695396546533,0.5264314290000291,1.418252502000012,11.485871960000098,0.864342255999999,-1.6238357200000006,0.129189991
1718277695397856618,0.5184344290000287,1.4235195020000122,11.498864960000097,0.8622312559999988,-1.6224657200000006,0.128254991
1718277695398985504,0.531636429000029,1.4361605020000123,11.536546960000097,0.8595112559999988,-1.6202307200000008,0.128521991
1718277695400210543,0.5491294290000286,1.446316472000012,11.537409960000094,0.856966255999999,-1.6166587200000009,0.129458991
1718277695401648789,0.5489094290000287,1.426559502000012,11.537925960000097,0.858045255999999,-1.6173947200000007,0.129592991
1718277695401656335,0.6131764290000294,1.473449502000012,11.535713960000097,0.854313255999999,-1.6097747200000008,0.133343991
1718277695402714562,0.6517644290000293,1.4858005020000122,11.547870960000097,0.8521902559999989,-1.603192720000001,0.136433991
1718277695403940518,0.6781694290000293,1.4912809020000122,11.559181960000098,0.8475902559999989,-1.5952977200000007,0.1395169909999999
1718277695405136479,0.7004374290000288,1.504419902000012,11.563166960000096,0.841769265999999,-1.5891227200000009,0.142978991
1718277695406371722,0.6888334290000289,1.517715902000012,11.552252960000096,0.835563265999999,-1.584549720000001,0.146827991
1718277695406386542,0.6643814290000287,1.518678902000012,11.563744960000095,0.8298932659999988,-1.5809437200000005,0.150409991
1718277695407617882,0.6271044290000292,1.502204902000012,11.560757960000096,0.8255692659999989,-1.5757767200000006,0.154276991
1718277695408825786,0.5899154290000286,1.4906569020000122,11.542324960000096,0.8210832659999989,-1.5699827200000007,0.158012991
1718277695410036828,0.5232734290000287,1.4769449020000125,11.545212960000097,0.8153102659999988,-1.5653307200000008,0.161204991
1718277695411269524,0.4977234290000285,1.4672179020000122,11.545496960000095,0.8154542659999988,-1.5676577200000008,0.161456991
1718277695412528528,0.3775314290000291,1.4474969020000124,11.550162960000096,0.802002270999999,-1.557374720000001,0.167433991
1718277695412542360,0.3189914290000293,1.413743902000012,11.566628960000097,0.7986182659999989,-1.5530607200000006,0.169174991
1718277695413774050,0.2858554290000288,1.374828902000012,11.559133960000096,0.796448265999999,-1.5467817200000005,0.169868991
1718277695415003463,0.2359144290000288,1.326083902000012,11.565153960000096,0.7941952659999989,-1.5390177200000008,0.169643991
1718277695416180083,0.2185144290000289,1.2963169020000118,11.582091960000096,0.7962812659999988,-1.5401707200000008,0.170448991
1718277695417487248,0.1725304290000291,1.254868902000012,11.604148960000098,0.794548265999999,-1.5349957200000006,0.170608991
1718277695417509256,0.1436194290000285,1.2185009020000122,11.630963960000097,0.7921992559999989,-1.5309117200000009,0.169026991
1718277695418633216,0.127346429000029,1.184502902000012,11.656937960000098,0.7902972559999989,-1.526986720000001,0.166780991
1718277695419913955,0.1196134290000285,1.1405829020000122,11.674017960000096,0.7889242559999988,-1.521511720000001,0.163614991
1718277695423718200,0.1242754290000288,1.1037379020000118,11.714971960000096,0.7887152559999988,-1.516586720000001,0.160853991
1718277695425039619,0.1285464290000293,1.0665799020000122,11.731879960000098,0.7907002559999988,-1.5139397200000009,0.156892991
1718277695425212665,0.1453714290000288,1.0220229020000122,11.718733960000096,0.793447255999999,-1.5124497200000009,0.152923991
1718277695425232093,0.1664494290000294,0.994683902000012,11.720265960000097,0.7957392559999988,-1.5116637200000005,0.148682991
1718277695425242948,0.1833894290000287,0.989663902000012,11.715116960000096,0.796763255999999,-1.512237720000001,0.145223991
1718277695426094852,0.1960884290000287,1.0067479020000123,11.717445960000097,0.797403255999999,-1.5136707200000006,0.141759991
1718277695427967259,0.2214144290000287,1.0312139020000122,11.712309960000097,0.7981082559999989,-1.5162807200000008,0.138284991
1718277695427981973,0.2508394290000291,1.062799902000012,11.684139960000095,0.7999882559999988,-1.518575720000001,0.134420991
1718277695429136516,0.2973104290000287,1.094481902000012,11.657171960000095,0.8011782559999988,-1.519941720000001,0.131354991
1718277695430461699,0.3357194290000287,1.1413269020000123,11.638886960000097,0.7997062559999989,-1.5205847200000004,0.1294759909999999
1718277695430475062,0.3786334290000289,1.220589902000012,11.635285960000097,0.795542255999999,-1.5238347200000009,0.1276969909999999
1718277695431603201,0.3874714290000289,1.235634902000012,11.642350960000096,0.7935142559999989,-1.522940720000001,0.127689991
1718277695432844841,0.4041674290000285,1.265108902000012,11.619206960000096,0.7938362559999989,-1.5269717200000008,0.127262991
1718277695434027572,0.3952154290000291,1.2747999020000125,11.574330960000095,0.7954952559999989,-1.5318077200000006,0.127371991
1718277695435281060,0.3819464290000287,1.2869349020000118,11.553653960000098,0.796970255999999,-1.5369747200000008,0.128409991
1718277695435296203,0.3563684290000286,1.306961902000012,11.534006960000095,0.7957012559999989,-1.5423667200000006,0.130627991
1718277695436551838,0.3181334290000288,1.324588902000012,11.537337960000098,0.7939882559999988,-1.547599720000001,0.133113991
1718277695437742321,0.2880354290000289,1.3370179020000124,11.526898960000098,0.7939512559999989,-1.5534417200000006,0.136134991
1718277695438990906,0.2054284290000292,1.318909902000012,11.493566960000097,0.8008562559999989,-1.566104720000001,0.142750991
1718277695440178173,0.183044429000029,1.300989902000012,11.470637960000095,0.8054852559999989,-1.5706467200000005,0.146608991
1718277695440917515,0.191554429000029,1.300967902000012,11.470692960000097,0.8054712559999989,-1.5699927200000006,0.146611991
1718277695442117939,0.1737324290000292,1.300625902000012,11.470727960000096,0.8076692559999988,-1.5746007200000005,0.150987991
1718277695444325881,0.1645494290000291,1.295368902000012,11.477888960000096,0.8095782559999989,-1.577159720000001,0.1551089909999999
1718277695445661456,0.1678624290000292,1.267680902000012,11.500152960000095,0.813177255999999,-1.5782117200000003,0.158850991
1718277695445676544,0.1706974290000287,1.249308902000012,11.499402960000095,0.8195222559999988,-1.5807997200000008,0.161935991
1718277695445696201,0.1818174290000291,1.2260679020000125,11.498401960000097,0.8262342559999989,-1.5857577200000006,0.164738991
1718277695446799968,0.1744314290000286,1.177085902000012,11.479627960000096,0.8401192559999989,-1.5958087200000008,0.169416991
1718277695448015244,0.1874414290000285,1.209228902000012,11.479426960000096,0.8382872659999989,-1.5952417200000009,0.169542991
1718277695449219443,0.2077404290000295,1.220876902000012,11.482341960000095,0.8416812659999989,-1.5989427200000006,0.170603991
1718277695450523221,0.2240154290000293,1.235211902000012,11.483842960000096,0.8440172659999988,-1.6029657200000007,0.1709899909999999
1718277695451669389,0.2391694290000285,1.258873902000012,11.491205960000098,0.850427265999999,-1.6166037200000003,0.169475991
1718277695451681668,0.2692794290000286,1.291109902000012,11.483968960000098,0.847906270999999,-1.6146027200000006,0.170003991
1718277695452980688,0.2729544290000292,1.308086902000012,11.481632960000097,0.8498672659999988,-1.6207377200000008,0.168112991
1718277695454182153,0.2724624290000288,1.322719902000012,11.456198960000096,0.851584265999999,-1.627192720000001,0.166082991
1718277695455452385,0.3443514290000289,1.3497919020000122,11.431850360000096,0.8515692659999988,-1.629999720000001,0.164724991
1718277695455489223,0.3146054290000286,1.377428902000012,11.436621360000098,0.8497602659999989,-1.639249720000001,0.163321991
1718277695456626092,0.289178429000029,1.402767902000012,11.425882360000095,0.847475265999999,-1.649049720000001,0.161777991
1718277695457880020,0.2980944290000289,1.442938902000012,11.422495360000095,0.843556265999999,-1.6544837200000004,0.160250991
1718277695458780911,0.3067084290000288,1.482733902000012,11.398775360000098,0.841381265999999,-1.6591707200000003,0.159936991
1718277695460121979,0.3152934290000286,1.5030079020000122,11.384057360000096,0.8389692659999989,-1.6643387200000006,0.160548991
1718277695461447804,0.3110494290000292,1.530585902000012,11.364266360000096,0.8366562659999989,-1.6696167200000005,0.162757991
1718277695461460117,0.3110784290000288,1.5556719020000118,11.352508360000096,0.8343072659999988,-1.673934720000001,0.165240991
1718277695462641289,0.3028044290000287,1.5759799020000125,11.333732360000097,0.8312532659999988,-1.677257720000001,0.168257991
1718277695463803250,0.3029324290000292,1.586363902000012,11.331349360000097,0.8285052659999987,-1.6794137200000008,0.171949991
1718277695465063564,0.2988384290000292,1.618743902000012,11.330194360000096,0.8255842559999989,-1.680790720000001,0.176445991
1718277695466287864,0.2992454290000288,1.639150902000012,11.328254360000097,0.8214172559999989,-1.681819720000001,0.1806689909999999
1718277695467605775,0.303960429000029,1.6816055020000122,11.356555360000096,0.816634255999999,-1.6819187200000003,0.1848989909999999
1718277695467616677,0.3090474290000291,1.7146035020000123,11.376541360000097,0.8101992559999989,-1.681112720000001,0.188988991
1718277695468744590,0.3096914290000288,1.735045502000012,11.404700360000094,0.8051592559999988,-1.6796157200000006,0.1932259909999999
1718277695469973576,0.3057444290000286,1.7429715020000125,11.417749960000094,0.8019512559999988,-1.6796967200000008,0.197197991
1718277695471208773,0.2718104290000285,1.733483502000012,11.437205960000096,0.8005642559999989,-1.6817947200000007,0.2002369909999999
1718277695472449265,0.2252034290000293,1.706933502000012,11.431705960000096,0.7994362559999989,-1.6852257200000007,0.201936991
1718277695472467069,0.1742524290000289,1.673016502000012,11.433229960000096,0.7986682559999989,-1.6898567200000008,0.2032329909999999
1718277695473649604,0.1105044290000292,1.641460502000012,11.448926960000096,0.7983952559999989,-1.695344720000001,0.203861991
1718277695474884212,0.0550554290000289,1.600035502000012,11.442548960000098,0.7988622559999988,-1.7016847200000007,0.204753991
1718277695476080735,0.0163634290000291,1.553474502000012,11.458940960000094,0.800341255999999,-1.7078517200000003,0.205386991
1718277695477953363,-0.0136755709999707,1.526440502000012,11.4580799600001,0.801825255999999,-1.7119997200000008,0.204703991
1718277695479230069,-0.034956570999971,1.509487502000012,11.441892960000096,0.8018752559999989,-1.7156267200000008,0.204145991
1718277695479241145,-0.0475275709999705,1.517379502000012,11.456394960000097,0.7997982559999988,-1.7195097200000005,0.204106991
1718277695480478020,-0.0558545709999707,1.5425865020000122,11.470970960000097,0.7970412559999989,-1.7249787200000006,0.2041859909999999
1718277695480495135,-0.051407570999971,1.565369502000012,11.477170960000096,0.794235255999999,-1.730094720000001,0.203733991
1718277695481664000,-0.0470535709999713,1.5781255020000118,11.483427960000096,0.792407255999999,-1.7340657200000005,0.203161991
1718277695482889451,-0.0514095709999706,1.585682502000012,11.482680960000096,0.7920672559999989,-1.7378057200000006,0.202735991
1718277695484041190,-0.0515825709999711,1.585908902000012,11.483854960000096,0.7916262559999988,-1.741590720000001,0.203503991
1718277695485298316,-0.0517845709999713,1.600881902000012,11.485617960000097,0.790921255999999,-1.7461527200000009,0.204666991
1718277695486548290,-0.0601435709999711,1.6111849020000122,11.478301960000096,0.7890782559999988,-1.7497137200000008,0.205160991
1718277695486558446,-0.0643405709999711,1.6287209020000122,11.479348960000095,0.7875342559999989,-1.7527087200000009,0.2060629909999999
1718277695487786482,-0.0643155709999707,1.643649902000012,11.479744960000096,0.786613255999999,-1.7546177200000006,0.206442991
1718277695488979525,-0.0643175709999706,1.653589902000012,11.457103960000095,0.7862882559999989,-1.7561427200000008,0.2065629909999999
1718277695490311330,-0.0600825709999708,1.661085902000012,11.457622960000096,0.7857102559999988,-1.7573387200000008,0.206948991
1718277695491579014,-0.0600855709999714,1.685735902000012,11.450108960000096,0.7851262559999989,-1.7591347200000007,0.2070669909999999
1718277695491596765,-0.0684355709999706,1.6958029020000118,11.434163960000095,0.7841612559999989,-1.7606797200000006,0.206782991
1718277695492766063,-0.0852595709999712,1.6910069020000122,11.424653960000096,0.7839162559999988,-1.761091720000001,0.205715991
1718277695494984455,-0.1062295709999709,1.6837269020000123,11.421832960000096,0.783651255999999,-1.7604377200000008,0.204122991
1718277695494995508,-0.1145245709999711,1.6592649020000123,11.410763960000097,0.7838202659999988,-1.7597927200000008,0.201996991
1718277695496188062,-0.1398785709999712,1.624864902000012,11.392626960000095,0.784773265999999,-1.7591807200000007,0.200143991
1718277695497440190,-0.1441205709999713,1.597666902000012,11.381748960000095,0.786220265999999,-1.7578317200000009,0.197898991
1718277695497464799,-0.1396865709999708,1.555799902000012,11.377731960000098,0.7872592659999988,-1.7544187200000008,0.195263991
1718277695498564746,-0.139573570999971,1.511203902000012,11.380729960000096,0.789376265999999,-1.749566720000001,0.1921159909999999
1718277695499857765,-0.1394385709999712,1.4813989020000122,11.360890960000097,0.791226265999999,-1.7454887200000009,0.188959991
1718277695501054560,-0.143573570999971,1.454085902000012,11.363325960000097,0.7929002659999987,-1.7424977200000007,0.1855309909999999
1718277695502312255,-0.1477295709999708,1.4317839020000118,11.359137960000098,0.7941892659999988,-1.740521720000001,0.1827589909999999
1718277695502333216,-0.1518095709999707,1.4045239020000122,11.353913960000098,0.7956412659999988,-1.737403720000001,0.179328991
1718277695503955086,-0.1684985709999713,1.379775902000012,11.332291960000097,0.7969262559999989,-1.734254720000001,0.175231991
1718277695504739174,-0.1852005709999711,1.355073902000012,11.325793960000096,0.7979952559999989,-1.731736720000001,0.1711319909999999
1718277695505856755,-0.2017825709999705,1.340369902000012,11.3053309600001,0.798079255999999,-1.7293557200000005,0.167954991
1718277695507149778,-0.2224305709999712,1.333172902000012,11.308544960000097,0.7969422559999989,-1.726172720000001,0.165575991
1718277695508589832,-0.2303015709999707,1.333443902000012,11.304734960000095,0.7952132559999989,-1.723028720000001,0.163589991
1718277695508619240,-0.2422845709999708,1.346109902000012,11.292887960000098,0.7927602559999989,-1.7200957200000009,0.161465991
1718277695509865639,-0.2415245709999707,1.346533902000012,11.289514960000096,0.7901382559999988,-1.7162957200000009,0.159876991
1718277695510998699,-0.2365815709999712,1.368917902000012,11.280542960000096,0.7875452559999989,-1.711694720000001,0.159493991
1718277695512271148,-0.2316575709999706,1.3962449020000125,11.287721960000097,0.7845742559999989,-1.7073547200000008,0.159772991
1718277695513519992,-0.231047570999971,1.426060902000012,11.303916960000096,0.7814162559999989,-1.7038517200000007,0.1609759909999999
1718277695513534427,-0.2262995709999709,1.4533589020000122,11.322548960000097,0.7784342559999988,-1.7000227200000009,0.163646991
1718277695514759070,-0.2217715709999708,1.475456902000012,11.326638960000096,0.776924265999999,-1.6955617200000006,0.166463991
1718277695515973363,-0.2175875709999708,1.487442902000012,11.355632960000095,0.7768292659999988,-1.6914777200000006,0.170353991
1718277695517188436,-0.2177555709999707,1.482239902000012,11.392094960000096,0.7771942659999987,-1.6882037200000006,0.174107991
1718277695518462460,-0.2095445709999706,1.472074902000012,11.415035960000097,0.7779192659999988,-1.6847777200000005,0.1787939909999999
1718277695518472757,-0.2014775709999705,1.4569109020000122,11.468671960000098,0.7790282659999989,-1.681854720000001,0.1836139909999999
1718277695519620665,-0.2061015709999709,1.454073902000012,11.514346960000095,0.7798662659999989,-1.679797720000001,0.188296991
1718277695520909837,-0.2149805709999706,1.448860902000012,11.559130960000097,0.7806842659999988,-1.6791987200000007,0.192435991
1718277695522070861,-0.2237805709999714,1.4437809020000123,11.602502960000097,0.7810682659999989,-1.6793537200000006,0.1957679909999999
1718277695526011442,-0.2326075709999708,1.453394902000012,11.645881960000096,0.7814092659999988,-1.6799057200000005,0.1990979909999999
1718277695526023109,-0.245393570999971,1.465840902000012,11.688297960000098,0.7800352659999988,-1.681157720000001,0.202145991
1718277695527322160,-0.266652570999971,1.488167902000012,11.737741960000095,0.778357265999999,-1.683579720000001,0.204919991
1718277695527343078,-0.2836425709999712,1.5179319020000122,11.770717960000097,0.7765432659999989,-1.686942720000001,0.206885991
1718277695527353151,-0.3048445709999712,1.545298902000012,11.788254960000096,0.7747042659999988,-1.6907537200000005,0.208714991
1718277695528498026,-0.3134905709999711,1.565139902000012,11.812478960000098,0.7738572709999988,-1.6948397200000005,0.209749991
1718277695528518325,-0.3348585709999707,1.5776319020000122,11.813290960000096,0.773379265999999,-1.6995167200000008,0.210381991
1718277695529712024,-0.3564825709999708,1.585049902000012,11.798862960000095,0.7741582659999989,-1.7054537200000006,0.210745991
1718277695530937478,-0.3782385709999707,1.587449902000012,11.769702960000094,0.775750265999999,-1.7118917200000008,0.211243991
1718277695532127527,-0.395959570999971,1.5872749020000123,11.756373960000095,0.7779652659999988,-1.7190127200000007,0.2120089909999999
1718277695533384283,-0.405006570999971,1.592093902000012,11.727523960000095,0.779566265999999,-1.7248527200000008,0.212641991
1718277695534716800,-0.3968095709999713,1.597163902000012,11.704703360000096,0.7798282659999989,-1.7298837200000008,0.212473991
1718277695534722851,-0.375797570999971,1.6243269020000122,11.689403360000096,0.779457265999999,-1.7340877200000009,0.212306991
1718277695535894809,-0.3293375709999708,1.641678902000012,11.659532360000094,0.779141265999999,-1.7372027200000009,0.212409991
1718277695537098560,-0.2703445709999708,1.666045902000012,11.631387360000096,0.7799822559999988,-1.738597720000001,0.213331991
1718277695538424164,-0.2113355709999709,1.6903779020000125,11.603881360000097,0.780823255999999,-1.7392365200000006,0.214657991
1718277695539585958,-0.1564985709999711,1.722090502000012,11.583841410000096,0.7813202559999989,-1.739580520000001,0.215983991
1718277695539600403,-0.110196570999971,1.748953502000012,11.571534360000095,0.781774255999999,-1.7410765200000005,0.217436991
1718277695540839272,-0.068473570999971,1.768282472000012,11.567799360000098,0.783462255999999,-1.7445345200000009,0.2192839909999999
1718277695542061426,-0.0525065709999712,1.772706502000012,11.542215360000096,0.7867652559999988,-1.7499415200000006,0.221527991
1718277695543243843,-0.0369155709999708,1.7767605020000123,11.539933360000097,0.7918242559999988,-1.7561135200000009,0.2237809909999999
1718277695544483341,-0.0338195709999709,1.773674502000012,11.536626360000096,0.7959402559999988,-1.7621155200000007,0.225628991
1718277695544491125,-0.0261655709999708,1.778136502000012,11.517797360000095,0.7988222559999988,-1.7664055200000008,0.227478991
1718277695545991527,-0.0228175709999709,1.7801945020000118,11.545431360000094,0.8012472559999988,-1.7713995200000008,0.229990991
1718277695547202829,-0.0239615709999712,1.784544902000012,11.558408360000096,0.8048012559999989,-1.7779905200000006,0.2326329909999999
1718277695548449736,-0.0295385709999711,1.7863379020000123,11.570756360000098,0.8092132559999989,-1.7860415200000008,0.234736991
1718277695548475175,-0.0393225709999711,1.775764902000012,11.573325360000096,0.8143652559999989,-1.7935185200000006,0.235385991
1718277695549738071,-0.053040570999971,1.7679359020000118,11.574988360000097,0.8180232559999988,-1.8005625200000008,0.235761991
1718277695550939067,-0.0708755709999711,1.762766502000012,11.591713360000096,0.820623255999999,-1.8081845200000009,0.236260991
1718277695552185644,-0.088722570999971,1.7625305020000124,11.608827410000098,0.8230622559999989,-1.8161905200000008,0.237023991
1718277695553424939,-0.0981585709999712,1.7523125020000123,11.617180360000097,0.8264682559999988,-1.8234075200000008,0.236863991
1718277695553435330,-0.120566570999971,1.7490715020000125,11.603221360000097,0.8317322559999988,-1.8304835200000005,0.236718991
1718277695554656669,-0.130183570999971,1.738508502000012,11.588026360000097,0.836890255999999,-1.8369465200000008,0.235776991
1718277695555872351,-0.139535570999971,1.7527015020000118,11.580809360000098,0.8403682559999988,-1.8428065200000008,0.235361991
1718277695557097700,-0.1355805709999709,1.774784502000012,11.579745360000096,0.8408492559999988,-1.8470515200000008,0.234537991
1718277695558274838,-0.1268865709999711,1.8192935020000125,11.584973960000095,0.8389602559999989,-1.8495995200000008,0.233312991
1718277695559640439,-0.1307395709999708,1.846722502000012,11.589748960000094,0.8366682559999989,-1.8508315200000007,0.231960991
1718277695559647789,-0.147560570999971,1.871430502000012,11.602837960000096,0.8356822559999989,-1.852416520000001,0.230882991
1718277695560834225,-0.1603175709999709,1.878790502000012,11.586385960000095,0.8360132559999988,-1.8539095200000009,0.230076991
1718277695562014581,-0.185768570999971,1.878694502000012,11.5926499600001,0.8364982559999989,-1.8541025200000008,0.229282991
1718277695570318487,-0.2111565709999712,1.863920502000012,11.583719960000096,0.8370252559999989,-1.853644520000001,0.2284929909999999
1718277695573271463,-0.232313570999971,1.841753502000012,11.568535960000094,0.837671255999999,-1.8523495200000009,0.228504991
1718277695573277706,-0.2621075709999709,1.7997464720000125,11.568989960000096,0.8394122559999988,-1.850424520000001,0.228663991
1718277695573289917,-0.2752825709999709,1.752384502000012,11.5628029600001,0.8432552559999988,-1.847447520000001,0.228973991
1718277695573306492,-0.2926605709999708,1.692799502000012,11.564334960000096,0.8469592559999988,-1.8441525200000008,0.229418991
1718277695573337150,-0.2930015709999709,1.6479275020000124,11.574086960000098,0.8501522559999988,-1.8396935200000009,0.230267991
1718277695573352732,-0.3142655709999711,1.595954502000012,11.575738960000097,0.8521962559999989,-1.8348345200000007,0.231112991
1718277695573366882,-0.3270805709999709,1.558655902000012,11.607759960000095,0.8539682559999989,-1.8298475200000008,0.2319589909999999
1718277695573379218,-0.3356515709999708,1.5140579020000122,11.646728960000098,0.855649255999999,-1.8254045200000009,0.232401991
1718277695573387506,-0.3484635709999708,1.4621469020000122,11.693228960000097,0.8572502559999988,-1.821405520000001,0.232841991
1718277695573408006,-0.3655225709999707,1.4224589020000122,11.717406960000096,0.8589992559999988,-1.817371520000001,0.2335479909999999
1718277695573418746,-0.3910855709999712,1.3778889020000118,11.749312960000095,0.8607052559999989,-1.8137315200000008,0.234385991
1718277695574532563,-0.420944570999971,1.3407609020000122,11.810833960000096,0.862075265999999,-1.8120675200000005,0.234810991
1718277695575346980,-0.459223570999971,1.289141902000012,11.832984960000095,0.8632822659999989,-1.8122935200000008,0.234419991
1718277695576582310,-0.514527570999971,1.2571399020000122,11.854842960000097,0.8645332659999989,-1.814231520000001,0.233887991
1718277695577777864,-0.5869505709999712,1.229922902000012,11.883546960000096,0.8665332659999989,-1.8176097200000003,0.232819991
1718277695578991659,-0.655214570999971,1.2052239020000122,11.888514960000096,0.8687742659999989,-1.8229337200000009,0.231073991
1718277695580157100,-0.7106805709999711,1.197703902000012,11.884854960000098,0.870764270999999,-1.8279287200000005,0.228661991
1718277695581338033,-0.757443570999971,1.185498902000012,11.872303960000096,0.8718042709999989,-1.8325107200000008,0.225578991
1718277695582654124,-0.7913065709999709,1.2003039020000124,11.866372960000096,0.8720552659999988,-1.835890720000001,0.221968991
1718277695582660690,-0.799545570999971,1.215341902000012,11.843884960000096,0.8713872659999988,-1.8393237200000008,0.217548991
1718277695583768778,-0.7905915709999709,1.2402359020000122,11.813906960000097,0.8699302659999989,-1.8401987200000005,0.213273991
1718277695584936512,-0.7645465709999713,1.2602009020000118,11.798703960000095,0.8681702659999988,-1.838876720000001,0.208743991
1718277695586153720,-0.7383195709999708,1.2852319020000122,11.752097960000098,0.8658092659999989,-1.8374277200000009,0.203677991
1718277695587470624,-0.7122815709999712,1.3003419020000122,11.720683960000096,0.864210265999999,-1.8369807200000008,0.198475991
1718277695587492264,-0.6778045709999709,1.315432902000012,11.697562960000097,0.862596265999999,-1.8363857200000009,0.193674991
1718277695588599975,-0.6431625709999711,1.315800902000012,11.674359960000098,0.860805265999999,-1.8334987200000008,0.188886991
1718277695589952168,-0.6041895709999712,1.303864902000012,11.636852960000097,0.8590752559999989,-1.828503720000001,0.1846439909999999
1718277695591071660,-0.5779645709999708,1.304118902000012,11.615507960000096,0.8572942559999989,-1.823245720000001,0.181071991
