%time,field.linear.x,field.linear.y,field.linear.z,field.angular.x,field.angular.y,field.angular.z
1718277695131001666,0.0002794783869575,-0.0005270129108487,0.0014755718559852,-0.1701908096292431,0.2339593543896024,-0.0785659335633013
1718277695132243165,0.0003231080964991,-0.000286169333676,0.0027012943700031,-0.1688461807363334,0.2358064339242442,-0.0758806355008775
1718277695132255251,0.0003859072658989,-4.388929174786711e-05,0.003607627250868,-0.1678460509895717,0.2379239809037151,-0.0730467727214009
1718277695133466108,0.0005320446886869,0.000102271210406,0.0043029905260312,-0.1669507184874745,0.2401252341604617,-0.0706412733154
1718277695135325791,0.0006732238432248,5.106888027545099e-05,0.0050564077793059,-0.1656631646648838,0.2422535247075684,-0.0682455817097121
1718277695136626528,0.0008408095773116,0.0002995604564561,0.0055837645727555,-0.1654619741174551,0.2441961865677996,-0.0663956490309662
1718277695136638588,0.000821007103349,0.0008271819103717,0.0056661515617364,-0.1665092185521604,0.246049090051796,-0.0636217083692448
1718277695138060153,0.0009765587208423,0.001244655202187,0.0060140521746582,-0.1667995377607904,0.2477636213777107,-0.0616177577002688
1718277695139313840,0.0012506380933096,0.0015511669010179,0.0062234243248392,-0.1672217688212045,0.249918276832551,-0.0599090398200989
1718277695139330173,0.0014449843050989,0.0017692823890247,0.0062429148052133,-0.1674740696336318,0.2522570426347523,-0.0583853989389358
1718277695140576483,0.0015143402229455,0.002065718039786,0.0061357745326118,-0.1684715907899281,0.2540244451433837,-0.0568431037030701
1718277695141835571,0.0015304878690792,0.0024325201006433,0.006377833213987,-0.169064587427617,0.2558637426590861,-0.0561663156434975
1718277695143071731,0.0016744751011934,0.0026317719974469,0.0064826099188365,-0.1696005508732296,0.2576744940059416,-0.0554809204537892
1718277695144301955,0.0019699674424983,0.0026114826189318,0.0063972706278057,-0.1702387584976851,0.2594979836957831,-0.0551331862219061
1718277695144314527,0.0026083749729923,0.0026264435511262,0.0064543480587896,-0.1708123092833801,0.2613063188265798,-0.0560855778603524
1718277695145496357,0.0031382953161598,0.0025771239679754,0.0066077793428193,-0.1713335604575035,0.2630649405746098,-0.0568841572637349
1718277695148693665,0.0035816230511805,0.0029587686879236,0.0062838080640881,-0.1733729206451075,0.264565192270343,-0.0578442057202754
1718277695149689732,0.004195825389613,0.003107528565247,0.0060196726421307,-0.1749798436867867,0.2663952957675103,-0.0573877180730646
1718277695149704089,0.0047898139162395,0.0033283681475502,0.005349703209667,-0.1774028605107162,0.26801779173037,-0.0576549346540543
1718277695150866329,0.0052310625918279,0.0035528714331293,0.0049502108924038,-0.1792771963881228,0.2700096593523208,-0.0576540877614699
1718277695162182801,0.0054084092931448,0.0038398271705853,0.0043284866702797,-0.1816886786637726,0.2716607763280502,-0.056855717009179
1718277695163883756,0.005616051981781,0.0041626184797969,0.0038323633747935,-0.1839778377467882,0.2733559435058723,-0.0555456745766066
1718277695163900566,0.0058802291693274,0.0046435313241847,0.0031059174983595,-0.1871358442019804,0.2751413981256134,-0.0544821639432851
1718277695163918931,0.0062437502430264,0.0050307095361852,0.0023480224902971,-0.1902261979891981,0.2765037645878524,-0.0537742026584189
1718277695163934070,0.0063327595010662,0.005610411113819,0.0015365166770593,-0.1937143954599514,0.2774126814816439,-0.0523039450919713
1718277695163947480,0.006086773570993,0.0059287196778539,0.000939278414846,-0.1964486678276756,0.2779977503120602,-0.0502837457609778
1718277695163960418,0.0058379211377603,0.0061663142343568,0.0003100373953259,-0.1989732095503721,0.2788384877852465,-0.0487986400929042
1718277695163977258,0.005848735876539,0.0061941051440653,-0.0001090178713864,-0.200814244273711,0.2793778317130051,-0.047732209317919
1718277695163995039,0.0059018525389596,0.0065382599309283,-0.0001852414449132,-0.2027101896981909,0.2797231033217758,-0.0463862262580892
1718277695164009935,0.0059575902969382,0.0068666834899727,-0.0002709783154138,-0.2045502964340076,0.2800396342874995,-0.0449343141609801
1718277695164023395,0.0061348240259755,0.0072887181687179,-0.000681422587881,-0.2069370280532957,0.2802152392205512,-0.0438979257650906
1718277695164048655,0.0061669650233603,0.0076212588590531,-0.0012007039977278,-0.2092624751809605,0.2802099783167204,-0.0430177455737945
1718277695165595327,0.0062540343665746,0.0077119153619939,-0.0012804268846471,-0.2103648443368615,0.279694408909555,-0.0426067180825197
1718277695165610685,0.0061234756906923,0.0081439538605308,-0.0013166666276359,-0.2117347876697981,0.2789077808168264,-0.0415521027070457
1718277695166862423,0.0061233340267181,0.0087887854874928,-0.0015384384079803,-0.2137237200489282,0.278519819911264,-0.0406178722719288
1718277695166875401,0.0061205197597448,0.0091407481432611,-0.0018132924029945,-0.2149886713538331,0.2784600328973469,-0.0399544652330142
1718277695168062167,0.006216137893985,0.0092390781471228,-0.0018497710632806,-0.2154587550916381,0.2784767930931929,-0.0396860643869445
1718277695169345404,0.0063325460016434,0.0095489181915579,-0.0018692413885694,-0.2161207356019642,0.2779401005203308,-0.0396702871809272
1718277695169353718,0.0061398779649374,0.0097952191658365,-0.0019219946914162,-0.2167550193746402,0.2766164505187977,-0.0392201635818468
1718277695170569559,0.0060654231499678,0.0100106766634484,-0.0020101077366588,-0.2174079281295891,0.27559375010359,-0.0393983498207951
1718277695171675840,0.0057587589079689,0.0102997687556349,-0.0026045536463169,-0.2191000143339908,0.2744894114830075,-0.0392927994673061
1718277695172891490,0.0054357268153372,0.0107842949317447,-0.0028675553372499,-0.2204963378704143,0.2739895515823931,-0.0386579592247789
1718277695174087880,0.005178074436865,0.011163726225957,-0.0027798404212768,-0.2208548090030302,0.2732684038626539,-0.0380709992374952
1718277695175356211,0.0050631078914051,0.01138800550717,-0.002943850002582,-0.2211808516084652,0.2721894487170535,-0.0375745889641727
1718277695175364289,0.0049138863594589,0.0119052746988885,-0.0032482523826945,-0.2220946593951589,0.2711909600376265,-0.0375404848921296
1718277695176439385,0.0051474208733462,0.0121965461699544,-0.0031000403618926,-0.222192790184304,0.2707812407387844,-0.0381477295918691
1718277695177645404,0.0051038275955117,0.0125555046616185,-0.0026941169087946,-0.2217963600207712,0.2700274498323696,-0.0382109729488381
1718277695178875726,0.0048516015143114,0.0127711127188865,-0.0021582583826592,-0.2205941360422736,0.2685894242429986,-0.0382484728997341
1718277695180098944,0.0045103797062402,0.0128429690281131,-0.0016956063104441,-0.2193478157620444,0.2672604456603158,-0.038318143628143
1718277695181359178,0.0039457792855886,0.0128882261921643,-0.0012711232468177,-0.2181530117845894,0.2655738424142461,-0.0382616327177309
1718277695181371154,0.0037156858765099,0.0129917399579194,-0.0009259913018769,-0.2175089485106967,0.2641409643606781,-0.03828595392415
1718277695183155088,0.0035125619855144,0.0130187293147254,-0.0006214505238465,-0.2168243293114752,0.2630294539357407,-0.0381672499783831
1718277695184339487,0.0033179836571984,0.0130105176223016,-4.6888230242663614e-05,-0.2154108189055975,0.2615460019559822,-0.037451129534046
1718277695184347381,0.0028719488170429,0.0131409016981597,0.0006312895313409,-0.2142289585533267,0.2598717701697899,-0.0364479182070942
1718277695185441884,0.0024987582364758,0.0133052963696457,0.0011136130192985,-0.2134523188525573,0.2586953972169866,-0.0355088646489196
1718277695186683822,0.0019375241542066,0.0134491492144291,0.0014215554316989,-0.2129210189915762,0.2575760398796589,-0.0343110283327922
1718277695188884320,0.0011114628945463,0.0133491204135213,0.0016630759162298,-0.2120479276195688,0.2564296817847586,-0.0328457856452351
1718277695190109330,0.0004555397231987,0.0132417533333831,0.0017324435447527,-0.2115940265723276,0.2552813710423404,-0.0324283191243444
1718277695190116348,-9.479036754226792e-05,0.0130584002033491,0.0017527981181647,-0.2111065099574311,0.2541494463620999,-0.0315699777894551
1718277695191398916,-0.0005436769514525,0.0127790174882569,0.0016922946612626,-0.2107625922883849,0.2531653587863711,-0.030803189405402
1718277695191406383,-0.0010937106070749,0.0124517492023983,0.0015494176950622,-0.2103022661117286,0.2523158190434983,-0.0292883982213457
1718277695192525957,-0.0012806564911806,0.0122129204412368,0.0015915814223615,-0.2098530911146671,0.251466062067577,-0.0290215904094035
1718277695193709739,-0.0018856377385177,0.011762750525834,0.0018105905611709,-0.2087690223166968,0.2507763774237566,-0.0281372038673294
1718277695195007928,-0.0023562502548054,0.0113227569174443,0.0022653113494788,-0.2074660452693177,0.2500618707270793,-0.0271456120234273
1718277695196202426,-0.0027224299298896,0.0110518872139347,0.0022664581163819,-0.207424095496407,0.2492673297334713,-0.0263822338808765
1718277695197453256,-0.003215913453761,0.0106759776761038,0.0023062540591715,-0.2069673045781828,0.2486262390360162,-0.0257359020591395
1718277695197470954,-0.0038972176734157,0.010051809718323,0.0024166879747089,-0.2057718577230498,0.2480911645268386,-0.0246123407433779
1718277695198695247,-0.0044415233817536,0.0093094758847419,0.0023446389824516,-0.2045653217583704,0.2481189994279853,-0.0228659411973567
1718277695199851465,-0.0048280285410071,0.0087099130222052,0.0021061424143661,-0.2040125120870855,0.2483538139843736,-0.0216787983416811
1718277695201030913,-0.0050415286330182,0.0080221201719512,0.0020216184085159,-0.2026245933436972,0.2487413962538562,-0.0204686180562238
1718277695202319709,-0.0052127988132005,0.0073449929532641,0.0019077356068597,-0.2009657364754694,0.248850424806185,-0.0195823043130678
1718277695203561338,-0.0051807205121188,0.0067690446114392,0.0018744951393829,-0.1996734902564507,0.2492168321849645,-0.0196069272092652
1718277695203606534,-0.0052140322858884,0.0062710703059448,0.0016027727336657,-0.1989861201819922,0.2503081222841741,-0.0196348907106554
1718277695204733001,-0.0051751927363065,0.0057234326335289,0.0010579304792723,-0.1986054868168558,0.2511722052496938,-0.0202553112218904
1718277695205947938,-0.0050789345917637,0.0049220610056939,0.0004019271854929,-0.1982075236034188,0.2519120726668503,-0.0216064772561818
1718277695207213140,-0.0047029659739322,0.0041442137839594,0.0001330340912053,-0.1971505327019157,0.2526329876970044,-0.0237486299534885
1718277695207246350,-0.0043090357389713,0.0034966786060301,-0.0001783634979717,-0.1962092394074952,0.2533006342899479,-0.0257211359675682
1718277695208457213,-0.0042293616093245,0.0029205451686746,-0.0005926181587568,-0.1958348848839897,0.2539900506390282,-0.0268971590502217
1718277695209657723,-0.0042980644974442,0.0022624528222936,-0.0007060816394119,-0.1946181789709622,0.2540875920786647,-0.0274688112029335
1718277695210876220,-0.0047648882476616,0.0018549073465113,-0.0009863771742438,-0.1941178692699567,0.253665616984048,-0.0276246160029461
1718277695212079208,-0.0048935806119566,0.0014680364452407,-0.0013343109796429,-0.1935258531326059,0.2535139948114167,-0.0288960474088741
1718277695213925978,-0.0048089465918546,0.0011863485666948,-0.0013552036445384,-0.1926235687201909,0.2541916279877918,-0.0302893065084268
1718277695213981541,-0.0047965236300407,0.0009003424826467,-0.0015123028854167,-0.1919695603819885,0.2547931647492279,-0.0320634395272092
1718277695218558446,-0.0046237924246991,0.0007297031517353,-0.0018091630141037,-0.1916281084744153,0.2557504548630088,-0.0338688820795967
1718277695219916654,-0.0045465965251399,0.0006420512154682,-0.0021129566197554,-0.1914666647934685,0.2564467913302295,-0.036246127700128
1718277695219935856,-0.0044468130639344,0.000746570249622,-0.0026356917831704,-0.1921004494530093,0.2573391515614161,-0.0378962909603459
1718277695219952102,-0.0041793743010609,0.0009254173181478,-0.0032486985392661,-0.1930847198295415,0.2585726098460424,-0.0397612069645759
1718277695219959630,-0.0041737685545447,0.001260476728729,-0.0037295534998513,-0.194268899095253,0.2594385132571857,-0.0408953142415026
1718277695219998712,-0.0044733890796266,0.0015357561658675,-0.0041674396783628,-0.195171639641441,0.2595973482738482,-0.0418093129154268
1718277695221068751,-0.0045176970685723,0.0016081903746078,-0.0042982643850762,-0.1950016304790921,0.2596664186117871,-0.0429400082014667
1718277695222195785,-0.0044319195316788,0.0017798960001443,-0.0044626455940341,-0.1951200818427611,0.2597001156145538,-0.0441354581776756
1718277695223424765,-0.0044047551238946,0.0017357169322535,-0.0045389141905288,-0.1947967722927328,0.2598100759788903,-0.0447519349942205
1718277695223455096,-0.0044996162705914,0.0018001924929266,-0.0043674182598974,-0.1942559035236771,0.2593528668435529,-0.0448463625003885
1718277695224642552,-0.0048232602586059,0.0020747450014472,-0.0042840138656467,-0.1941227637742604,0.2585657978112826,-0.0453211246149888
1718277695225853061,-0.0051145471719771,0.0022796283154789,-0.0043791626512621,-0.1941231975878674,0.25759066305377,-0.0459647992595106
1718277695227071617,-0.0053922863488575,0.0023732125561793,-0.0042955266615584,-0.1938008150402239,0.2564389910999812,-0.0468132637861042
1718277695228690246,-0.0058368668982836,0.002263624920525,-0.0040941429925011,-0.1926810657867317,0.2550890173323034,-0.0475254426994444
1718277695228711578,-0.006425231007565,0.0020879294289288,-0.0039962645753286,-0.1915021055139925,0.2542125603379659,-0.0468343102339384
1718277695229836205,-0.0070532223575267,0.0019322399278386,-0.0039163687059742,-0.190625678350267,0.253133267698033,-0.046147351500336
1718277695231079251,-0.007541212206011,0.001920305796693,-0.0037947792436236,-0.1899701305562051,0.2518602297117708,-0.0453723553537664
1718277695232208565,-0.0080157036963167,0.001898445030952,-0.003897643948528,-0.1896793441225787,0.2506366832472679,-0.0445827112490549
1718277695233461902,-0.0081522173610831,0.0018359602212588,-0.0038401403974514,-0.1890835821160659,0.2499020149482546,-0.0436806671928051
1718277695233483543,-0.0082289856150213,0.0016284080996168,-0.0036124922946086,-0.1879953705692011,0.2488924620477468,-0.0433327465261942
1718277695234643505,-0.0086254285793169,0.0014914003645358,-0.0032220306419797,-0.1866947824956281,0.2474069835252431,-0.0426561211093453
1718277695235842492,-0.0092235498360025,0.0015928644855544,-0.0029648524500198,-0.1860479916668376,0.2455906229379206,-0.041498134917766
1718277695237039236,-0.0098319464889186,0.0015819429697431,-0.0028112371583299,-0.185431759904383,0.2435862762357038,-0.040357626408879
1718277695238278449,-0.0102488129173169,0.0015277707472019,-0.0028602601208615,-0.1849469710753906,0.241769032421346,-0.0394825482516266
1718277695239939630,-0.0106405250220355,0.0013705819900261,-0.0030828725533946,-0.184388567843252,0.2399446970446365,-0.0388040260740982
1718277695239953427,-0.0109455717001207,0.001165755710054,-0.0033434878175363,-0.1841315778961403,0.2382287013639879,-0.0381157985787466
1718277695241141770,-0.0109166136978946,0.0010036020469053,-0.0035742879537713,-0.1843452368477018,0.2366080687822611,-0.0380900771121285
1718277695242426494,-0.0111294342317937,0.0009967853324335,-0.0041603650917516,-0.1857104055261296,0.2350929978863344,-0.0379758502842722
1718277695242435954,-0.0115274945310227,0.0009237635298078,-0.0046446526114689,-0.1867263871140555,0.2338195999611137,-0.037286428650396
1718277695243536179,-0.0118247091683748,0.000673977652961,-0.0050309398556936,-0.1873510282777397,0.2327180554055726,-0.036261150984005
1718277695244797012,-0.0121030707497131,0.0006219670134799,-0.005437725109577,-0.1883065725101645,0.2318044147738951,-0.0350770990226979
1718277695245976381,-0.0124636957502877,0.0005768368688566,-0.0061135015863794,-0.1895424221470914,0.2304538199297898,-0.0343191371479329
1718277695247215312,-0.0128399103665979,0.0006670816317551,-0.0066463654910986,-0.1909256468772771,0.2292536992911462,-0.0330649914988637
1718277695248441038,-0.0128197365726563,0.000640762428728,-0.0067485402286463,-0.1911665570139873,0.2276932016522418,-0.032503067998658
1718277695248452073,-0.0127732066353624,0.0004393399009635,-0.0067075855686989,-0.1909424368990052,0.2264181918151102,-0.0323514285815597
1718277695249654394,-0.0130192647774808,0.0003581134288425,-0.0069514076167101,-0.1911833430346911,0.2254095846924148,-0.0320322591553079
1718277695250896856,-0.0130303211546064,5.472585477061695e-06,-0.0068812697051902,-0.1903742016859755,0.2249810685625584,-0.0321252282053525
1718277695252095599,-0.0132660716517258,6.889916759732178e-05,-0.0069639205545556,-0.1908999962827195,0.2249517837304479,-0.0316987753187197
1718277695253368884,-0.0132271763904639,0.0001122792199641,-0.007392699970613,-0.1920312331686732,0.2246352448151489,-0.0317158129579354
1718277695253377080,-0.0131796559409178,4.855649729530692e-05,-0.0074954517342062,-0.192579256559725,0.2241846261253857,-0.0318269583354582
1718277695254349595,-0.0132013175807119,-5.362249214707626e-05,-0.0074690703308604,-0.1928279955379674,0.2236199373450598,-0.0321687860612233
1718277695255642705,-0.0132371475542869,-3.432446149825813e-05,-0.007668956514951,-0.1934948516467641,0.2235963011951677,-0.0315025516287805
1718277695256833232,-0.01333813301738,0.000168994112727,-0.0078554657769882,-0.1948737693034747,0.223887212959823,-0.0306111332447171
1718277695258032177,-0.0132509447096428,0.0003850128718387,-0.0079776872733273,-0.1962971378967557,0.2238813239436624,-0.0305457451620648
1718277695259299443,-0.0131632282763421,0.0006065405433842,-0.008329630148976,-0.1981129908363706,0.2238651315987821,-0.0306103298588277
1718277695260556171,-0.0130290654539563,0.0007300344548884,-0.0085747321602807,-0.1993085458416938,0.2237986922142093,-0.0305763497679538
1718277695260567999,-0.0132359975743563,0.000665917620074,-0.0089557620903426,-0.200296913025951,0.2232914700162545,-0.0307076934684873
1718277695261719270,-0.0134552057220822,0.0007498780417297,-0.0088674341760357,-0.200854609496701,0.2229267231198077,-0.0314202607798168
1718277695262911581,-0.0137025711763418,0.0009339764243105,-0.0092440645938505,-0.2026145978213919,0.2228703930989344,-0.0314974978804195
1718277695264914640,-0.0141559605099437,0.0010360861460178,-0.0096188576271665,-0.2041580795420657,0.2223470600520135,-0.0319527876955234
1718277695264920886,-0.0142886213307214,0.001254549292501,-0.0100847816863285,-0.2061693713618076,0.2219644218750955,-0.0332968079182822
1718277695265823402,-0.0144257279750182,0.0015689069279347,-0.0107451688950914,-0.2086690113228088,0.2221360538695296,-0.0337879517389434
1718277695267126416,-0.0142777068569015,0.0019020159002006,-0.0113528065337221,-0.2114813962475324,0.2227099547454467,-0.034359768870901
1718277695268372422,-0.0140291727986894,0.0021939002915775,-0.0119914425448393,-0.2141169013374781,0.2235264284570262,-0.0350940456739274
1718277695268414686,-0.0138660795838892,0.0024128825337513,-0.012539375922912,-0.2162118706102642,0.2241326744297148,-0.0362206113993669
1718277695269711321,-0.0135896866919779,0.0028919020426984,-0.0129885720609466,-0.2186944323125772,0.2247938657575589,-0.0373812890888093
1718277695270701420,-0.0130818060916607,0.0033947120790319,-0.013351671127941,-0.2211941254321067,0.226023298252382,-0.0385992259598529
1718277695271909124,-0.0126261391613232,0.0039236023038225,-0.0133991577983351,-0.2231266770283263,0.2274838912281057,-0.0398132312042204
1718277695272991700,-0.012294007434394,0.0044195481921915,-0.0134907524952998,-0.2246630778217753,0.2291466092015853,-0.0404995653732027
1718277695274248165,-0.0118306626531271,0.0046864337443507,-0.0130926819596104,-0.2245534586840557,0.2308955825546487,-0.0411347784396832
1718277695274275447,-0.0115626456032294,0.0049318625059668,-0.0130164797133013,-0.2246609412603575,0.2322317286232356,-0.041640159380329
1718277695275471574,-0.0115395592955081,0.005139749317459,-0.0126668335426127,-0.2244260564024927,0.23323563598805,-0.041853877195564
1718277695276709751,-0.0118367343739625,0.0057599157309704,-0.0124738964509925,-0.2252873982165774,0.2336999560871651,-0.0416953017176542
1718277695277926445,-0.0116590376907809,0.0063526119968032,-0.0118576616666588,-0.2253606762055293,0.2349654349791445,-0.042399754566663
1718277695279134851,-0.011467042577652,0.0067343159665013,-0.0109512942543162,-0.2243329353302846,0.2362699073274666,-0.04293243390862
1718277695280375675,-0.0110120693719275,0.0072004365257204,-0.0104712305904619,-0.223843453510273,0.2370212202617964,-0.0439544861221119
1718277695280384769,-0.0108194629213692,0.0077113278799155,-0.0096872601906045,-0.2230169174288666,0.2374829151723702,-0.0451375742768482
1718277695281645399,-0.0107874476818971,0.0080520213085636,-0.0085385621369097,-0.2210792471231236,0.2382649403063387,-0.0458870781809503
1718277695282875525,-0.0108553158621209,0.0083248940164321,-0.0075199185035065,-0.2191360228388431,0.2386011972913394,-0.0464380323095733
1718277695284054461,-0.0109536754785123,0.0086573412508867,-0.006512198850709,-0.2173651035544647,0.2393931995618201,-0.0471478141829705
1718277695285452784,-0.0112052075864597,0.0089223788305568,-0.0052244032743198,-0.2151397271154486,0.2397589103623384,-0.0477854050172242
1718277695285464871,-0.0115933579231851,0.0094411412815047,-0.0043280149698031,-0.2141700417741868,0.2403669304891295,-0.047977424803844
1718277695286744527,-0.0119340079760711,0.0097968262331087,-0.0033011382762238,-0.2123013301488871,0.2412005717949456,-0.047957643569389
1718277695288055160,-0.0121761993450192,0.0101157787295572,-0.0021681366207944,-0.2104898753368017,0.2415427981191357,-0.0480574193277505
1718277695289206213,-0.0124143207504939,0.0101607658715851,-0.0011828499279059,-0.2084981258325816,0.2421735328704219,-0.0475687752999572
1718277695290888953,-0.0123306824593522,0.0102047871548005,-0.0003016901334651,-0.2066454941428737,0.2429459611540644,-0.0473106785895161
1718277695290902023,-0.0121566739657808,0.0101978741729488,0.0002443910815844,-0.2055726135791016,0.2431995220378354,-0.0473475336866127
1718277695292095285,-0.012001259830303,0.0100343699791431,0.0008353042106467,-0.2039833063647989,0.2436768848243178,-0.0476319394168963
1718277695293389163,-0.0118376273960419,0.0098939447368277,0.0012188495322861,-0.2025535541218355,0.2438244722529729,-0.0484046778599053
1718277695293397545,-0.0116626845446782,0.0097373510311381,0.0015826991697243,-0.2009168853285308,0.243483959956154,-0.0490505292180256
1718277695294590045,-0.0113173700420236,0.0096276491139456,0.0020671487498808,-0.1992727579143914,0.2437086882086117,-0.0495837426796075
1718277695295819881,-0.011372802642791,0.009591509920118,0.0024849337558135,-0.198013534628777,0.2435588313956397,-0.0494364157773095
1718277695297027581,-0.0113606917885471,0.0095086540213657,0.0028390883349102,-0.1968390131230785,0.2434461941403594,-0.0492030839438761
1718277695298235576,-0.0113416108363318,0.009316217331946,0.0037110235795699,-0.1947622547688507,0.2431659383566585,-0.04859416666437
1718277695298247220,-0.011433666752597,0.009010202908072,0.0045678139073337,-0.1924607927145994,0.2428080086320234,-0.0477488399010276
1718277695299538332,-0.0117105488860796,0.0087684669580898,0.0050056598274174,-0.1912147998836218,0.2423738495350152,-0.046938533583972
1718277695300739550,-0.0121179513489163,0.008517966741961,0.0051575325273331,-0.1903446261710098,0.2418347867079692,-0.0456470169834157
1718277695302024048,-0.0123344736942873,0.0085153458663057,0.0050711806235914,-0.1904824243281687,0.2412922035788773,-0.0450243842100378
1718277695303230500,-0.0124383071941152,0.0081276574873882,0.0053124563333223,-0.1892729771330051,0.2408936515578026,-0.0450452595169869
1718277695304477640,-0.0126957644990394,0.0077884179222688,0.0051131896959497,-0.188910455436582,0.2399293114354256,-0.0451582726114727
1718277695304493871,-0.0129526662619553,0.0076030986338022,0.0048469960404726,-0.1891269839683612,0.2391625541186924,-0.0442529981411708
1718277695305658653,-0.0132135177736454,0.0073951228354843,0.0045533366020022,-0.1894974479850488,0.2385384392023231,-0.043673946107283
1718277695306898218,-0.0135665951228877,0.0070780493787674,0.0043466505772826,-0.189222601886184,0.2375295928082796,-0.0433275831065908
1718277695308091394,-0.0137162704557419,0.0066712964119008,0.003985047482595,-0.1888394087613945,0.2364562451785464,-0.0433631186354161
1718277695309366315,-0.0140769650858483,0.0062396751102202,0.0035779274387355,-0.1886989281093052,0.2357851436301373,-0.0426798466674732
1718277695309377530,-0.0145223966500368,0.0060784980154332,0.0029901324689493,-0.1896222152603377,0.2354135447149132,-0.0420859810410827
1718277695310506079,-0.0151110891785418,0.005835466810943,0.0022739065660752,-0.1904200975484942,0.235265990750009,-0.0408832938666704
1718277695311714159,-0.0159372098076686,0.0052617190388913,0.0016663277515839,-0.1904107749294628,0.2347426392637062,-0.039545909485275
1718277695312919139,-0.0163714105663855,0.0046697727051685,0.0010912703520536,-0.190338925331725,0.2344406005786859,-0.0386076033121182
1718277695314107741,-0.0164884253438694,0.0039980017901251,0.0004420846500957,-0.1903788037399146,0.2341231453196112,-0.038742357200796
1718277695315420803,-0.0166612327376091,0.0033249984810145,-0.0001691351931764,-0.190475958808844,0.2339983212662814,-0.0385578305005057
1718277695315431000,-0.0167329085416552,0.0025020428711555,-0.0007986623249646,-0.1902826735580731,0.233989630646925,-0.0386107510428303
1718277695316596344,-0.0167898896891015,0.0016309881392457,-0.001488937062498,-0.190043368023695,0.2337106074166533,-0.0390676258716811
1718277695320987557,-0.0169064481014441,0.0008420877606855,-0.0023015680092483,-0.1898446988701297,0.2331275440225541,-0.0390657754814659
1718277695322725551,-0.0168093384214277,0.000340449165321,-0.0034506824299606,-0.191066173336489,0.2321902854980717,-0.0399283456245584
1718277695322743979,-0.0165913612004331,-6.88426380923558e-05,-0.0046403432926505,-0.192532865769231,0.2318383618841653,-0.0403708953738281
1718277695322762457,-0.0164648498538411,-0.000342674058821,-0.0055782027486235,-0.1935043519146983,0.2310975780173994,-0.0409829698101973
1718277695322771244,-0.0165574720157998,-0.000781229596505,-0.0063380613024845,-0.1941462827532439,0.2302342365789283,-0.0411572661387102
1718277695322787000,-0.0164558063482966,-0.0013276290845692,-0.0070476423158458,-0.1942999319504408,0.2292912759178331,-0.04214128009705
1718277695323787302,-0.0162095019580026,-0.001909310931383,-0.0076715169094686,-0.1940556783544382,0.2290409608325171,-0.0428691436261156
1718277695325039935,-0.0160787074838478,-0.0023961868767016,-0.0080439951097273,-0.1933191144553745,0.2290129556533854,-0.043140679381333
1718277695326142141,-0.0160975270952425,-0.0026628614206875,-0.0083582753778396,-0.1929297415533939,0.2286471535209947,-0.0432417934764969
1718277695327482154,-0.0157614345736807,-0.0029997478351135,-0.0086145378234647,-0.1923497191842866,0.2290560617624417,-0.0434535124825657
1718277695327492104,-0.0154232630354949,-0.0032910215209291,-0.0089553761747039,-0.1919821486358166,0.2295232498372306,-0.043677578093618
1718277695328717906,-0.0151817728533674,-0.0037147340502111,-0.0088999275248702,-0.1908608068698243,0.2301906284479858,-0.0435369131691032
1718277695329956785,-0.0150001970367393,-0.0041717740021201,-0.0087440623630341,-0.1895822320258575,0.230830103916189,-0.0430316159200381
1718277695331173813,-0.0147298911335798,-0.0046123129685809,-0.0086857311566295,-0.1880395701464865,0.2309650426653963,-0.0430732429722955
1718277695332423219,-0.0145211448374159,-0.0049395169894694,-0.0085248226371808,-0.1864943817680928,0.2311804548122304,-0.0423376691813823
1718277695332438123,-0.0142890003877483,-0.0051235800305093,-0.0081729738420651,-0.1848002510461969,0.2319789526384026,-0.0413517683223243
1718277695333670870,-0.0138292289807238,-0.0051888850040276,-0.0079352535647481,-0.1835050617151942,0.2327248132501416,-0.0407538979272186
1718277695334894834,-0.0134723336365638,-0.0052175233449549,-0.0077179151310582,-0.1823914840932958,0.2333673439994311,-0.039927037597396
1718277695336102015,-0.0130848734616039,-0.0052467638535333,-0.0073938786751465,-0.1807700575291988,0.2344089615576771,-0.039454478462636
1718277695337355051,-0.0128705311522454,-0.0053144172353878,-0.0068422344150767,-0.1788672474029809,0.2352714354476628,-0.0391989527458454
1718277695337366959,-0.0127542654157373,-0.0053064508528235,-0.0063946994004542,-0.1774349898850744,0.235861518023723,-0.0385337398058836
1718277695338578199,-0.0128271883219918,-0.0051030882800428,-0.005952539449454,-0.176637490605279,0.2362173117434593,-0.0379037178450708
1718277695339828261,-0.0127716216804508,-0.0051388826191424,-0.0052447500541862,-0.1748598729452795,0.2363881334627007,-0.037603070795572
1718277695341635721,-0.0128738892936341,-0.0052049360373868,-0.0047811795340359,-0.1732394918535653,0.2365675041620758,-0.0375579321513679
1718277695343062394,-0.0126320654211696,-0.005339028411512,-0.0046212105819204,-0.1720702207047812,0.2372386788580517,-0.0381453197448973
1718277695343070348,-0.0125693616307386,-0.0056632691495775,-0.0042958919958248,-0.1704575682164867,0.2376225757945118,-0.0382040886541439
1718277695344180648,-0.0124524997323611,-0.0058680877680816,-0.0037363746451103,-0.1683964518523908,0.2383349424643921,-0.0381453085535699
1718277695345512076,-0.0124325141248227,-0.0058886373670897,-0.0032382383797089,-0.1668243635995279,0.2387302222432713,-0.0382197214398782
1718277695345520021,-0.0122415664679943,-0.0059831705156737,-0.0027891191727629,-0.1652277019689224,0.2394442056493503,-0.0388992532920231
1718277695346731704,-0.0119112067942119,-0.0061724436941338,-0.0022858720915986,-0.1634654622556806,0.2404782801028933,-0.0395026579271437
1718277695347883580,-0.011718484083111,-0.0066274285022858,-0.0016498955163826,-0.1610101906035284,0.2410884574318888,-0.0392291927211558
1718277695349094755,-0.0114408639089681,-0.0069639738065983,-0.0010227369029647,-0.1586774818216855,0.241791862664965,-0.0394025769235775
1718277695350307817,-0.0112048994293942,-0.0072332182686931,-0.0004359697008637,-0.1566513348358502,0.2425061980111845,-0.0394357236512325
1718277695350323468,-0.0108613742684958,-0.0073082739874745,0.0001960976567552,-0.1551593902341538,0.2437706868823972,-0.0391675463332345
1718277695351570059,-0.0107432745687427,-0.0072928415889628,0.0005684449019157,-0.1545041260253537,0.2443520589543945,-0.0390644749395583
1718277695352838274,-0.0107538503523909,-0.007107826813485,0.0007168845346016,-0.1545954931094477,0.2445775973981949,-0.0384925225251099
1718277695354038826,-0.011022095000323,-0.0069385169382684,0.0009814932541891,-0.1545545057638193,0.2443771076294345,-0.0378245892142476
1718277695355032840,-0.0112549802715887,-0.0068015232058914,0.0013107889562693,-0.1543471036239109,0.2440025302196193,-0.0375199410419743
1718277695356187480,-0.0113996667171438,-0.0065155936380651,0.0015231807409513,-0.1548007635323516,0.2435285364458209,-0.0375050937699244
1718277695357493289,-0.0114727731144586,-0.0060901096044386,0.0017024315937154,-0.155603562564946,0.2430872802691959,-0.0382459627769005
1718277695357502615,-0.0116878950110134,-0.00567516226981,0.0020346616859451,-0.1563317412193871,0.242500406147093,-0.0386817228760038
1718277695358623494,-0.01174991773374,-0.0054604190907693,0.0024832525275594,-0.1564323097473812,0.2425531035531599,-0.039466660506966
1718277695359868954,-0.0117753041402446,-0.0052819381838592,0.0030119176189444,-0.1560547748969554,0.2424873095396168,-0.0401051722314457
1718277695361020519,-0.0117797144911342,-0.0051928245704117,0.0036270800424621,-0.1553753241063742,0.2422734248996677,-0.0407408908954206
1718277695362250604,-0.0117625935477316,-0.004832171001711,0.0037736662946177,-0.1563779343344911,0.2419077862717401,-0.0410322439059945
1718277695363462121,-0.0118711663236227,-0.0043492350934368,0.0037285307478081,-0.1582820800085448,0.2414017733245577,-0.0421279619326672
1718277695363472206,-0.0118916925952115,-0.003915581424752,0.0035413926107766,-0.1604571965322453,0.2418574919238926,-0.0430524611873681
1718277695364697190,-0.0119478319991435,-0.0036075843665677,0.0033065461739125,-0.1625138032283349,0.2418766173950267,-0.0440532002147816
1718277695365896360,-0.0121508018029362,-0.003424714846613,0.0029846571118225,-0.1644866679654385,0.2412496780223486,-0.0451307507471542
1718277695367545632,-0.0123620947655539,-0.003228636888653,0.0020005465536331,-0.1675424541581474,0.2405579085759456,-0.0458496261560438
1718277695367564961,-0.0126542751432017,-0.0027014043904927,0.0013476516839381,-0.1710586648349301,0.2398276832650705,-0.0465876931691841
1718277695368723271,-0.0128597419509921,-0.0023775625086962,0.0011376570170007,-0.173171261863729,0.2391364223958775,-0.0467080757985546
1718277695372141322,-0.0133913950097217,-0.002059085096922,0.0007891166825661,-0.1755019908206785,0.2379948038188664,-0.0468228219896467
1718277695372162175,-0.0137106943627881,-0.0020162581194499,0.0006083268502409,-0.1770160981305815,0.2366013141579122,-0.0476662729277728
1718277695372181286,-0.0137554128321237,-0.0020743795798331,0.0003278589670821,-0.1784099368774609,0.2354944629625748,-0.049267248506314
1718277695372983104,-0.0137434222798574,-0.0021879615412044,0.0001637836416477,-0.1793795615108877,0.2343761306383484,-0.0507692470634119
1718277695374845456,-0.0137319045283659,-0.0023661327106155,0.0002245181731299,-0.1797592124700674,0.2336364793888793,-0.0526799059214931
1718277695374861164,-0.0139792163223568,-0.0026121607663504,0.0002870648660458,-0.1799373622815903,0.2327069661324112,-0.0538691916063446
1718277695376010034,-0.0142002502167533,-0.0027728926918031,0.0001031023533202,-0.1806795291570196,0.2315195129024818,-0.0555022405129808
1718277695377158774,-0.0148444487582613,-0.0030400414370499,-0.0001592476378917,-0.1815112704179297,0.2303902745703312,-0.0557900350961418
1718277695378422237,-0.0153389610911525,-0.0032367290678112,-0.0001052860917763,-0.1818064335940893,0.2292000937020814,-0.0571627436166126
1718277695378438397,-0.0157752998806333,-0.0034284183778305,0.0001857635238407,-0.1814822075985959,0.228103201411405,-0.0584153898446227
1718277695379637499,-0.0162895905720331,-0.0034759978443598,0.0005607634799139,-0.1812656203885227,0.2269708084219561,-0.0589302841630287
1718277695380849499,-0.0169282476097981,-0.0034639147597666,0.0006129205390274,-0.181715190034492,0.2253721811347593,-0.0597219305202378
1718277695382055810,-0.0169990628542398,-0.0034579657581549,0.0008238787666738,-0.1815801575787957,0.2243318773600937,-0.0616219061282946
1718277695383338161,-0.0169797631636782,-0.0031507005343768,0.0010441406440417,-0.1819829884984255,0.2228711529602534,-0.0633463478516312
1718277695383346470,-0.0170313666805804,-0.0028565846567244,0.0012660377633366,-0.1822627262130291,0.2217226350054256,-0.0646272998994584
1718277695384450720,-0.0171094853052793,-0.0025272944241146,0.001518124482114,-0.1823679531614316,0.22074887993456,-0.065481082703465
1718277695385647794,-0.0178498340686745,-0.0019794610822092,0.0017308971869814,-0.1828452979661333,0.2193119615198825,-0.0656426657513551
1718277695386846521,-0.0183597399434574,-0.0014323695621038,0.0018852743788416,-0.1833127591012311,0.2180960394422967,-0.0660533858027661
1718277695388437787,-0.0184157930169919,-0.0009047366477467,0.0023345389853126,-0.1835112355984879,0.2176740075585486,-0.0669305563051793
1718277695388467867,-0.018490815291855,-0.0002432768396266,0.0025846154893003,-0.1845336629370159,0.2171018661765206,-0.0673674051119116
1718277695389646840,-0.0189753657308851,0.0004103524639889,0.0023163251776011,-0.1863292504714485,0.2165555066330238,-0.0670079388863843
1718277695390837135,-0.0190876879172632,0.0006601231458746,0.0021850978755217,-0.1871206160272773,0.2160356130269528,-0.0668009933789713
1718277695392723121,-0.0189961354809096,0.0009372315128436,0.0022600389403951,-0.1875652978826678,0.2156827190366552,-0.0670843401659523
1718277695394002318,-0.0191926912455894,0.0011297076857798,0.0024028525820062,-0.1877264391328779,0.2148809013495143,-0.0675216900126018
1718277695394024484,-0.0192558364226392,0.0012242678708473,0.0026382284023229,-0.1877513356481568,0.2142321272676725,-0.068384136306088
1718277695395292738,-0.0192637269653737,0.0013049464963114,0.0026954656872997,-0.1878807486118441,0.2138389746205146,-0.0690363782402084
1718277695395311700,-0.0192144809057301,0.0012509382298609,0.002861612951163,-0.1874773666344722,0.2135728115937449,-0.0696420252841238
1718277695396378218,-0.0192561137637035,0.0010629230803141,0.0034441792860961,-0.1859705392855226,0.2134397836884414,-0.0703255898193422
1718277695397725289,-0.0192449972117128,0.0008904968370263,0.0038659770024636,-0.1849064107706733,0.2133210180004063,-0.0707540980185841
1718277695398896351,-0.0194533514343616,0.0006997167882106,0.0043972331239112,-0.1834584700173304,0.2132676942111402,-0.0713745234694006
1718277695400104379,-0.0192129340594769,0.0005452642270301,0.0047198418130551,-0.1823859056333566,0.2135537665971581,-0.0721490065330413
1718277695401497338,-0.0189775587754743,0.000248240825993,0.0048752140520168,-0.1815053554544236,0.2137469432640398,-0.0732314908943056
1718277695401509122,-0.0189126345462146,1.917586320876361e-05,0.0046254468905121,-0.181445412254572,0.2137504174632271,-0.0739751042088473
1718277695402600613,-0.0187422013522381,-9.221948859637928e-05,0.0045359528190182,-0.1813955007677604,0.2136114351969386,-0.075998200014195
1718277695403827938,-0.018800149956342,-0.0001375955173537,0.0044326443913801,-0.1816029627069924,0.2134909584162017,-0.0776270745187037
1718277695405020701,-0.0191978764692464,-0.0004482396545397,0.0043047669995818,-0.181395781094005,0.2129025442105028,-0.078924813119423
1718277695406288110,-0.0198532442735072,-0.0008000591959184,0.0044001156177532,-0.180572237463319,0.2119854747737823,-0.0798572488717574
1718277695406297501,-0.0204503642151158,-0.0013554399212709,0.0048426516358742,-0.1786219518962845,0.2113683348222197,-0.0804217888851646
1718277695407512378,-0.0208847316206387,-0.0018446660863571,0.005067814233768,-0.1772120893020446,0.2108901459160026,-0.08145684360276
1718277695408719851,-0.0209941955859455,-0.0018835979190362,0.0045329455507477,-0.177798004866054,0.2105268566542101,-0.0830495180151353
1718277695409923802,-0.0211422448631048,-0.0020074097263954,0.0043036719260538,-0.1779742050047321,0.2103514607795581,-0.0836342316299276
1718277695411144605,-0.021185791642628,-0.0025001996813904,0.004184320427223,-0.1771918965914115,0.2104225310207393,-0.0838477276954496
1718277695412441612,-0.0210739986497043,-0.0029489559524037,0.0040012427945462,-0.1766572230903174,0.2106053638949217,-0.0837499818689309
1718277695412452086,-0.0208034659021242,-0.0033569033860958,0.0043066170346837,-0.175502405282482,0.2114110757820008,-0.083555458868256
1718277695413628440,-0.0206509102941503,-0.0038602360243047,0.004530365328051,-0.1746237878161591,0.2119200830782656,-0.0831231188446232
1718277695414854152,-0.0203876116688539,-0.0042308141004002,0.0048680271356619,-0.1735874627782185,0.2123821091155877,-0.0827244889790349
1718277695416060058,-0.0200857964839563,-0.0045703287772263,0.0047930446110598,-0.1733202512516462,0.2127345509456281,-0.0823503750024689
1718277695417413080,-0.019924709779002,-0.0049251891371638,0.0045549498968823,-0.1734241917224369,0.2130429534213314,-0.0819075858885053
1718277695417430415,-0.0198450746136248,-0.005442791793832,0.004173890601694,-0.1734114975926398,0.2129340715327035,-0.0811348032985808
1718277695418521760,-0.0198921710448044,-0.0061482680465688,0.0040534990044547,-0.1726834577774675,0.2125361451256338,-0.0801036195525123
1718277695419839013,-0.0198151501316004,-0.0068087072879816,0.0037813904581316,-0.1721316298535175,0.2123601904525315,-0.078735963091581
1718277695423471085,-0.0200040309594644,-0.0072336281830538,0.0029565771782773,-0.1730781416663497,0.2118398859338922,-0.078240793034282
1718277695424871538,-0.0203687076517002,-0.007733304021068,0.0024510046780944,-0.1732384921926191,0.2111455275623745,-0.0775119300526993
1718277695424892565,-0.0208248615644501,-0.0082095876051456,0.0018997594076766,-0.1734105313760532,0.2104393522808891,-0.0764970920240521
1718277695424935003,-0.0212015559632345,-0.0087752110538659,0.0016184170494498,-0.1729105818174798,0.2096300581073537,-0.0759933480855102
1718277695425034350,-0.021409425783813,-0.0092865216135913,0.0011380073411093,-0.1728021278909626,0.208613738631758,-0.0759771852944113
1718277695426079370,-0.0218035125009867,-0.0097314067614439,0.0007947614496587,-0.1725837268608487,0.2075062296941469,-0.0759797356783401
1718277695427882714,-0.0221476312465318,-0.0098466090214559,2.163325114022674e-05,-0.1734781628839238,0.2063883499822451,-0.0759290303664105
1718277695427894827,-0.0225616302630218,-0.0100410214701565,-0.000315151902778,-0.1735230694517704,0.2052955638964652,-0.0755537534121878
1718277695429111094,-0.0228441372619075,-0.0103801944095758,-0.0005265605304227,-0.173199165886672,0.2042608457713399,-0.0756789923051761
1718277695430326299,-0.0227307749687777,-0.0105623090441571,-0.0008089308491951,-0.1729910903041298,0.2037170410422703,-0.0760577941319765
1718277695431566141,-0.0225741758425884,-0.0105830734992213,-0.0010225372324751,-0.1731700511894165,0.2033918786412052,-0.0763299702479716
1718277695431578720,-0.0224748948408958,-0.0105856232068941,-0.0007725709944347,-0.1727765220398829,0.202838224843267,-0.0759038657228658
1718277695432802350,-0.0224738202212239,-0.0102850596330278,-0.0003356002777132,-0.1722763752119253,0.2026083603722189,-0.0760282692558637
1718277695434003390,-0.022318303146811,-0.0100425172854518,-1.4523662784291652e-05,-0.1714549366823881,0.2022310643620037,-0.0762045972775533
1718277695435220873,-0.0221841791789897,-0.0097939511996531,0.0003723926079041,-0.1705638756316407,0.2021952180947632,-0.0762698224639047
1718277695436487233,-0.0221642931244128,-0.0094929327543744,0.0007568394272137,-0.1698196043861929,0.2017763582648629,-0.0762355010695342
1718277695436494737,-0.0223597422334843,-0.0091115895883654,0.0011112901411726,-0.1693203379703852,0.2012611939451059,-0.0765570772069369
1718277695437705869,-0.0227212037810152,-0.0089152891409327,0.0012881047112436,-0.1688129124215844,0.2008023066572376,-0.0763725426095678
1718277695438941656,-0.0226148679499641,-0.008794939652013,0.0015934759773649,-0.1679755450416426,0.2009406302654683,-0.0768503011028772
1718277695440157877,-0.0226029179514604,-0.0087039770829642,0.0016915867130182,-0.1674882001832976,0.200850444268079,-0.0764283011996913
1718277695440893989,-0.0222456606334066,-0.0085914499221453,0.0014804636187231,-0.1676119153933703,0.2012526138199374,-0.0766751546888758
1718277695442086691,-0.0220030142608323,-0.0085060270915836,0.0013088532341652,-0.1675450982042334,0.2015687255942736,-0.0767904792721162
1718277695444298551,-0.0219427869433265,-0.0082741527375034,0.0010179798819211,-0.1681115277490868,0.201526449432874,-0.0767944750646434
1718277695445523275,-0.0220424502454577,-0.008036949169589,0.0006716930043454,-0.1686939511026113,0.2014902708923363,-0.0763575859960153
1718277695445540609,-0.0222102400625038,-0.0077743206004796,0.0005207091195881,-0.1689743297949925,0.2013060419927315,-0.0757147882406946
1718277695445551531,-0.022342085545442,-0.0076662026629231,0.0007095263805785,-0.1681055630589222,0.2009727618621351,-0.0748810302117537
1718277695446781735,-0.0223739686704043,-0.007666767604062,0.0011164484697686,-0.1664734773720548,0.2004353147520803,-0.0745260317493677
1718277695447989454,-0.0226195263390496,-0.0076788062954454,0.0014737957730288,-0.1649922999851447,0.1998088565068583,-0.0746555280647608
1718277695449193529,-0.022450146317105,-0.0076714292216717,0.0020562535976362,-0.1633461109472753,0.2000650338320132,-0.0751218530720783
1718277695450419982,-0.0223493240458831,-0.0076761463838685,0.0027595726382378,-0.1613489005883687,0.2000959947569549,-0.0756587567092076
1718277695450432240,-0.0222388707061603,-0.0076485536817646,0.003274274632354,-0.1596597940751584,0.2002459404077479,-0.0764523001250539
1718277695451645851,-0.0223624385587348,-0.0075093567814699,0.003583455882345,-0.1587800361303803,0.1999081009474174,-0.0767185726263165
1718277695452955683,-0.0226667214428933,-0.0075722217322539,0.0043679393370796,-0.1566619858341345,0.1993851956766211,-0.0775940435943968
1718277695454159033,-0.0227916567772716,-0.0075823783081318,0.0051853949339598,-0.154749731056699,0.1987545410728781,-0.0784650905340199
1718277695455397721,-0.0228176757062665,-0.007498928337556,0.005719927476916,-0.1536440882012398,0.1986103326367544,-0.0794725469376076
1718277695455415867,-0.0225674327151015,-0.0072976384612762,0.0062771740282714,-0.1526989553380601,0.1987937849615293,-0.0811590497675887
1718277695456607500,-0.0224898707740598,-0.0072740097573922,0.0068743047953695,-0.1513155168508707,0.1987113514491089,-0.0832101551329523
1718277695457846163,-0.022441169760919,-0.0073073703261595,0.0072692023100235,-0.1500135294039635,0.1985277199376535,-0.085503937458762
1718277695458751165,-0.0225083616685026,-0.007200033932666,0.0078550938562382,-0.148648433195961,0.1978025825531046,-0.0871467685476065
1718277695460098207,-0.022449181734996,-0.007333391540861,0.008527051213662,-0.1468818429452862,0.1973592129841178,-0.0888047784009406
1718277695461352763,-0.0222463664396545,-0.0074536966460358,0.0089142457800237,-0.1455524055453656,0.1970173202677403,-0.0901296721011509
1718277695461372142,-0.0222962944837587,-0.0075533995823489,0.0090779640386404,-0.1449040950157196,0.1967515541374422,-0.0914714951722182
1718277695462574950,-0.0224272860296435,-0.0078329378750621,0.009315160335508,-0.1439600750143898,0.1961576435575871,-0.0926793808387431
1718277695463793698,-0.022469864719692,-0.0079069991973641,0.0093770484884498,-0.1437585531565631,0.1957852449683374,-0.0940279983632776
1718277695465035541,-0.0224671899061957,-0.0079878901716786,0.0093204702318291,-0.1438801069276306,0.1956100150151931,-0.0951882335612277
1718277695466249868,-0.0224597503365015,-0.0082731167557626,0.0091051143760709,-0.1439619227305664,0.1954423382624479,-0.0961357054404647
1718277695467512688,-0.0225854191337838,-0.0085022573213077,0.0086570053502885,-0.1446271661210814,0.1953114469713772,-0.0963988099739144
1718277695467525683,-0.0228193770322744,-0.0085059793734067,0.0079601090069237,-0.1461915846240066,0.1946513021539056,-0.096005719392252
1718277695468716922,-0.0228122681459609,-0.0086249048791672,0.0072758243900681,-0.1477620309793585,0.194067380673223,-0.0957871899401945
1718277695469943031,-0.0228771978896478,-0.0087050305231855,0.0065641499099092,-0.1494920682168523,0.1935702221623061,-0.095786260389159
1718277695471176991,-0.0231219686197453,-0.0088794624230163,0.0059393094084575,-0.1509674483633582,0.1925928135182057,-0.0953360942017887
1718277695472380800,-0.0233728515338947,-0.0088626505584392,0.0048091439873874,-0.153759413680779,0.1914334123201987,-0.0952576591287001
1718277695472390948,-0.0234220049574063,-0.0089745761385623,0.0041069984297727,-0.1554643039301509,0.1903214080613861,-0.0954622453011307
1718277695473605982,-0.023565082003666,-0.0090677780294858,0.0030157628356286,-0.158014268889777,0.1890314589949642,-0.0958034021511278
1718277695474810951,-0.0239873804938432,-0.0090479722058656,0.0018220087881305,-0.161171495104197,0.1877692124066177,-0.0959546352302547
1718277695476027476,-0.0242587980683966,-0.0091679134261319,0.0009727423032327,-0.1635568353533132,0.1871017355649031,-0.095548767456639
1718277695477873527,-0.0247493916694349,-0.0093110016333285,0.0002511706232183,-0.1655959868594079,0.1863336486639261,-0.0946918288498737
1718277695479149732,-0.0249440311503031,-0.0094008068202089,-0.000534196406814,-0.1676206515109654,0.1854544605277511,-0.0936987065123273
1718277695479158361,-0.0254197991638336,-0.0094294412279565,-0.0010753279342447,-0.169606930507065,0.18463899974429,-0.0919909360911103
1718277695480408636,-0.0254415242314627,-0.0093622627675931,-0.0016077420323538,-0.1717622843370368,0.1842077581270329,-0.0913854245140007
1718277695480415389,-0.0252899618622903,-0.0092059511806199,-0.0022336921577489,-0.1742889321232836,0.1841556960653824,-0.0915597704355815
1718277695481619040,-0.0251805964892097,-0.0091761319481086,-0.0026025440385627,-0.1762142728171531,0.1838897975635952,-0.0915854661920864
1718277695482837014,-0.0251488380273527,-0.0090457492145293,-0.002969348695835,-0.1780478484138273,0.1834374461978841,-0.0912850935598625
1718277695484010538,-0.0251474119639259,-0.0085794331539412,-0.003518287163728,-0.1808589901952016,0.1828417598797415,-0.0914259041908887
1718277695485246363,-0.0252623387895124,-0.0081053738766614,-0.003713087785911,-0.1830112531095306,0.1825740559881477,-0.0915126893238506
1718277695486480282,-0.0252190649518719,-0.0075619113127138,-0.0038012720897923,-0.184929398009054,0.1827221252653369,-0.0914091700750588
1718277695486498232,-0.0251766094220531,-0.0070758756384407,-0.0039604050322569,-0.1864902999637714,0.1830070712002458,-0.0906779788454151
1718277695487740396,-0.0254533257491987,-0.0068720594427326,-0.0038994832026495,-0.1871116170776922,0.1828835323059621,-0.0900430224695347
1718277695488932977,-0.0255464069017603,-0.0066316986500078,-0.0038813234409763,-0.1879889711530839,0.1829976159365257,-0.0900382154454635
1718277695490268791,-0.0253304094576135,-0.0062584583755091,-0.0039560270445295,-0.1891860493356685,0.1832452718686679,-0.0902177952300826
1718277695491511659,-0.0253854536173231,-0.005936450995349,-0.003766171852881,-0.1895562404589893,0.1831356343851756,-0.0899312706835363
1718277695491518520,-0.0257056895364217,-0.0056670878825047,-0.0035598382389148,-0.1899566937899439,0.1828082530812428,-0.0890382588219675
1718277695492739944,-0.0260699534763082,-0.0054491048645967,-0.0034028931781424,-0.1900692716999107,0.1823067760242804,-0.0877654615969186
1718277695494918357,-0.0264765449491169,-0.0049708803270858,-0.003725258022148,-0.1915407815798936,0.1816953831180155,-0.0859546534721809
1718277695494929007,-0.026509523691448,-0.0046392689096544,-0.0033983600868255,-0.191585372484073,0.1817671985564948,-0.0839973003159531
1718277695496147428,-0.0263321808234902,-0.0046575766567602,-0.0024691198553662,-0.1897488419161608,0.181760302635494,-0.0832155962449717
1718277695497367489,-0.0264067258313478,-0.0045707064281621,-0.0017628655507614,-0.1884160341198786,0.1815526928253331,-0.0819020209612832
1718277695497390875,-0.0263735209951406,-0.004462587179497,-0.0009212114168779,-0.1868867864656928,0.1817093996341481,-0.0798584695648045
1718277695498520796,-0.0261508580340772,-0.0045697002261818,0.0001568488613091,-0.1843696876641731,0.1816722206543041,-0.0784492619418574
1718277695499815732,-0.0259127835152874,-0.0044602342926161,0.0012664967687384,-0.1820877110067721,0.181936503905798,-0.0763990020845289
1718277695501037569,-0.0260175007610563,-0.0043526480180232,0.002473583448213,-0.1796166625782416,0.1819864220133435,-0.0739327447610344
1718277695502251280,-0.0264089019633964,-0.0040402571626339,0.0036006116521002,-0.1777421101880137,0.1817450208304566,-0.0713393594386946
1718277695502265823,-0.0265519973775716,-0.0036711125752008,0.0047039329133673,-0.175896804362317,0.181808898158563,-0.0694669303259707
1718277695503435964,-0.0266705731595812,-0.0033507024401525,0.0058254893040509,-0.1738827529107243,0.1821843707488254,-0.0670312951573058
1718277695504697204,-0.0265476165670904,-0.0031710844271234,0.0067653247551038,-0.1721697651912179,0.1827115038926946,-0.0656676507391228
1718277695505812139,-0.0263976775606475,-0.0028778327045639,0.0075906135230027,-0.1706748457679368,0.1832301204936356,-0.0645956758954114
1718277695507107955,-0.0258725197151918,-0.0028118376558813,0.008452835269501,-0.1685737733857694,0.1838547623851717,-0.0636730643965551
1718277695508529154,-0.0252535639160283,-0.0028784481703895,0.0094013676724764,-0.1660093821600565,0.184509773582066,-0.0633783084748148
1718277695508546357,-0.024788143916817,-0.0028683129042687,0.0103961386497,-0.1634426693527975,0.1850904269594647,-0.0631928302024711
1718277695509817105,-0.0240940682951275,-0.0028491070462329,0.0114740955895841,-0.1608501034354955,0.1855154421312625,-0.0630454329766274
1718277695510959682,-0.0236769541569359,-0.0026495271261739,0.0125120155201557,-0.1589447948648652,0.1861375297488796,-0.0623979967880747
1718277695512212836,-0.0234001869762536,-0.0025058637743294,0.0136544737545116,-0.1566912265511944,0.1867288093204719,-0.0617438244145547
1718277695513452914,-0.0231072340275375,-0.0025777424095171,0.0149561908451896,-0.1536165418712662,0.1873961968924198,-0.0614168842152911
1718277695513459519,-0.0229527493751679,-0.0027239918429022,0.0160864575360502,-0.1509675649047538,0.1881042346380629,-0.060025601198747
1718277695514711547,-0.0225581561856192,-0.0029508157111155,0.0169565761457305,-0.1485348837106432,0.1887044607347991,-0.0591124949903326
1718277695515911027,-0.0218756351693729,-0.003098829482467,0.0175152208553201,-0.1470614662521049,0.1901504365212364,-0.0585366669716001
1718277695517158149,-0.0213344279085358,-0.0033504506486301,0.0177301109470848,-0.1459275090428703,0.1911217937142907,-0.0586754240675928
1718277695518388449,-0.0208278204963402,-0.0036770487885535,0.0176194889467462,-0.1453233234105971,0.1918318408539822,-0.0588215135376262
1718277695518397006,-0.0205280014107599,-0.0041423916740585,0.0175115654953895,-0.1445959560737698,0.1923632806178784,-0.0589381267149957
1718277695519586940,-0.0200480732308779,-0.0046267593720047,0.0175460943770662,-0.1436712692259905,0.1932405161023469,-0.0583097052102687
1718277695520806921,-0.0198744565883183,-0.0050378060508249,0.0174091269795181,-0.1431731001904584,0.1944632737138511,-0.0573417843332169
1718277695522029788,-0.0197210293321612,-0.0054994846181432,0.0170628778200845,-0.1432383212638037,0.1962887503195,-0.0558179457907363
1718277695525938238,-0.0194827969183972,-0.006116118947053,0.0169257729861023,-0.1425817871021719,0.1979027156644002,-0.0548089122692413
1718277695525953327,-0.019296928487926,-0.0068143581443023,0.016750796114061,-0.1417704900681238,0.1993927896143466,-0.0545227377792605
1718277695527235828,-0.0191405304912786,-0.0076591050022423,0.0164677655401037,-0.1406346864699112,0.2003026489010547,-0.0543165433604184
1718277695527249874,-0.0189654387972276,-0.0085883915866581,0.0161852953786158,-0.139439116664987,0.2013473195026511,-0.0536951810290112
1718277695527268226,-0.018658028233474,-0.0092520229385761,0.0152823412028023,-0.1397288761646223,0.2023545244982564,-0.0531877002798438
1718277695528445437,-0.0183009190831607,-0.0099415391282041,0.0144185861838531,-0.1400799622665476,0.2033177024296444,-0.0525120544516651
1718277695528452898,-0.0180952374124698,-0.0106562348179874,0.0136393491169514,-0.140336630306251,0.2041392329374072,-0.051328355423051
1718277695529664938,-0.0180711876607054,-0.011451412636303,0.0130249390827914,-0.1399595452431061,0.2045018713004724,-0.0499906405154642
1718277695530889581,-0.0177823020809045,-0.0122571952612536,0.0125458823955934,-0.1396129896762432,0.2051068188840698,-0.0494646660563298
1718277695532076094,-0.0174098298190147,-0.01302734197656,0.0120176527708759,-0.1395329243192333,0.2057804980238545,-0.0487439649478728
1718277695533361212,-0.0174113920691454,-0.0136834546393981,0.0114761724243819,-0.1395838303915572,0.2060269563868657,-0.0481797717642431
1718277695534618129,-0.0172513631499226,-0.014216545267623,0.010632887983875,-0.1403653129104529,0.2064137915330994,-0.0478164021662878
1718277695534648424,-0.0170970016234109,-0.0145633493946433,0.0097637215759329,-0.1417084167610446,0.2064125169333382,-0.0476239187649528
1718277695535863613,-0.0169432314434912,-0.0147852591362378,0.0087569503092597,-0.1436965810742875,0.2056098129927071,-0.0484226547276968
1718277695537068640,-0.0168859469553188,-0.0147926297881957,0.0074500682432745,-0.1465209342289353,0.2047234765945504,-0.0497895259877815
1718277695538311201,-0.0166792538984942,-0.0148784601240272,0.0065846094750146,-0.1484518757057753,0.2039673888898103,-0.0507471424213244
1718277695538320206,-0.0170597568640722,-0.0149763490507084,0.006134392184901,-0.149545340395248,0.2026610452534731,-0.0507033354856998
1718277695539547743,-0.0170369176563032,-0.0148566707955929,0.0053082373969975,-0.1514505924762272,0.2014851210079895,-0.0516938060355564
1718277695540797382,-0.0171427817789051,-0.0147443884980214,0.0049823742322763,-0.1524654484975652,0.2005062995443673,-0.0522645685425825
1718277695542012196,-0.0170815298282705,-0.0147935144052669,0.0048432797813117,-0.1527284762607265,0.1997314957352303,-0.0531524094970819
1718277695543225263,-0.0171227221887451,-0.0148153167286026,0.0044194386670469,-0.1532247300871496,0.198555668540446,-0.0537148598246978
1718277695544410033,-0.0168176197057163,-0.0148599835726107,0.0040066253218898,-0.1536190536242599,0.1976089742193169,-0.0547027930620445
1718277695544415764,-0.0165637780428348,-0.0150537195718755,0.0035513474619039,-0.1538621437624258,0.1964183264504295,-0.0554948276123612
1718277695545967564,-0.0167357173743504,-0.0149651706679289,0.0030516942193166,-0.1546242885066058,0.194378545644802,-0.0560560457724309
1718277695547189216,-0.0163673302722272,-0.0146488337313449,0.0025029427442203,-0.1559454788825316,0.1927294577304943,-0.0571692727250419
1718277695548397635,-0.0162619494668751,-0.0147219739080729,0.0025796328169654,-0.155703406082191,0.1911195572490771,-0.057915181159054
1718277695548420276,-0.016273701585525,-0.0147776492955609,0.0025352741843527,-0.1555864407705435,0.1895265417230854,-0.0585594586800374
1718277695549695722,-0.0164875857941883,-0.0147993008538446,0.0024876938680537,-0.1552552908755559,0.1876032121193255,-0.0586781550763125
1718277695550872078,-0.0165154360903014,-0.0148137031602946,0.002423941147425,-0.1548171329420793,0.1854604342374632,-0.0593308126393193
1718277695552149821,-0.0167007973427247,-0.01483049120268,0.0025871093096908,-0.1536659415430707,0.1833056592729728,-0.0600472305048252
1718277695553368265,-0.0169545026356809,-0.0148650730746163,0.0025444208640722,-0.152684244876008,0.1810732144641335,-0.061389084859463
1718277695553375207,-0.0170970537333586,-0.0150017796112213,0.0027398735934042,-0.1511202840336755,0.1789209146861832,-0.0617723033004281
1718277695554567649,-0.0174796986277681,-0.0154285424879654,0.0029751577145687,-0.1489213881787642,0.1768936405520274,-0.0617410132623614
1718277695555825434,-0.0175603460300949,-0.0156797227543387,0.0033143230806098,-0.1467966735862984,0.1750363658054188,-0.0624108998500617
1718277695557047158,-0.0177991452188722,-0.0158736055563764,0.0037916302809603,-0.1445122575034243,0.1728340679231047,-0.0630519774453331
1718277695558231377,-0.0180441851630839,-0.0160103216477848,0.0042361945225637,-0.1424016024386179,0.1709153935864535,-0.0635528291257278
1718277695559572343,-0.0182639051050521,-0.016091023272355,0.0044129012178451,-0.1409499814943164,0.168759007696139,-0.0641255532356196
1718277695559590113,-0.0187566588448874,-0.0161272459909742,0.0044937986865825,-0.1397029345689834,0.1665516482190728,-0.0644019715457868
1718277695560764836,-0.0190914523271253,-0.0160056243115397,0.004812617866328,-0.1384189367250334,0.1643675956269662,-0.0652216217746463
1718277695561965772,-0.0192113985442973,-0.0159572526905345,0.0054189862157211,-0.1365059974928761,0.1627431088788052,-0.0659159527400851
1718277695570298411,-0.0195226523425605,-0.0158298409670625,0.005843771287308,-0.1352033518205674,0.1615479133592088,-0.0664950478985033
1718277695572764206,-0.0197008008787626,-0.0158998476282183,0.0063210182616872,-0.1334199919202117,0.1607009575397106,-0.0668830791489821
1718277695572783158,-0.0194839889627694,-0.0158211013900912,0.0066685302990113,-0.1323399536698177,0.1604787757120234,-0.0680024756285006
1718277695572807332,-0.019031629906383,-0.0158599350981663,0.0072810870415426,-0.1309794114669131,0.1601846215930303,-0.0698850983449125
1718277695572824342,-0.0188993153326321,-0.0157285219174521,0.0076137216857824,-0.1304395285756455,0.1592623589042833,-0.0710924270540957
