%time,field.linear.x,field.linear.y,field.linear.z,field.angular.x,field.angular.y,field.angular.z
1718277695129785773,0.0661081544609134,0.096619149747061,0.2126813587874445,-0.2195632073747923,1.132385186977554,1.828785064396554
1718277695131009391,0.0491873291240725,0.1129739235221135,0.2444140005629312,-0.2301610810601388,1.0509579851343562,1.9213044986166825
1718277695132254244,0.034513353031984,0.1328971908414814,0.3389175273909889,-0.1051944442584669,1.077566695575534,1.8451130499809936
1718277695132268352,0.040508778879639,0.1365755975022811,0.279300380031425,-0.1552595933976076,1.1750342603365131,1.9100164066496248
1718277695133473825,0.0640030337220106,0.1135008617005571,0.2409005096794828,-0.1475299114191989,1.2265990252134822,1.821384728107619
1718277695135331034,0.065189327262947,0.0606861357783816,0.2705378519833192,-0.0089379143713707,1.236346600196561,1.836012048170851
1718277695136654467,0.074898546898764,0.1390215178680531,0.2237464967050238,-0.2647987848823777,1.2131012807150592,1.7036578339951085
1718277695136673637,0.026885651703083,0.2185298739248265,0.1118205206667812,-0.5915628305372966,1.210615524530824,1.9594421367071695
1718277695138070036,0.0733188262511101,0.1979511533978063,0.1832446885003504,-0.3983936789471335,1.1925538019953212,1.7736937914687991
1718277695139337187,0.1083490809155176,0.1742550064103154,0.1506971149181557,-0.4300023590633774,1.329125953407852,1.6999317878893767
1718277695139356032,0.0917629591284139,0.1541583685051918,0.1007345233537564,-0.383827079852778,1.4040541787528251,1.649311211543973
1718277695140586252,0.0608576155205134,0.1773864571137833,0.0638701708215866,-0.582527107417642,1.2774249544959246,1.650286093631158
1718277695141848238,0.0467628753104307,0.2002746759018343,0.1539738140039597,-0.4838020308021048,1.3123189363556729,1.4098379568820425
1718277695143081641,0.0808808791979365,0.1596405959644278,0.1193732239472867,-0.4718125542209096,1.3212535287142424,1.389235340308523
1718277695144314862,0.1241554350102261,0.1008150825867389,0.0671584879934984,-0.501419629515313,1.3390562055091428,1.2757613174020257
1718277695144340079,0.2229798941861612,0.1066714587872181,0.1014741413499578,-0.486991386768986,1.3503698227632783,0.892186371241418
1718277695145501858,0.2061927853276628,0.0863080907277824,0.1265297925527387,-0.4754545689071559,1.3507201475069834,0.8774588942278393
1718277695148713903,0.1926464769670961,0.1997426835149355,-0.0027169917149068,-0.8902742062072894,1.2936340332802485,0.7815748481044257
1718277695149710196,0.2512200686965924,0.1405964938385859,0.0092262776996576,-0.7838682252597057,1.3983140806122325,1.0916319983360712
1718277695149719459,0.2528870836887208,0.1613927171719643,-0.1147462628795806,-1.0522317873040443,1.3471626025923644,0.8953721297042256
1718277695150875067,0.2216364466225665,0.164124946930989,-0.0577997172356888,-0.9448989169472372,1.4557700772668067,0.9327515834345592
1718277695162288674,0.1564578143369502,0.1829692733169316,-0.1287093688989257,-1.1194414343308292,1.379910764328058,1.1213239648451885
1718277695164036465,0.1653135515661937,0.1958902954217288,-0.1095013856341974,-1.125410683990881,1.4003917578451628,1.2508258328898323
1718277695164049627,0.182078693649333,0.2426878369862989,-0.1838765591393542,-1.3971096671330965,1.4343470725923042,1.1854942250907048
1718277695164098245,0.2116142533837718,0.2243530460888798,-0.2090820499687936,-1.4325399785802917,1.3293841285406878,1.0842784189105164
1718277695164106697,0.141438688595518,0.2818863454787721,-0.240405537905192,-1.5922015525152735,1.2070137275268265,1.2802461509833023
1718277695164113813,0.048444298928427,0.2195332586280655,-0.199280082655742,-1.4436439269486012,1.110381319257714,1.4362883815110354
1718277695164142038,0.0385431665325566,0.2005200358061686,-0.2202658762496064,-1.426171920009805,1.1636639547873135,1.3083615411104104
1718277695164149238,0.1006351262120902,0.1442805672446934,-0.1752215713975342,-1.2722696207787971,1.0719965174905146,1.1994582719311988
1718277695164198897,0.109544901084929,0.2270529143350666,-0.0889690863232717,-1.3053003591447836,1.002290432212772,1.2712857135479254
1718277695164236407,0.1087041699852669,0.2264380036844959,-0.0911419638694727,-1.3083257912656834,0.9751941542303604,1.3017696321424477
1718277695164251459,0.1402346294192009,0.2550302223457852,-0.1795903002437356,-1.4727851986830995,0.9171577894507688,1.1933217983549245
1718277695164269514,0.1017114216489737,0.2356682897715089,-0.216361963376432,-1.484811622875545,0.8446993108551558,1.146419650451108
1718277695165612844,0.1146190991735642,0.1725813250836712,-0.1055993593852146,-1.176271154289643,0.6803375175043754,1.0102139980843297
1718277695165625160,0.0545214037710538,0.2633131319218309,-0.0929253298277063,-1.2474909404874706,0.5696741830984267,1.1668815486066386
1718277695166902139,0.0846203080112295,0.3266208638646952,-0.1417925692384988,-1.4202169361256811,0.6380816867581002,1.130277285612521
1718277695166915041,0.0812797596475712,0.2563114904396086,-0.1586976826960178,-1.2401241996060397,0.6958692517174143,1.0512594526408987
1718277695168129885,0.1053658025980557,0.1900790213109504,-0.0975571499735363,-1.0240530282688698,0.6933388436138672,0.9319147811727556
1718277695169397196,0.1111025974501331,0.2450646582259726,-0.090740743641043,-1.0599323661296804,0.5224268312516966,0.8420536372809594
1718277695169409734,0.0268705261501077,0.229715782373544,-0.0977624996210795,-1.0407011894421363,0.2750892973325591,0.9355017451666142
1718277695170580656,0.0523634241384476,0.2218491413895325,-0.1061978437425462,-1.0334952721306867,0.3080915879078747,0.7495733152230722
1718277695171715454,-0.0147989729734533,0.2416939861169529,-0.2436593668264055,-1.3055559140158233,0.2456318533717043,0.7992256524310236
1718277695172980106,-0.027956618430608,0.2964194008573051,-0.1636409577122399,-1.2362200884838197,0.3700184471014027,0.9216877139061924
1718277695174182422,-0.0192791957865098,0.2735826051415461,-0.0712945833020382,-0.9585868435495708,0.2830077839389319,0.9005562818788033
1718277695175385564,0.012256298903655,0.2344813543101226,-0.1352893390581467,-0.9317875447386568,0.1544444340568337,0.8671367914172392
1718277695175392798,-0.0008220656928283,0.3140780159435568,-0.1743024358699773,-1.073293794962355,0.1394072074096109,0.7294922517560506
1718277695176557708,0.0990919412061253,0.2586372461124139,-0.0548301827591528,-0.8464648910640562,0.2646775202985839,0.5331633095727525
1718277695177754954,0.0275896261230485,0.2781232774233191,0.0216150592152523,-0.689290499555423,0.1498679897524189,0.6471064687842223
1718277695178958721,-0.0315830697520155,0.241577210526259,0.0684839091977946,-0.4363650989208124,-0.0642612513310527,0.6329610855495363
1718277695180095093,-0.0625992026639888,0.2015954943555588,0.0627043354776954,-0.3748086437903007,-0.0768333461178912,0.6042661168922171
1718277695181375013,-0.1319386420769303,0.1905526913804534,0.0643130990062912,-0.3390436791270108,-0.2122752995443022,0.6179298909708261
1718277695181391195,-0.0537573643362919,0.2020877572008614,0.0538104769569882,-0.4434946632289558,-0.1882093017141576,0.5782999695666043
1718277695183158833,-0.0516601879949019,0.1781845827334942,0.0517415318300842,-0.3988412278407059,-0.1379502963055318,0.599057975432613
1718277695184400616,-0.0541974393070813,0.1641602619919349,0.1326825467918965,-0.1686267676644254,-0.2706044518382066,0.7481913695647794
1718277695185524049,-0.1271784539170222,0.1966838175708934,0.1742791717245219,-0.1825908567890216,-0.3593214612074331,0.8264000674850743
1718277695185537062,-0.1167926718176717,0.2041224664710625,0.1363113610778832,-0.2525171296383086,-0.2636207167226817,0.8137087885631488
1718277695186750591,-0.1758118246968446,0.1974048947194487,0.0992675184609832,-0.2881853333083691,-0.2760716003298899,0.8878840378254775
1718277695188891586,-0.2598820494306459,0.1292610922009401,0.0873952854504111,-0.1698450069710256,-0.3094847670084336,0.9708003387839408
1718277695190176997,-0.2307588477195046,0.1203761452635357,0.0450529426090889,-0.2524455782540449,-0.3351541851796427,0.7002173555543176
1718277695190185463,-0.2149664803877005,0.092744684588024,0.0323953915423383,-0.2221479502770025,-0.35577871337805,0.8123343755808978
1718277695191458031,-0.197503406631803,0.058213699732294,0.0099735989609114,-0.2399667470198852,-0.3393200486840489,0.7883189540296323
1718277695191497612,-0.2327907492488757,0.0349238965576046,-0.0146398152137862,-0.1910094080975865,-0.3223058940374267,0.9918321274607954
1718277695192613221,-0.1433838568059804,0.0478395351393319,0.0322153733450122,-0.172831011228224,-0.3375702656571903,0.6676417157874381
1718277695193802406,-0.2590607094274774,-0.0184617055726432,0.0804200568541429,0.0180207888603966,-0.3108598695390574,0.8243864075652809
1718277695195046590,-0.2328075813439829,-0.0287574385541814,0.1491009893370511,0.1106719358966167,-0.3285061050592304,0.8551073273923129
1718277695196222720,-0.2116108542362446,0.0049252157928946,0.0346083111160963,-0.1974649865274307,-0.3628688679552455,0.7972245419158086
1718277695197535278,-0.2511387452406867,-0.0321341419899189,0.0440912822628668,-0.0763458717623937,-0.3335664603421027,0.764642284489186
1718277695197549241,-0.3098914837402897,-0.1105314683508205,0.0634084088065109,0.1410913180125024,-0.3151898590221145,0.8917848852447824
1718277695198740047,-0.2838778861471311,-0.1583926767128474,0.0150955972701624,0.1766904600551034,-0.1678996954811291,1.068862096253619
1718277695199964903,-0.2486676196357831,-0.1371287795700598,-0.0328396636035157,0.0297967640460817,-0.104909215026849,0.9364142343379184
1718277695201033435,-0.2057946624755313,-0.1754027325686595,0.0029834458912493,0.2744300515354453,-0.0528096771068924,0.9508009540535431
1718277695202332918,-0.1947232219937033,-0.1881817063075023,-0.0077266672218134,0.3819150391314728,-0.1158705897160965,0.8706112620634638
1718277695202341025,-0.1387082559107838,-0.1756158650904196,0.011098136603714,0.3217016320572445,-0.0387311043698771,0.6231434011037416
1718277695203615995,-0.1513060595577019,-0.1666010374872128,-0.0551801767465421,0.1871506050066837,0.1712693473296418,0.6022552228301044
1718277695204766744,-0.1280787349298371,-0.1901074100667772,-0.1364146249866453,0.1183983387013239,0.1380734479632773,0.420959551511186
1718277695205958776,-0.1075102525525532,-0.2704560003757035,-0.1790602702797016,0.1312514299779904,0.1256064283012191,0.1904724671666049
1718277695207257296,-0.0251700549428701,-0.2802243612706128,-0.0880753385199188,0.3196239008206432,0.1392386578820266,-0.0721377804000452
1718277695207283186,-0.0081334293190752,-0.2599722947793207,-0.1050489417472674,0.3111594830567047,0.1426394036832236,-0.0888326716903901
1718277695208465932,-0.0817718083655974,-0.2524383434323684,-0.1393528716085965,0.1759706688544572,0.1646127796075068,0.0714555311240036
1718277695209665286,-0.1173742640631188,-0.2846140297905352,-0.065698157668887,0.4112483547362779,0.0189116481457527,0.1978503108937617
1718277695210919121,-0.2245289317584133,-0.2276628437609398,-0.1125480585780388,0.2416032310985698,-0.1193917873154525,0.287992732031849
1718277695212087353,-0.1396509176266976,-0.227526529834263,-0.1359259122645034,0.2747105236592145,-0.0540161619915236,-0.0298909822128403
1718277695213990729,-0.0812667110859273,-0.203882094477615,-0.0530325861104577,0.369028258201089,0.1680385511260221,-0.1008032397892063
1718277695214013827,-0.0960178738537508,-0.2074592728569214,-0.0892588765996294,0.3179977581986845,0.163116370045647,-0.243712921305735
1718277695218838606,-0.0488231137226732,-0.1782995934494644,-0.1293370982200305,0.2428184538566678,0.2742260143295223,-0.2995824698134526
1718277695220040087,-0.0681775247095163,-0.1555173433114025,-0.1362453715369802,0.1977789951735808,0.2243197361674649,-0.5012468759372559
1718277695220047118,-0.0576122171982014,-0.100933313579733,-0.2012414228731003,-0.0213625286509613,0.2916898589469914,-0.3603939962530904
1718277695220063160,-0.0070826357253327,-0.0745741314702027,-0.2354342207968348,-0.1346475130732963,0.4037751296650084,-0.4583450395071214
1718277695220081680,-0.0702347789663744,-0.0243271052630838,-0.2108786073824428,-0.2153648546957802,0.3290190252023423,-0.3013822772233741
1718277695220102715,-0.1511235909138124,-0.0296282304017029,-0.2074295921743574,-0.1677529788781626,0.1528450871439969,-0.2671344905028113
1718277695221071086,-0.0861871693871954,-0.0757406115325273,-0.1307795302470721,0.1021365161552518,0.1285957370985137,-0.345406528046187
1718277695222205662,-0.049401252519042,-0.0441658426843,-0.1398971316793559,0.0256142659167737,0.1169915414795659,-0.3868662955483802
1718277695223475926,-0.0613125584270652,-0.0965089817358615,-0.1166525499061098,0.1416984929900975,0.1353315806743384,-0.2536442376797567
1718277695223485064,-0.0920797034271965,-0.0653872424598896,-0.0478549527293345,0.2064039803363828,-0.0207839908018978,-0.121519671308084
1718277695224651518,-0.1545015746239093,-0.0039796213780335,-0.0653013648508844,0.1050324783175706,-0.123979357395752,-0.2245649415946789
1718277695225860748,-0.1506601259960402,-0.0145343426983909,-0.1092477145352186,0.0691740399191824,-0.1950714650980271,-0.2782781218277362
1718277695227099515,-0.1514804858934276,-0.0381466711736811,-0.0603733963978061,0.1553884853347179,-0.2673751217065722,-0.3449736452539075
1718277695228725175,-0.2009362675149842,-0.0895063716016338,-0.0240031128126729,0.3775904539004521,-0.3485500395220064,-0.3227861079091546
1718277695228738802,-0.2476352617827962,-0.1081627374879,-0.0453561221016256,0.4157966024163101,-0.2502872180083477,0.0486194538685603
1718277695229854361,-0.2688062208791086,-0.1045956808214861,-0.0459936577513291,0.3565162006273025,-0.3243083295424175,0.0668922529317078
1718277695231087827,-0.2414001836674855,-0.0669411413843075,-0.0305299786391312,0.3112554450537214,-0.4002623613235533,0.1093423568390751
1718277695232222257,-0.2455753098265087,-0.0680215221490328,-0.08733311651551,0.2230873019445093,-0.4133591039704078,0.1348227178196544
1718277695233469265,-0.1603083402064748,-0.077557779362942,-0.0441587609094953,0.306998939137116,-0.3047655424088017,0.1853347382583032
1718277695233494274,-0.1434416147433381,-0.1166871023791699,0.0052510527657355,0.4507233664470512,-0.3927771725119575,0.0566011090486282
1718277695234667676,-0.2286022895454289,-0.1001794871829842,0.0564504964084066,0.5280966867014362,-0.5416392334699467,0.1550381281692376
1718277695235856004,-0.2886213795691668,-0.0361889966427948,0.0303739137719099,0.3721748643713271,-0.6605884809966045,0.3019957036653924
1718277695237066600,-0.300848367193113,-0.0625572669791709,0.0089564163352131,0.3720614760154238,-0.7472975345449251,0.3234607345019069
1718277695238290796,-0.2582146718933131,-0.0727469323562008,-0.0421248789437328,0.3438321322393358,-0.7345638811050945,0.2769006773843613
1718277695239970618,-0.2561105744075473,-0.100252400397007,-0.0896022694290221,0.3682006677775566,-0.7692924979994319,0.2415168168493107
1718277695239988651,-0.2366373761290654,-0.1149479337214725,-0.1040657858359606,0.2910471842017482,-0.7722172552928709,0.2576769920846706
1718277695241147201,-0.1476413757846871,-0.1059167390235656,-0.1008229937803971,0.1615021450662526,-0.7742209250169751,0.0895995502519968
1718277695242458541,-0.2082204727524494,-0.0652517660250986,-0.2016556397985989,-0.1640273250281334,-0.7709356933404947,0.1120351572679385
1718277695242470678,-0.2589943615217711,-0.0815685879836835,-0.1856538491694656,-0.1061322870135865,-0.7282682716647758,0.2694186574868925
1718277695243561330,-0.2358660125853875,-0.129561830697995,-0.168049933097161,-0.0268656512022701,-0.6977671490558193,0.3741835104893803
1718277695244808898,-0.2328033513102269,-0.0793076385661129,-0.1803918958864322,-0.1355015716283106,-0.659096768615567,0.4380880508053282
1718277695246024866,-0.2565438236142452,-0.0765287719609046,-0.260593698809082,-0.2367176744454817,-0.7853757277635947,0.3442384530048208
1718277695247226083,-0.2638758978518135,-0.0386128376753562,-0.2341407148427749,-0.3079004033465267,-0.761089671569454,0.4921471058522706
1718277695248460337,-0.1593943873285606,-0.0664420419942206,-0.1260368053270122,-0.0293012741916479,-0.8733551209627065,0.3269712647313816
1718277695248478038,-0.1467737360546361,-0.1130113929760068,-0.0862684451265256,0.0909810957060492,-0.8165210515293544,0.2224682391393073
1718277695249669319,-0.2207613033059383,-0.082963790181499,-0.160042429439244,-0.0318113144333791,-0.7579044164333919,0.266608776861039
1718277695250912533,-0.15749027058672,-0.1568830844586788,-0.0770936291506332,0.2481936877883656,-0.6074212477597538,0.1554538619333133
1718277695252091901,-0.2141531900701466,-0.0493765175490164,-0.1139901467108546,-0.0988183788239367,-0.4929333307872159,0.289242618771824
1718277695253380366,-0.1398311425833528,-0.0512632513448824,-0.2075727940985499,-0.2770763943612501,-0.556416301551593,0.1722893216282067
1718277695253395267,-0.1321875013800097,-0.077732051628172,-0.1253956993559782,-0.14418039279988,-0.5865033360038614,0.141149787411884
1718277695254360101,-0.1457082766240021,-0.0878455604044793,-0.0895045313812561,-0.074249647443991,-0.6136742929752957,0.0709196633631526
1718277695255645198,-0.1457199285692888,-0.0551317803789831,-0.1476666377798242,-0.1946667483677199,-0.4644795025944709,0.3331478248320663
1718277695256846122,-0.1600644889488904,-0.0026810450632817,-0.1454241922651225,-0.4023919655379878,-0.3647943538719356,0.4048221001464046
1718277695258043083,-0.1069452174410435,0.0070644882105893,-0.1292097346595472,-0.4443657545454009,-0.4259909708134571,0.1935623152888636
1718277695259311185,-0.1008111259420427,0.0149548669963979,-0.1916477105014659,-0.5816116851129983,-0.4155819289439426,0.1542522514029958
1718277695259356131,-0.0823761029137245,-0.005572325880672,-0.1672460767647428,-0.4493993295437595,-0.4166871606889408,0.1747953178883712
1718277695260565777,-0.1688848863691919,-0.0527559703032781,-0.2068896410635459,-0.4154540970766449,-0.5265089496284652,0.1253359193914166
1718277695261818547,-0.173330466811423,-0.0127341886418187,-0.0840156071942992,-0.3157822276765297,-0.4871770212547036,-0.0413512695137245
1718277695262943430,-0.1823128821593161,0.0174258300911826,-0.2053537827626283,-0.6512473355734434,-0.3992512782122785,0.1113188730578316
1718277695264944373,-0.240501096349929,0.0002454297909171,-0.2102028438459382,-0.6260758955500914,-0.5157284449871066,0.0021060043683564
1718277695264951197,-0.1595332261174972,0.0350149200111216,-0.2399383773386475,-0.7808818850614915,-0.4775744570518996,-0.2537378952947761
1718277695265832941,-0.1598946678777399,0.0668010193369667,-0.299904962115509,-0.9522283767651176,-0.3230004021859378,-0.0543440518719668
1718277695267137311,-0.0812234770296961,0.0793914454748865,-0.2962140348836591,-1.0843113575840877,-0.1976470559043788,-0.0904857646957091
1718277695268468554,-0.0467207725823516,0.0757515398327595,-0.3139001497615331,-1.088167807921206,-0.107043371321237,-0.1495480967532542
1718277695268492937,-0.0611135779973798,0.0623642979897555,-0.2990655963888621,-0.9872033090683204,-0.1359508415408621,-0.2743320251090188
1718277695269742024,-0.0234814853896218,0.1379335876021755,-0.2797086201557486,-1.1273844684528114,-0.0989678479550305,-0.3091469551912992
1718277695270718137,0.0489598950262935,0.1548277495841307,-0.2613175176909623,-1.1726586837764663,0.0796526013774434,-0.3512209463070463
1718277695271920909,0.048889065449843,0.1725758273335411,-0.1782380607931199,-1.0579855928431252,0.1791958590709865,-0.3773952998163394
1718277695273001491,0.0277194344391184,0.1742385407147105,-0.1859952527714257,-0.9763010638377244,0.272786604785817,-0.2585280916785404
1718277695274287460,0.0728337027446412,0.1215344366835711,-0.0495741663464462,-0.5441093059402347,0.339118129412028,-0.2577874279152528
1718277695274296710,0.0314367821891077,0.1200371314256016,-0.1237792216891498,-0.5828319780824528,0.269001029825255,-0.2339492986386289
1718277695275484252,-0.0280615537492658,0.1135805191586998,-0.0429799152381031,-0.4744676654999122,0.2116238297677491,-0.1634065241036101
1718277695276718345,-0.1133793904325594,0.2290820279838585,-0.0734701188127867,-0.7520362578069162,0.0894491762921757,-0.0644202584858833
1718277695277935869,0.0102927595072461,0.2333971443182815,0.0499336916346364,-0.5399239979581535,0.3189498978137617,-0.2922428606924789
1718277695279140889,0.0193994840307261,0.1868512550596133,0.1462229840476715,-0.2248541280339343,0.3580777135595298,-0.2579922028122032
1718277695280405157,0.0968415728534412,0.2157929950657934,0.0535024933168288,-0.3331760779515502,0.2370947181339678,-0.400673745785402
1718277695280417868,0.03626937853246,0.2357456738472585,0.1492305495163225,-0.2157705169923904,0.1742099925511654,-0.4640786506975097
1718277695281659557,-0.0026827262228596,0.1977743524949545,0.2679004258370652,0.1182582172261085,0.2688857144504817,-0.3679950197204367
1718277695282885833,-0.0287787563475039,0.1836937469544957,0.2592414599540681,0.1759782240426291,0.1639092728881556,-0.3251684778222184
1718277695284054421,-0.038137708515207,0.2026966483770559,0.2794505377265889,0.1834910455713399,0.2930224356762646,-0.3755390333757486
1718277695285477102,-0.0816940804771461,0.1883273327352041,0.3779605508671364,0.3552999216794903,0.1911389547155707,-0.3663137455241365
1718277695285486056,-0.1238821905183217,0.2600560195910927,0.2989386289447966,0.0696349147772782,0.2628113416193086,-0.2535955048906406
1718277695286710092,-0.1187878385376574,0.2234996849708169,0.3528143790884992,0.3420658286421558,0.3344541079521618,-0.1940765182241303
1718277695288062737,-0.0986866682400083,0.2175763227383714,0.4021982923292691,0.3736200257366476,0.2156461902412624,-0.2198175452342272
1718277695289207132,-0.1017898804254016,0.1459482836291566,0.3842428597975105,0.4668810068340253,0.2976696849851654,-0.0562765279155342
1718277695289258517,-0.0180523243867099,0.1427152674574718,0.374112953794767,0.4749989464999054,0.3462384050860327,-0.1027240912457427
1718277695290946195,0.0101163259945403,0.1259595153622707,0.2983658837605479,0.3046198149153614,0.21906440310705,-0.1732162679188264
1718277695292110138,0.0098125429853385,0.0793238605848427,0.3177080320758661,0.4689614028786988,0.2803319724072522,-0.2362609288571714
1718277695293418931,0.016550167711279,0.0781647989615133,0.2695497576222364,0.4589527858985751,0.1958137676417606,-0.3708284252055285
1718277695293436492,0.0239895421615583,0.0670692846473706,0.2675176031540398,0.5450909245736826,0.0605356566100988,-0.3479082724661131
1718277695294613958,0.0752943176565894,0.0731543009759951,0.3034550675871834,0.5803548765426138,0.2031713290923312,-0.3271771448225311
1718277695295831661,-0.0257981352730842,0.0877316142053558,0.2906516056392965,0.5074812012094331,0.1010678545147044,-0.1477979584804391
1718277695297039440,-0.0081988092928243,0.0712115903493996,0.2772409362646122,0.5070832209576879,0.1035628181335312,-0.1156852458368938
1718277695298267459,-0.0058514002662048,0.036604023369328,0.4206807645916476,0.7731160087438074,0.0503091802582247,-0.0017585996855205
1718277695298311510,-0.0354473747895921,-0.0013093946835997,0.4301875706171306,0.8740578594393297,0.0182548908234544,0.0814085277950326
1718277695299548854,-0.0874677311741497,0.0071086186204028,0.3288765281487954,0.629805388936152,-0.0134768795849172,0.0944869564625155
1718277695300754602,-0.1285917611886038,-0.0028199776148028,0.2544268460265381,0.5454816495423451,-0.0545818390658253,0.2471215802664133
1718277695302024411,-0.0851694603865863,0.0573182444714645,0.1861671698798359,0.2809335857328796,-0.0704159970320707,0.0969614506064483
1718277695303237870,-0.0586316865098672,-0.0496691221516648,0.2671901123725245,0.6355079804308104,-0.0460376543816346,-0.062095485800383
1718277695304501144,-0.1020705472761965,-0.046686297537035,0.1460280031692939,0.422106705449001,-0.2114042496177989,-0.0855127615341126
1718277695304509158,-0.1066062454300293,-0.0135321049712973,0.1172864930265146,0.2613727105583755,-0.1804122996189467,0.1911418306277088
1718277695305683836,-0.1122260192602836,-0.0249164710190345,0.0981916248513868,0.2054632189451427,-0.1587752828700021,0.1238773468699754
1718277695306895628,-0.1421442143063424,-0.0602675038934477,0.1098291770130011,0.3640841510716377,-0.2782468301250698,0.0748480023181981
1718277695308105566,-0.0932468791745528,-0.092715262745512,0.0580053296117875,0.3905872430163132,-0.3183743560710383,-0.0203347997488161
1718277695309387957,-0.1528255431124001,-0.1090615531885227,0.0325573008341812,0.3239475553882139,-0.2327659555790789,0.1760671879758964
1718277695309402167,-0.1822060897314364,-0.0449791259979047,-0.030064270081512,0.028326608643608,-0.1634230807963377,0.1665525725011317
1718277695310519003,-0.2292510706597796,-0.0710441142891894,-0.0817535681688168,0.0330846923151086,-0.1087926784052235,0.3456831811737404
1718277695311724818,-0.3054259629750258,-0.1665009706954297,-0.0717551502946201,0.2286026691292822,-0.2124907415805255,0.4093456412047816
1718277695312927080,-0.2146289050383285,-0.1838752217952258,-0.079345758082763,0.2383312625342742,-0.162738575040778,0.329303920446525
1718277695314137805,-0.1351438716522233,-0.2180977432741423,-0.1148142200215937,0.2036436247901745,-0.1704715473154255,0.0560699101094536
1718277695315461822,-0.1496388373151289,-0.2322789084283289,-0.1204566601870691,0.1802125287513769,-0.122144110586304,0.136837330410947
1718277695315477669,-0.1229535998199625,-0.286646621346422,-0.1404350610573966,0.2512891965344619,-0.0901274341267503,0.0733552753654684
1718277695316608931,-0.1176605237209358,-0.3162798826018441,-0.1719326777552792,0.2618767382981924,-0.1626691083351176,-0.0401204041381962
1718277695320995190,-0.132286385600573,-0.3106882850792483,-0.2213033939052153,0.2498045598636792,-0.2491035708483631,0.0730748359003171
1718277695322781509,-0.0738302067779842,-0.2469715400251358,-0.3311849094210878,-0.1386993219831214,-0.3561435872651534,-0.1645261547216863
1718277695322796258,-0.035847939559304,-0.2296767778824289,-0.3672148930959971,-0.2395019406836977,-0.2149939982148394,-0.0706565376853901
1718277695322805030,-0.0529806471575818,-0.1982037858189243,-0.3233943683292381,-0.1416769517182573,-0.3239448117584404,-0.1286147677585564
1718277695322814730,-0.1074807578781702,-0.2455957983095966,-0.2935177353984142,-0.0767035036136064,-0.3704870178662148,-0.0235106493770011
1718277695322823250,-0.0542127857191725,-0.2809785545304877,-0.2941190076213567,0.0383449749628233,-0.4080753046584672,-0.2485352378269861
1718277695323796932,-0.0102018744035028,-0.298822477497457,-0.2833264305310543,0.1413914674529224,-0.2349911964553117,-0.200427426829476
1718277695325050305,-0.0341033303704018,-0.2815874135378586,-0.2253054751442244,0.278147250992812,-0.1752477565520618,-0.0914651396758672
1718277695326235958,-0.0699030963233083,-0.2277312937099332,-0.213898389932182,0.1976621508485582,-0.2627647046038746,-0.0507703109453685
1718277695327500306,0.0285468869805149,-0.2481641578201896,-0.2009380497612458,0.255261470928088,-0.0544567951129014,-0.0827034486287215
1718277695327511170,0.0385876285556558,-0.2385372569713916,-0.2254400392841282,0.2073669674685838,-0.0242286776889723,-0.0902081920429206
1718277695328734528,0.0210977541980266,-0.2764059168001463,-0.1210024187148485,0.4173433727301866,0.0443372275073472,0.0056557091355048
1718277695329968198,0.0112550903347455,-0.2899417477030814,-0.0884500502402021,0.4823076550775826,0.0553031115197451,0.1098234553467212
1718277695331190727,0.0407107248106345,-0.2905735208380864,-0.1075575152664941,0.5778910899805559,-0.0648611983977835,-0.0275647258687419
1718277695332433628,0.0309055025349874,-0.2643039192095419,-0.0743853494334151,0.6081058725209451,-0.036838214571335,0.1841758211318112
1718277695332441979,0.0428983558096473,-0.2271339767941601,-0.0149053411715621,0.6782048413898728,0.1308083796541211,0.2683631701461478
1718277695333664954,0.1107835154859524,-0.1935356932910006,-0.0347676582926257,0.5999160452221434,0.1364515563325412,0.1844199070942309
1718277695334902694,0.0931669096995973,-0.1796079440080927,-0.0323018076522899,0.5716919050557979,0.1261228771998632,0.2599455946837037
1718277695336110625,0.1096333016462527,-0.1752184012100919,0.0044613954334658,0.7260176764643403,0.2504881166576108,0.180590926185347
1718277695337376314,0.0706639106366899,-0.1812876730635541,0.0761469507602777,0.8308489252111648,0.225958298248143,0.1305737389237792
1718277695337385580,0.0484094453138402,-0.1571413336039881,0.0622291001286496,0.7351116831218321,0.170807752894851,0.2454481019243893
1718277695338590353,-0.000874342894777,-0.0988149725424291,0.0727754344244389,0.5833912678124002,0.1201476425522345,0.2478871921294106
1718277695339841855,0.0319064885225645,-0.1549026187523754,0.1564472895446772,0.8575041402537713,0.0762510043372635,0.1701825362248847
1718277695341643566,-0.0105614630312855,-0.1594362472202419,0.1063391356629598,0.8425278827976164,0.0810776945455765,0.1046201072128402
1718277695343099103,0.0807127862614131,-0.1752426611206576,0.0347251632880553,0.7436139621360456,0.2185298596421349,-0.069935112241659
1718277695343108514,0.03650267919313,-0.2259240128727636,0.0834092865163584,0.8771783062540388,0.1530002139883086,0.0591129228958557
1718277695344193011,0.0522555077913029,-0.196288762531316,0.1547841884816799,1.0218826687301144,0.2498619059167473,0.086916264846931
1718277695345554949,0.0278672164480073,-0.1463225600129806,0.1505595003690495,0.9209743439362442,0.1778009846820216,0.0495001635962415
1718277695345564854,0.0743395319367554,-0.1626089067465799,0.1476919495014675,0.94704035040122,0.2708226571193904,-0.1195985908806209
1718277695346720365,0.115968384427617,-0.1865056848165339,0.1718408531363073,1.0125046715003685,0.37210236853813,-0.1158393734044805
1718277695347888467,0.0847296605253914,-0.2590567181793525,0.2178362692757689,1.224453492206863,0.2757659469903676,0.1088117429835347
1718277695349105550,0.1112742470118961,-0.2326604064414011,0.2282184474773273,1.228762132077803,0.3114800162085668,-0.0082512173731136
1718277695350318133,0.1051394030560327,-0.2174561212530033,0.2294608769831298,1.1784176764695018,0.3263291144376814,0.0244613132768169
1718277695350329109,0.1386164851401604,-0.1659593957979841,0.252731711231544,1.0588501916438358,0.4884316089535681,0.104190005524966
1718277695351579148,0.0834571953786488,-0.1384540292339123,0.1934532467656291,0.8445481884334918,0.3259783177317878,0.0634057115709014
1718277695352847467,0.0494973592270033,-0.0875623689130985,0.1379578002576776,0.6352835811971708,0.2366613463450066,0.1926537161223509
1718277695354051861,-0.022614339908453,-0.0834717705849423,0.16983704626243,0.6484947013430477,0.1198064916427778,0.2302674326064974
1718277695355055491,-0.0205618678967466,-0.0846138107005851,0.1903583888590226,0.6762561560407853,0.062659558049693,0.1448106975522118
1718277695356192709,-0.002745984117647,-0.0371192154190194,0.1627838394706073,0.4816025084386758,0.022339382931901,0.0700150155438643
1718277695357527638,0.012852619215591,0.0108458496599536,0.1555634039957078,0.3577696694607755,0.0171068467471793,-0.1386994828853657
1718277695357543448,-0.0285218695910239,0.0207838008695225,0.1977784823084876,0.3427181358595808,-0.0362503879823496,-0.0741013835120956
1718277695358631038,0.007605213746273,-0.0219098862984061,0.2336441582761015,0.480525389438294,0.1206380965743295,-0.1802235970890282
1718277695359908548,0.0155942992674906,-0.0245987935683812,0.2621900324613871,0.5941997536646362,0.0866784494613622,-0.158603896026766
1718277695361020594,0.0200666887083566,-0.0425956412964388,0.2936428476931306,0.6697027800359239,0.0414988343116718,-0.1726231003585854
1718277695362252911,0.0254442518051778,0.035624962742716,0.1756312054226513,0.2102555401652824,-0.00763429845121,-0.0935664574427304
1718277695363472037,-0.0089274875081315,0.0789764113648825,0.1225279785053139,-0.0719774361930554,-0.0560307347752865,-0.3195794366825792
1718277695363513199,0.0121047711103769,0.0779320224186216,0.0785925116089766,-0.2014647438803269,0.1927224359084992,-0.2965856796549583
1718277695364705767,0.0013925697448405,0.0544049694110094,0.0574937828469214,-0.229716721306471,0.0818835226327216,-0.3363252855510209
1718277695365910006,-0.0406523444711461,0.0280227144441202,0.0245442930857,-0.2624190145479713,-0.0971439605348177,-0.3769397968793086
1718277695367551442,-0.0476938606519656,0.0364857854112867,-0.1666263473594568,-0.6100298013021839,-0.1295335389063524,-0.3008408592997151
1718277695367559760,-0.0746606393993641,0.1316770328815155,-0.1010101893571949,-0.8099660677148094,-0.156355202897984,-0.3194011806562844
1718277695368745928,-0.0577023272920822,0.0882825034769507,0.0028460636471062,-0.5098337018599244,-0.1635484625755425,-0.1632493702276403
1718277695372191522,-0.1511698582456738,0.0939573409862792,-0.0413625476146709,-0.6181648861538016,-0.3021904796141329,-0.1603457437003638
1718277695372210760,-0.1050419568671133,0.0256053728605065,-0.0051031155123699,-0.4470220170719379,-0.3962841048659323,-0.3568868028659722
1718277695372222052,-0.0367339430004202,-0.001208038631888,-0.0379465597831551,-0.4474556871424185,-0.3481575947342353,-0.578443360718616
1718277695372984303,-0.021299107107915,-0.0181277133780023,-0.0132952419981547,-0.3605794162609062,-0.3745289896684453,-0.5829512846302042
1718277695374868557,-0.0204850712286127,-0.0385852741167864,0.0433702298535631,-0.2174015969971329,-0.293265901148344,-0.7221637944498962
1718277695374883685,-0.0902947984030854,-0.0612661359631187,0.0441005130091453,-0.1683047748128998,-0.3592452517668483,-0.5612222908124797
1718277695376033044,-0.087737212730976,-0.043602587372893,-0.0223142669179533,-0.321821552219615,-0.4458582250674208,-0.7017694482718275
1718277695377316026,-0.2074034146751892,-0.0761599168327207,-0.0487882870084203,-0.3593053226362367,-0.4530396314012657,-0.362740960684232
1718277695377327554,-0.1798130354937044,-0.0625379972563558,0.0309887067753379,-0.2271046404003175,-0.4893110604868487,-0.6568932201251693
1718277695378448265,-0.1735478493987431,-0.0652934481750952,0.096462507675185,-0.0605639021738085,-0.4854519282265199,-0.6457121012828556
1718277695379656304,-0.2027779707349352,-0.029671935661136,0.1252323961598022,-0.0789040678728214,-0.5138116863581739,-0.4627963925830661
1718277695380859851,-0.2462405616926665,-0.0139437366774325,0.0448445724454875,-0.2509652449058056,-0.6598021847934861,-0.5396901062311577
1718277695382129538,-0.1031957401420139,-0.0146127309474852,0.08836716728829,-0.0974285971930804,-0.5350537349276961,-0.850000531725839
1718277695383383584,-0.0772540709812281,0.0682511584015422,0.0949848484326873,-0.2376796860001124,-0.6645654301694535,-0.8346508983083354
1718277695383397648,-0.0937335750665052,0.0719785850724843,0.0990635929386558,-0.2093736642578671,-0.604434606831762,-0.7405059579627237
1718277695384451081,-0.0996379473459841,0.088453595471528,0.1109554765768141,-0.164109277251229,-0.5730138768842616,-0.6403740121560944
1718277695385657799,-0.279569996649445,0.1553768249527462,0.1046631226448166,-0.2636507095010733,-0.7113360301646523,-0.4578237887255514
1718277695386855362,-0.2307815778124861,0.1671688202275962,0.0919273517962606,-0.2678265173337453,-0.6734351132269859,-0.5165259286463068
1718277695388444622,-0.1152504958278088,0.173495349935793,0.1744197472467871,-0.200668921414224,-0.4732633900180946,-0.6410698668316434
1718277695388480331,-0.118273431786,0.2209051700733671,0.1286930493610628,-0.4250019840675207,-0.5113494727198633,-0.528702094362593
1718277695389651017,-0.2286785126384942,0.2322622824061078,-0.0092126988872314,-0.6546643446559262,-0.5063421023921072,-0.3084221564632968
1718277695390866110,-0.1351463912667153,0.1348026814860604,0.0201150083904425,-0.4156731864716847,-0.5007645042303496,-0.3288788544028716
1718277695392735332,-0.0787255138018873,0.145777041128701,0.0718514134854603,-0.3323621235182904,-0.455673718356031,-0.4464367886308069
1718277695394016951,-0.1520967492112662,0.126690031753847,0.0904522589125633,-0.2584162943487829,-0.5748056680436259,-0.4835705438713053
1718277695394037330,-0.1169988567314903,0.1020721551614938,0.1173185353468303,-0.2177899420983403,-0.5390725134555696,-0.5982672581073212
1718277695395339015,-0.1001474938596783,0.0980851249115826,0.0723978322262545,-0.2407093145577959,-0.4723297932969986,-0.5491671029334425
1718277695395349640,-0.0818628898865546,0.0607873304204578,0.1015414090147926,-0.0921012896128054,-0.4358388768876749,-0.5389300331381202
1718277695396395577,-0.102879644017847,0.0207369947121382,0.2169303783653139,0.2249924404714368,-0.3945737701976927,-0.5617206956076998
1718277695397785507,-0.0864936847466166,0.0186794823759286,0.1842384616748068,0.1422481956194473,-0.3829339892979816,-0.4963847012376321
1718277695398937265,-0.1432862798910692,0.0079331837867353,0.2214806718729213,0.2762938312530744,-0.3563384815165182,-0.5468394313904985
1718277695400112966,-0.0227440746261163,0.0118054131962782,0.1740454523245359,0.2087787659226976,-0.2548452093656193,-0.5912636575310917
1718277695401570661,-0.0163768307373826,-0.0320539598750699,0.1325908895825812,0.1834736322809657,-0.263644793464592,-0.6805985910078198
1718277695401583671,-0.055340137886659,-0.0216210171968281,0.0226429176098986,-0.0193888668081387,-0.3017039905015712,-0.5998966323283099
1718277695402689234,-0.0228240182800559,0.0040912292945596,0.0581973231321787,-0.0200687622422586,-0.3318500752193592,-0.9536047558764738
1718277695403927421,-0.0792806216199058,0.0186383777407504,0.0499274588635838,-0.0873175068803133,-0.3197140029353348,-0.8786420638028902
1718277695405027546,-0.1714427757210599,-0.0557610921470522,0.0385236170137597,0.0224223065465167,-0.4418022283290211,-0.810996543525443
1718277695406306831,-0.2486408982516479,-0.0747652574144645,0.0944746373728671,0.1962598116546454,-0.5356608982693786,-0.7259395543876318
1718277695406316950,-0.24528995251791,-0.1386268304851403,0.1890701185208201,0.5225909779332414,-0.4660373224426803,-0.6316360167766903
1718277695407522724,-0.2117392358372072,-0.1331574712040047,0.1373417446952467,0.4179592704962703,-0.4330954642985501,-0.7578758796777857
1718277695408738116,-0.1296148030936625,-0.0210834658690971,-0.0669170602926937,-0.0955261118482042,-0.4019020195455733,-0.9188683469814988
1718277695409931455,-0.1398646645739959,-0.0448851802397025,0.0018892339788327,0.0006464826123681,-0.3510298728052778,-0.663882276375402
1718277695411150166,-0.1116858698898172,-0.1480104471214678,0.0248529666569559,0.2569505997256439,-0.2784984541826012,-0.5599933527168168
1718277695412477037,-0.0672426657770753,-0.1466559062419618,0.0032690766662849,0.2052564694225488,-0.2373286098287546,-0.4643538135184356
1718277695412491328,-0.0186169782996849,-0.1445860723355174,0.1306783912881901,0.3849508430814629,-0.0547586496724314,-0.4208182209829653
1718277695413638421,-0.041965203263087,-0.178540598952667,0.1136136001515358,0.3319882898409077,-0.1098283306395629,-0.3375861613070612
1718277695414865289,-0.0059003800295673,-0.152354192258338,0.1481322008763422,0.392086897906334,-0.1039226287600832,-0.3232706507863925
1718277695416070566,0.0126857553198886,-0.1504574272761253,0.0410982222288034,0.2013100239870845,-0.1172163950557541,-0.3077349595089212
1718277695417427318,-0.0170287604798958,-0.1604737288447498,-0.0069903830601538,0.1023026184454718,-0.1149977771924268,-0.2679713226903878
1718277695417435731,-0.0340334304568744,-0.2108548597009168,-0.0531607763455167,0.1282053561983195,-0.2161069425435839,-0.1561252897274465
1718277695418536081,-0.0651258998778892,-0.2714161205016681,0.0079631504120685,0.3190061930418034,-0.2916350734494356,-0.0574742849686727
1718277695419846924,-0.030810468855806,-0.2724361702519473,-0.0373180875654098,0.2833459914181616,-0.2351107386947211,0.0675831595691542
1718277695423482877,-0.1000514107853552,-0.2199395164507357,-0.1951796354659503,-0.1171523913213256,-0.3262780303310237,-0.1312023652317421
1718277695424950175,-0.1509792861551508,-0.2467060245786996,-0.1273772294996839,0.0715903333677664,-0.3805411838535785,-0.0475916559302382
1718277695424956342,-0.1826186650175413,-0.2480758581289049,-0.151358870342647,0.0614451262766548,-0.3936246120849158,0.0544311665738135
1718277695424972680,-0.1695731858763965,-0.2793229322422455,-0.090174264192702,0.2376070656029042,-0.4315426594985452,-0.0553194042332798
1718277695424987250,-0.1299168998365003,-0.2732194395658304,-0.1502906710770775,0.1385055400125555,-0.4997058390784089,-0.1709262325861263
1718277695426070737,-0.182948508195539,-0.2622106858866588,-0.1227757635714958,0.1676071344836985,-0.5397787462156775,-0.1710509240478845
1718277695427893217,-0.1757552197254284,-0.1779496617829933,-0.2465789062488415,-0.1347872104374307,-0.5599551382351383,-0.1511856718150132
1718277695427911686,-0.200258167015794,-0.1976954713291814,-0.1437541607825026,0.0739591283842888,-0.5703321238739699,-0.0557113418142264
1718277695429112443,-0.1710913358527749,-0.2370035672537687,-0.1156005242020198,0.1711971051404155,-0.5708735162654182,-0.1787769806220928
1718277695430387167,-0.0664520747178472,-0.1974274919541011,-0.1376181855305169,0.1440080602461128,-0.4506228648987217,-0.246081686172894
1718277695430395398,-0.0490948583677727,-0.1527735953744364,-0.1232928684894516,0.0403409818761725,-0.3934852217449776,-0.2214480817542416
1718277695431579652,-0.0582796157493402,-0.1438764663637007,0.0006624246052739,0.1893504634783419,-0.4532777988405932,-0.0328476825075702
1718277695432811592,-0.0804029290506343,-0.0568207456979386,0.0591821157239887,0.2255321342247966,-0.3680808658211232,-0.1687072517987547
1718277695434011692,-0.0357520464133611,-0.0617833380272565,0.0390432753452406,0.3211501515922529,-0.404372141361285,-0.1811400304480561
1718277695435228699,-0.0357859554914513,-0.0509263701979158,0.0656049257940173,0.3556294793991906,-0.3105809112659664,-0.1503795404071685
1718277695435243314,-0.0618101098709799,-0.0274927359066541,0.074629624492839,0.3321144318377712,-0.4067064500842858,-0.1207343936005699
1718277695436502933,-0.117824056129923,0.0045711584500384,0.0759450350254514,0.2774958726431489,-0.4333586768681711,-0.213703037866384
1718277695437721287,-0.1653523317790857,-0.0343933032783859,0.0361069902188286,0.2867780125281769,-0.4199210930384537,-0.0787389554734963
1718277695438954777,-0.0437764136023078,-0.048108516406526,0.0753073314198258,0.3829170062090768,-0.258908634864726,-0.2513724612951526
1718277695440160873,-0.0649306065546933,-0.0510313667278344,0.0257725326819196,0.3009618438237987,-0.3093466787270463,-0.0124471258781398
1718277695440909460,0.0315401526397973,-0.0407889927656954,-0.056455599702651,0.1404065504133482,-0.1680873268819382,-0.1814639385686025
1718277695442099350,0.0103042118648792,-0.0436465881783706,-0.0502739063962096,0.1840154217228575,-0.174609418410264,-0.1478055618081872
1718277695444294324,-0.0323979995502131,0.0002438877253828,-0.0865046862622622,0.0080783260841361,-0.2569394370714422,-0.1165224880706466
1718277695445549731,-0.073191250804168,0.0088175266076601,-0.1079729671651968,-0.01410298707456,-0.2490807435261789,0.0071083115600083
1718277695445567040,-0.0925446256142977,0.0226058000595742,-0.0617963886040344,0.0511957819363895,-0.2826874297787496,0.0764541075132738
1718277695445583786,-0.0852226035419196,-0.0122404403807079,0.0279827817152691,0.3545335161472547,-0.3209162158705577,0.1464701456007529
1718277695446790756,-0.0594211521142496,-0.0381817915047364,0.092232026922219,0.5779303399002286,-0.3772394686157118,0.036967481192366
1718277695447989151,-0.1168271251327243,-0.0402388214486658,0.0885500376458182,0.5697995781060022,-0.4061029195902051,-0.0853093600648841
1718277695449197072,-0.0075118951440192,-0.0339756937159875,0.1581479502268574,0.6429647441461969,-0.1721137488436898,-0.1788246154262434
1718277695450430675,-0.0205756054466818,-0.036006265855984,0.2041963853179648,0.7688076068350084,-0.2202834240205587,-0.2075611692670152
1718277695450439164,-0.014395288622533,-0.0262115284709407,0.1677235269578155,0.7220512586656517,-0.1809927411451059,-0.287147658941658
1718277695451646567,-0.0743251892883718,0.0059329949159096,0.1222124600601883,0.5302227825566314,-0.3041675150691278,-0.1589933151550057
1718277695452959887,-0.1253517738522696,-0.0450555337484472,0.2574492570781317,0.8799498112417647,-0.3553047268225189,-0.3277934832929228
1718277695454171267,-0.0817457635537413,-0.0312414746663725,0.2826520574671408,0.8615441590742612,-0.3902916258736888,-0.3436678276988928
1718277695455405975,-0.0558041287278676,-0.0049420024430071,0.2219156834572025,0.6731791487471934,-0.2643279718916846,-0.3973453942790159
1718277695455416713,0.0205134192398937,0.029965779595917,0.2376025627009221,0.6426639277046373,-0.1717702313955376,-0.6012621948815291
1718277695456614757,-0.0197530782765984,-0.0131312777696907,0.257880014981746,0.7714426161877481,-0.2332661494136237,-0.7336542656761894
1718277695457857995,-0.0246006253290868,-0.0275644074515634,0.2130724502313327,0.7677535660356755,-0.2565922348508685,-0.839806193401739
1718277695458760793,-0.0539746093816813,0.010626487946997,0.2706799336276599,0.8009407808630505,-0.4027964585589855,-0.7066842664356094
1718277695460108892,-0.0199173095140917,-0.0519266211020924,0.3036177128109273,0.9276106103454091,-0.3353929611644379,-0.7392949415661667
1718277695461358705,0.0219060736208852,-0.0509516877206151,0.237425458369301,0.8337641860592637,-0.3112159053633716,-0.6765689037751657
1718277695461374266,-0.0415409476286935,-0.0472616831873076,0.1808825225228925,0.6630771888945963,-0.2912971665618739,-0.7011396344259374
1718277695462598615,-0.0639421506369195,-0.097838484266647,0.200309360596072,0.7431647738236268,-0.3798812470800236,-0.6843759839474692
1718277695463802008,-0.0419713342498794,-0.0472891887146259,0.1534878841486235,0.5463563711409765,-0.3270444071903376,-0.7382758942782602
1718277695465043261,-0.0297421461306461,-0.0499709363741215,0.1183031256589943,0.4476730475130096,-0.2742833590568737,-0.7052960195185458
1718277695466260344,-0.0275504319961499,-0.1066662118097106,0.069565901372804,0.4410218107036505,-0.2695686897488836,-0.6608554263475325
1718277695467527639,-0.0625956945949887,-0.0967552259383367,-0.0024242576566672,0.2657993949320029,-0.2560107286138855,-0.4835306319532587
1718277695467540544,-0.0941262274936274,-0.039343327156741,-0.0839570076438785,-0.0088163197355795,-0.3970805145962738,-0.2977404611789493
1718277695468725703,-0.032646278748701,-0.0697405541789402,-0.0990389679067243,-0.057156875749491,-0.3836314193277662,-0.3241716140028262
1718277695469951983,-0.0511749891190109,-0.0605622120030584,-0.1245615611695978,-0.1475702721273201,-0.3663643427188188,-0.3671082098313838
1718277695471198343,-0.1009616752362104,-0.0869702666570352,-0.1189780577550009,-0.1265636944764787,-0.5016584622486244,-0.2325252990041063
1718277695472383483,-0.1069262936350592,-0.0375383704046892,-0.2719933426641087,-0.5266334431981438,-0.5652985445724338,-0.3131613228490456
1718277695472399341,-0.0564118515176823,-0.0709934767667273,-0.1814816361357743,-0.2990940570607064,-0.5709236054740704,-0.3783464751428656
1718277695473620604,-0.0817171052383184,-0.0671062290829507,-0.3034043916369586,-0.5728034573015682,-0.6354046280570144,-0.4106381823842238
1718277695474818365,-0.1598024204009356,-0.037203092322441,-0.3552786264279128,-0.7990844237786636,-0.6478986796716476,-0.3564415977454399
1718277695476039388,-0.1268031519798378,-0.0736724394826208,-0.2868814787294495,-0.6604279369469009,-0.5043682314320657,-0.1978940014859408
1718277695477924204,-0.1911776839456689,-0.0813250377283611,-0.2693104364779177,-0.6182722798417376,-0.5368332624823883,-0.0560841159205346
1718277695479181681,-0.1195313265017468,-0.0686460447746188,-0.3004872089374614,-0.6582999408391899,-0.5740038142703717,0.00880489124977
1718277695479189678,-0.1983387521653608,-0.0526495893234216,-0.2483438294477709,-0.689511572570692,-0.5652833815212295,0.2332118061907403
1718277695480440615,-0.0830102044331459,-0.0256895272693419,-0.2549786650876642,-0.7752453575153107,-0.467843589429786,-0.0223671366712115
1718277695480453439,-0.0337178426633887,0.0015080907625676,-0.2887896369338992,-0.9184924957423724,-0.3626275838233644,-0.2162130174156772
1718277695481624507,-0.0398032035401978,-0.0284289200319854,-0.2290841050278887,-0.8031564469744703,-0.4123554464590516,-0.1740351637332799
1718277695482847040,-0.056348841392666,0.0007919526375529,-0.2327563220650334,-0.812804841217704,-0.4584771718794975,-0.0805743198552816
1718277695484019944,-0.0618046335018484,0.0964297332083941,-0.2863715431486415,-1.1104075923326713,-0.4969947091316196,-0.1895305543446195
1718277695485266239,-0.0914464802846987,0.1098694487667412,-0.1976392531187291,-0.9823666751067422,-0.4095990599902344,-0.173774435977416
1718277695486506393,-0.0491251615106402,0.1398730605375972,-0.1686732386290434,-0.9542743213719448,-0.2926006966291565,-0.1187636717067218
1718277695486519771,-0.0464065637790091,0.1364376988403471,-0.1855163747866702,-0.8865943393866803,-0.2419217038187031,0.0594196365002
1718277695487757698,-0.1308048398969534,0.0701202091827409,-0.1248565641523792,-0.6511264803920737,-0.3372869781939963,0.0536060190345052
1718277695488957669,-0.0849832461683299,0.0840638507093926,-0.1305579791167053,-0.7197398006099419,-0.2658424893456371,-0.1007954353591357
1718277695490274934,-0.0006930572795265,0.125099307679821,-0.1512317290933857,-0.8121149959373671,-0.2172305309913582,-0.1485228087219972
1718277695491521294,-0.0679801787354014,0.1187176911827564,-0.0768211866400077,-0.5986550558660433,-0.3012316975788057,-0.0222283239394708
1718277695491531576,-0.1401666718672948,0.1105043097114166,-0.0644103812685597,-0.5995739959929768,-0.355375414955009,0.1533358651617472
1718277695492748594,-0.1577175842365331,0.1014498210170437,-0.0698635244699788,-0.5154912548823647,-0.4022157584904531,0.279703654345503
1718277695494942838,-0.1751168860917739,0.1759074516191879,-0.1931625095404937,-0.8742880025917257,-0.4347901256374427,0.4561651360792926
1718277695494954765,-0.0802889308768764,0.1450934747424573,-0.0200301832911924,-0.5030195519953602,-0.2542039130624913,0.5374292206939418
1718277695496151978,-0.0216517840522698,0.0553561041198836,0.1545510662647077,0.0241438917340394,-0.2664561315142608,0.2603019664517477
1718277695497400878,-0.0841120793096838,0.0817329814460932,0.1175925172325358,-0.0580299776194135,-0.3131644859722438,0.4212951865592616
1718277695497411589,-0.0544353854464725,0.0877857089052317,0.1722404514061664,0.0371298121929086,-0.2115223809546519,0.6477543526887084
1718277695498526418,5.148602573380734e-05,0.0296773035492223,0.2572006957192806,0.3519429908572486,-0.2532051979672083,0.5169082575807561
1718277695499839627,0.011255901102033,0.0846653999927682,0.2909925145214753,0.35391770945694,-0.1643249466863254,0.7185573521826781
1718277695501036312,-0.0753338835968622,0.0850598854266599,0.3423295837448462,0.4641416777630069,-0.2100732389717697,0.8724230744942765
1718277695502262774,-0.1543452111593828,0.1415483859363232,0.3469559745360104,0.3624602045717022,-0.282598326762868,0.9557543432962744
1718277695502274728,-0.0937676513214643,0.1623374653223194,0.3642562468622281,0.4012072668999394,-0.1978923215707138,0.8087699644152486
1718277695503565913,-0.0884444857151039,0.1553228618524478,0.3918022067706267,0.4908849390371121,-0.1051101549860958,0.9947503566971824
1718277695504702900,-0.0231880841436249,0.122173656912338,0.364585228789012,0.4557953919196635,-0.0483497132606827,0.7455722493404633
1718277695505822434,-0.0112247809325679,0.1550416065764035,0.3507801967549007,0.4338908361268481,-0.033610406988783,0.6844016995895774
1718277695507113472,0.0961842031468974,0.0971764676998518,0.3754375303389515,0.6319970367264242,0.0121790685966167,0.6552873320792898
1718277695508541820,0.1349173271921051,0.0600697700287736,0.4138298422433272,0.8036168031533284,0.0393531361961886,0.4921176017718764
1718277695508549525,0.1077510293398345,0.0771213080438144,0.4425895979469639,0.8574600784610906,0.0367916554273993,0.4562756111079043
1718277695509833174,0.181148162320792,0.0775581486629473,0.4821374786857258,0.916660723326208,0.0109481400492759,0.4373075729830652
1718277695510983855,0.1215933764031201,0.125148560031411,0.4895554398915278,0.7803529718436522,0.0777285538540333,0.5639150759736915
1718277695512212837,0.0922620210579498,0.1121594542626219,0.5346107268436265,0.9093497225499728,0.0852817805377455,0.5685267490403082
1718277695513474381,0.102320684587083,0.0543767301010973,0.5965090916744116,1.1749983410388445,0.1215136812361369,0.4817600042863125
1718277695513479462,0.0704747894349537,0.030309148330305,0.5711983144598691,1.116361646022758,0.1486863769033129,0.7672456579750044
1718277695514734326,0.1386687802328607,0.0029319714157372,0.5173914139829998,1.1046909674979537,0.1367911706660392,0.6556711479839936
1718277695515950357,0.2250806080967873,0.0174791166888977,0.4431285164866127,0.8835396793105827,0.3812186319776319,0.5709865603795852
1718277695517167586,0.2004908510510375,-0.0157746024557261,0.3527997681619487,0.8091404152722246,0.2843612847099109,0.376002988302748
1718277695518410157,0.2013182148461194,-0.0435654734931453,0.2596958148673353,0.6742172472567762,0.2332698009765157,0.3584765283380637
1718277695518420485,0.154066043153656,-0.0900645925009402,0.2490107320544108,0.7055390502441945,0.1989153079283726,0.3513326911515821
1718277695519593474,0.2075145677492205,-0.1068194793142304,0.2770055503423916,0.7604127897775333,0.3030562620416459,0.5406196184227716
1718277695520819336,0.1322173987626539,-0.0984431074431037,0.2228596745291272,0.6488934644015124,0.4141640530874235,0.6358278139108728
1718277695522054511,0.1280536048660844,-0.1217641826238905,0.1549188702433059,0.4907653772717328,0.6035659886762649,0.7971772160129945
1718277695525939311,0.1516653008867285,-0.1745709507298556,0.1965709253044507,0.6709606732446574,0.5824282456615892,0.6793648712802737
1718277695525951138,0.139931536058636,-0.2102167479070042,0.1759640130921198,0.7126040078188837,0.5799007300486981,0.4919610692814987
1718277695527251475,0.1332370575463648,-0.2651610771239066,0.1359315757366397,0.8048848456595651,0.4497614958114035,0.4639970509892352
1718277695527263040,0.1385960176275527,-0.3061466672386196,0.1231038431917072,0.8312386688233357,0.4990626000103381,0.5702781104673726
1718277695527279564,0.1758564002137967,-0.2525474546622235,-0.0584946611135354,0.4367569931598321,0.5060444381216165,0.5402586618569514
1718277695528454237,0.1934650886325681,-0.2723107026808352,-0.0732296117491172,0.3985864461460803,0.5098433448574954,0.5848659888537132
1718277695528463243,0.1566786669277759,-0.2918539506434846,-0.074649620107248,0.4017790983546944,0.4841580247663378,0.7268295768424633
1718277695529693562,0.1086476739582042,-0.3267331861953512,-0.0510542583007634,0.5540921263936339,0.3695949179829474,0.78235611234477
1718277695530902817,0.1780315190219311,-0.3440671895969129,-0.0313515962046088,0.5405914256963088,0.4346541277989535,0.578458588451659
1718277695532086267,0.203994992122805,-0.3483240260844925,-0.0586347492277335,0.4616694493768498,0.4588790274718931,0.6301528534707306
1718277695533364640,0.1069733851441784,-0.3302452568279737,-0.0765188534241499,0.4141702352996559,0.3482198392331989,0.5903947272745899
1718277695534662850,0.1478621762768238,-0.3065118816057272,-0.1728235817167133,0.2011564530093387,0.3845984598043473,0.5341884272720245
1718277695534697058,0.1466861201110023,-0.2626224054396958,-0.2002758481404423,0.0176642111347117,0.2784594335591805,0.4819975337152662
1718277695535873379,0.1465267104314905,-0.2310717099614131,-0.2583598379698605,-0.1995004396237606,0.0520844162494945,0.203001599768813
1718277695537073300,0.1203615265361864,-0.1722849029914844,-0.3630818833913107,-0.4827026993497318,0.0032547960264398,0.0179001022076299
1718277695538328905,0.1588757502342386,-0.1888723590406018,-0.2715839937885044,-0.310511719762012,0.0110318307407144,0.0884443362459816
1718277695538381766,3.55304923057298e-05,-0.1889208790173786,-0.176515720519145,-0.1312079678826662,-0.1620669712002991,0.3296961589298418
1718277695539559439,0.0986598238557512,-0.1268290545019214,-0.2871415064065248,-0.3822392365955824,-0.1607350043496477,0.0386230459541058
1718277695540814226,0.0611554990476543,-0.1213922968655964,-0.1670561681731725,-0.1855142315779725,-0.1378538231044895,0.1221134406045429
1718277695542025318,0.1015702853636154,-0.1582283362826538,-0.1211709418793449,-0.0062954310044595,-0.1078396223146487,0.0146064555784628
1718277695543233065,0.0723235978317643,-0.1474855980859857,-0.1994827215921783,-0.0781476804067143,-0.2379474960094572,0.0763580143103855
1718277695544426070,0.163199384974409,-0.1498582756425276,-0.2034594238508426,-0.0632409390996481,-0.2037479696278895,-0.0586688834757468
1718277695544438792,0.1533884936228376,-0.1873983263825185,-0.2216270222686183,-0.0325970495060168,-0.29374259276746,-0.0331663532080195
1718277695545987490,0.0402616279413507,-0.1104944046495485,-0.2408701553855287,-0.1806607290441716,-0.5520789723153492,0.0067499358360033
1718277695547195945,0.1813129301298723,-0.0422780963462129,-0.2620698952839619,-0.3513597953416402,-0.4904156781084967,-0.1613232260814021
1718277695548401594,0.1150739920295921,-0.1376674535852289,-0.100345616208387,0.0457004295405627,-0.5154801768659972,-0.0894879748252927
1718277695548415476,0.0827110115254907,-0.1309103856529752,-0.1281716354342886,0.0170469017345245,-0.5445722224014852,-0.0812850394367365
1718277695549699661,0.0245960301303727,-0.1193608758657061,-0.1266333289234434,0.0777656773731055,-0.6671316357906947,0.0456228205347617
1718277695550886452,0.0679193098433172,-0.1143900756159244,-0.1287995829891034,0.1146031283036478,-0.7655891513313584,-0.1044636301246503
1718277695552156389,0.0220776785857437,-0.1118898865836186,-0.0648680761033064,0.3190824477725094,-0.8103784228360426,-0.1386736423219026
1718277695553378645,-0.0028881174112485,-0.1137937676579807,-0.1141977913294695,0.2972178828024557,-0.8729390558759486,-0.3266886399129365
1718277695553406116,0.019785541426149,-0.1392394240096524,-0.047076205702854,0.4764335174927534,-0.8926631613826358,-0.0958776234248498
1718277695554576627,-0.0507637245048394,-0.2181998216142511,-0.0290179970628899,0.6824373339309314,-0.8972102147690637,0.0085670229232352
1718277695555835487,0.021488852453278,-0.1767385212551352,0.0075469037950755,0.7085294674462183,-0.8851622441871198,-0.181614878997014
1718277695557059110,-0.0248876354347161,-0.1633247637167094,0.0551663170881828,0.7947226120980262,-1.0097263150927414,-0.1881495658401548
1718277695558267330,-0.0332027394963384,-0.1485214639285501,0.0589145242354703,0.7923463272404075,-0.968635863808427,-0.1635063480837166
1718277695559600604,-0.0327304102373782,-0.1328835927888533,-0.0023410642988895,0.6526856695356384,-1.0626705240818104,-0.1932668363650251
1718277695559625100,-0.1128759579285479,-0.1190177201922262,-0.0229710212091286,0.6211772835421769,-1.1094662050198882,-0.1240137087148322
1718277695560808523,-0.0813022486195537,-0.0734030546613573,0.045178579763463,0.650192315363476,-1.1365213880344989,-0.2770902677547565
1718277695561973456,-0.0304086177217183,-0.0873796735739808,0.1318960087524982,0.8405315605179661,-1.0160842077079493,-0.2591281887470749
1718277695570309315,-0.0852198348148656,-0.0615973551082717,0.096932322948199,0.706827233115954,-0.9171788413188204,-0.2411554552873817
1718277695572931781,-0.055928511131455,-0.1097809284684319,0.1211902784121312,0.856451002505008,-0.8306559862961496,-0.1987226299815701
1718277695572955037,0.0482031352850516,-0.0678193159479411,0.096682734410821,0.6927818679192611,-0.6606364742416715,-0.404433179490115
1718277695572967646,0.1176611934433592,-0.095319837076594,0.1765717688145377,0.7807805711869825,-0.66655541955813,-0.6346679109196471
1718277695572981560,0.0406505324004195,-0.0471189749065646,0.1134847113623259,0.5741797805263408,-0.8267838934340975,-0.488629017319133
1718277695572996023,0.0513315631643903,-0.0066070586423359,0.023008527173286,0.2568787496446852,-0.7999841531545882,-0.4732472297290324
